{
  "001": {
    "name": "Apache County",
    "fips": "AZ",
    "pop10": "71518",
    "lat": 35.385845,
    "lon": -109.493747,
    "geoid": "04001",
    "deaths": 6,
    "prop_dmg": "116M",
    "crop_dmg": 0,
    "inj": 1,
    "all": 11,
    "eq": [],
    "Hurricane____Typhoon___": [],
    "Cold__FWind_Chill": [],
    "Coastal_Flood": [],
    "Avalanche": [],
    "Astronomical_Low_Tide": [],
    "Dense_Fog": [],
    "Drought": [],
    "Dust_Devil": [],
    "Dust_Storm": [],
    "Excessive_Heat": [],
    "Extreme_Cold__FWind_Chill": [
      {
        "type": "Extreme+Cold%2FWind+Chill",
        "time": "0",
        "inj": "0",
        "deaths": "0",
        "prop_dmg": "50.0k",
        "crop_dmg": "0",
        "begin": "01/01/2011",
        "county": "WHITE MOUNTAINS ",
        "state": "AZ"
      },
      {
        "type": "Extreme+Cold%2FWind+Chill",
        "time": "2000",
        "inj": "0",
        "deaths": "0",
        "prop_dmg": "30.0k",
        "crop_dmg": "0",
        "begin": "02/01/2011",
        "county": "WHITE MOUNTAINS ",
        "state": "AZ"
      }
    ],
    "Flash_Flood": [],
    "Flood": [],
    "Freezing_Fog": [],
    "Funnel_Cloud": [],
    "Hail": [],
    "Heat": [],
    "Heavy_Rain": [
      {
        "type": "Heavy+Rain",
        "time": "1150",
        "inj": "0",
        "deaths": "0",
        "prop_dmg": "10.0k",
        "crop_dmg": "0",
        "begin": "07/09/2011",
        "county": "APACHE CO.",
        "state": "AZ"
      }
    ],
    "Heavy_Snow": [
      {
        "type": "Heavy+Snow",
        "time": "1200",
        "inj": "0",
        "deaths": "2",
        "prop_dmg": "0",
        "crop_dmg": "0",
        "begin": "01/03/2005",
        "county": "WHITE MOUNTAINS ",
        "state": "AZ"
      }
    ],
    "High_Surf": [],
    "High_Wind": [],
    "Ice_Storm": [],
    "Lakeshore_Flood": [],
    "Landslide": [],
    "Lightning": [
      {
        "type": "Lightning",
        "time": "1400",
        "inj": "1",
        "deaths": "1",
        "prop_dmg": "0",
        "crop_dmg": "0",
        "begin": "08/20/2006",
        "county": "APACHE CO.",
        "state": "AZ"
      },
      {
        "type": "Lightning",
        "time": "1900",
        "inj": "0",
        "deaths": "1",
        "prop_dmg": "0",
        "crop_dmg": "0",
        "begin": "07/15/2007",
        "county": "APACHE CO.",
        "state": "AZ"
      },
      {
        "type": "Lightning",
        "time": "1400",
        "inj": "0",
        "deaths": "1",
        "prop_dmg": "0",
        "crop_dmg": "0",
        "begin": "07/12/2011",
        "county": "APACHE CO.",
        "state": "AZ"
      },
      {
        "type": "Lightning",
        "time": "1500",
        "inj": "0",
        "deaths": "0",
        "prop_dmg": "7.50k",
        "crop_dmg": "0",
        "begin": "09/13/2013",
        "county": "APACHE CO.",
        "state": "AZ"
      },
      {
        "type": "Lightning",
        "time": "1300",
        "inj": "0",
        "deaths": "1",
        "prop_dmg": "0",
        "crop_dmg": "0",
        "begin": "09/20/2013",
        "county": "APACHE CO.",
        "state": "AZ"
      }
    ],
    "Rip_Current": [],
    "Seiche": [],
    "Sleet": [],
    "Storm_Surge__FTide": [],
    "Strong_Wind": [],
    "Thunderstorm_Wind": [],
    "Tornado": [],
    "Tropical_Depression": [],
    "Tropical_Storm": [],
    "Tsunami": [],
    "Volcanic_Ashfall": [],
    "Waterspout": [],
    "Wildfire": [
      {
        "type": "Wildfire",
        "time": "1400",
        "inj": "0",
        "deaths": "0",
        "prop_dmg": "58.0M",
        "crop_dmg": "0",
        "begin": "06/01/2011",
        "county": "WHITE MOUNTAINS ",
        "state": "AZ"
      },
      {
        "type": "Wildfire",
        "time": "1400",
        "inj": "0",
        "deaths": "0",
        "prop_dmg": "58.0M",
        "crop_dmg": "0",
        "begin": "06/01/2011",
        "county": "WHITE MOUNTAINS ",
        "state": "AZ"
      }
    ],
    "Winter_Storm": [],
    "Winter_Weather": []
  },
  "003": {
    "name": "Cochise County",
    "fips": "AZ",
    "pop10": "131346",
    "lat": 31.881793,
    "lon": -109.75412,
    "geoid": "04003",
    "deaths": 2,
    "prop_dmg": "17.7M",
    "crop_dmg": 0,
    "inj": 8,
    "all": 23,
    "eq": [],
    "Hurricane____Typhoon___": [],
    "Cold__FWind_Chill": [],
    "Coastal_Flood": [],
    "Avalanche": [],
    "Astronomical_Low_Tide": [],
    "Dense_Fog": [],
    "Drought": [],
    "Dust_Devil": [],
    "Dust_Storm": [],
    "Excessive_Heat": [],
    "Extreme_Cold__FWind_Chill": [],
    "Flash_Flood": [
      {
        "type": "Flash+Flood",
        "time": "1430",
        "inj": "0",
        "deaths": "0",
        "prop_dmg": "25.0k",
        "crop_dmg": "0",
        "begin": "06/21/2006",
        "county": "COCHISE CO.",
        "state": "AZ"
      },
      {
        "type": "Flash+Flood",
        "time": "2045",
        "inj": "0",
        "deaths": "0",
        "prop_dmg": "50.0k",
        "crop_dmg": "0",
        "begin": "07/03/2012",
        "county": "COCHISE CO.",
        "state": "AZ"
      },
      {
        "type": "Flash+Flood",
        "time": "1700",
        "inj": "0",
        "deaths": "0",
        "prop_dmg": "5.00k",
        "crop_dmg": "0",
        "begin": "07/13/2012",
        "county": "COCHISE CO.",
        "state": "AZ"
      },
      {
        "type": "Flash+Flood",
        "time": "1530",
        "inj": "0",
        "deaths": "0",
        "prop_dmg": "10.0k",
        "crop_dmg": "0",
        "begin": "07/15/2012",
        "county": "COCHISE CO.",
        "state": "AZ"
      },
      {
        "type": "Flash+Flood",
        "time": "1800",
        "inj": "0",
        "deaths": "0",
        "prop_dmg": "20.0k",
        "crop_dmg": "0",
        "begin": "07/15/2012",
        "county": "COCHISE CO.",
        "state": "AZ"
      },
      {
        "type": "Flash+Flood",
        "time": "1930",
        "inj": "2",
        "deaths": "0",
        "prop_dmg": "10.0k",
        "crop_dmg": "0",
        "begin": "07/16/2012",
        "county": "COCHISE CO.",
        "state": "AZ"
      }
    ],
    "Flood": [
      {
        "type": "Flood",
        "time": "200",
        "inj": "0",
        "deaths": "0",
        "prop_dmg": "10.0k",
        "crop_dmg": "0",
        "begin": "08/06/1997",
        "county": "COCHISE CO.",
        "state": "AZ"
      },
      {
        "type": "Flood",
        "time": "700",
        "inj": "0",
        "deaths": "0",
        "prop_dmg": "400k",
        "crop_dmg": "0",
        "begin": "07/31/2006",
        "county": "COCHISE CO.",
        "state": "AZ"
      }
    ],
    "Freezing_Fog": [],
    "Funnel_Cloud": [],
    "Hail": [],
    "Heat": [],
    "Heavy_Rain": [
      {
        "type": "Heavy+Rain",
        "time": "2140",
        "inj": "0",
        "deaths": "0",
        "prop_dmg": "75.0k",
        "crop_dmg": "0",
        "begin": "08/07/2012",
        "county": "COCHISE CO.",
        "state": "AZ"
      },
      {
        "type": "Heavy+Rain",
        "time": "1200",
        "inj": "0",
        "deaths": "0",
        "prop_dmg": "15.0k",
        "crop_dmg": "0",
        "begin": "03/01/2014",
        "county": "COCHISE CO.",
        "state": "AZ"
      },
      {
        "type": "Heavy+Rain",
        "time": "1835",
        "inj": "0",
        "deaths": "0",
        "prop_dmg": "20.0k",
        "crop_dmg": "0",
        "begin": "07/08/2014",
        "county": "COCHISE CO.",
        "state": "AZ"
      }
    ],
    "Heavy_Snow": [],
    "High_Surf": [],
    "High_Wind": [],
    "Ice_Storm": [],
    "Lakeshore_Flood": [],
    "Landslide": [],
    "Lightning": [
      {
        "type": "Lightning",
        "time": "1440",
        "inj": "0",
        "deaths": "1",
        "prop_dmg": "0",
        "crop_dmg": "0",
        "begin": "05/20/1997",
        "county": "COCHISE CO.",
        "state": "AZ"
      },
      {
        "type": "Lightning",
        "time": "1700",
        "inj": "0",
        "deaths": "1",
        "prop_dmg": "0",
        "crop_dmg": "0",
        "begin": "05/20/1997",
        "county": "COCHISE CO.",
        "state": "AZ"
      },
      {
        "type": "Lightning",
        "time": "1300",
        "inj": "2",
        "deaths": "0",
        "prop_dmg": "0",
        "crop_dmg": "0",
        "begin": "07/28/2000",
        "county": "COCHISE CO.",
        "state": "AZ"
      },
      {
        "type": "Lightning",
        "time": "1910",
        "inj": "2",
        "deaths": "0",
        "prop_dmg": "0",
        "crop_dmg": "0",
        "begin": "06/24/2008",
        "county": "COCHISE CO.",
        "state": "AZ"
      },
      {
        "type": "Lightning",
        "time": "1445",
        "inj": "0",
        "deaths": "0",
        "prop_dmg": "5.00k",
        "crop_dmg": "0",
        "begin": "07/17/2010",
        "county": "COCHISE CO.",
        "state": "AZ"
      },
      {
        "type": "Lightning",
        "time": "2040",
        "inj": "0",
        "deaths": "0",
        "prop_dmg": "20.0k",
        "crop_dmg": "0",
        "begin": "07/17/2010",
        "county": "COCHISE CO.",
        "state": "AZ"
      },
      {
        "type": "Lightning",
        "time": "1300",
        "inj": "2",
        "deaths": "0",
        "prop_dmg": "0",
        "crop_dmg": "0",
        "begin": "08/11/2011",
        "county": "COCHISE CO.",
        "state": "AZ"
      },
      {
        "type": "Lightning",
        "time": "1500",
        "inj": "0",
        "deaths": "0",
        "prop_dmg": "15.0k",
        "crop_dmg": "0",
        "begin": "06/22/2012",
        "county": "COCHISE CO.",
        "state": "AZ"
      },
      {
        "type": "Lightning",
        "time": "2330",
        "inj": "0",
        "deaths": "0",
        "prop_dmg": "3.00k",
        "crop_dmg": "0",
        "begin": "07/30/2012",
        "county": "COCHISE CO.",
        "state": "AZ"
      }
    ],
    "Rip_Current": [],
    "Seiche": [],
    "Sleet": [],
    "Storm_Surge__FTide": [],
    "Strong_Wind": [],
    "Thunderstorm_Wind": [],
    "Tornado": [],
    "Tropical_Depression": [],
    "Tropical_Storm": [],
    "Tsunami": [],
    "Volcanic_Ashfall": [],
    "Waterspout": [],
    "Wildfire": [
      {
        "type": "Wildfire",
        "time": "0",
        "inj": "0",
        "deaths": "0",
        "prop_dmg": "15.0M",
        "crop_dmg": "0",
        "begin": "07/01/2011",
        "county": "DRAGOON/MULE/HUACHUCA AND SANTA RITA MOUNTAINS ",
        "state": "AZ"
      },
      {
        "type": "Wildfire",
        "time": "0",
        "inj": "0",
        "deaths": "0",
        "prop_dmg": "1.00M",
        "crop_dmg": "0",
        "begin": "06/01/2011",
        "county": "CHIRICAHUA MOUNTAINS ",
        "state": "AZ"
      },
      {
        "type": "Wildfire",
        "time": "0",
        "inj": "0",
        "deaths": "0",
        "prop_dmg": "1.00M",
        "crop_dmg": "0",
        "begin": "06/01/2011",
        "county": "CHIRICAHUA MOUNTAINS ",
        "state": "AZ"
      }
    ],
    "Winter_Storm": [],
    "Winter_Weather": []
  },
  "005": {
    "name": "Coconino County",
    "fips": "AZ",
    "pop10": "134421",
    "lat": 35.829692,
    "lon": -111.773728,
    "geoid": "04005",
    "deaths": 9,
    "prop_dmg": "16.8M",
    "crop_dmg": 0,
    "inj": 38,
    "all": 30,
    "eq": [],
    "Hurricane____Typhoon___": [],
    "Cold__FWind_Chill": [],
    "Coastal_Flood": [],
    "Avalanche": [],
    "Astronomical_Low_Tide": [],
    "Dense_Fog": [],
    "Drought": [],
    "Dust_Devil": [],
    "Dust_Storm": [
      {
        "type": "Dust+Storm",
        "time": "1300",
        "inj": "3",
        "deaths": "0",
        "prop_dmg": "0",
        "crop_dmg": "0",
        "begin": "09/14/2000",
        "county": "WESTERN MOGOLLON RIM ",
        "state": "AZ"
      },
      {
        "type": "Dust+Storm",
        "time": "1300",
        "inj": "0",
        "deaths": "0",
        "prop_dmg": "60.0k",
        "crop_dmg": "0",
        "begin": "04/05/2010",
        "county": "LITTLE COLORADO RIVER VALLEY IN COCONINO COUNTY ",
        "state": "AZ"
      }
    ],
    "Excessive_Heat": [],
    "Extreme_Cold__FWind_Chill": [
      {
        "type": "Extreme+Cold%2FWind+Chill",
        "time": "100",
        "inj": "0",
        "deaths": "0",
        "prop_dmg": "1.00M",
        "crop_dmg": "0",
        "begin": "01/01/2011",
        "county": "WESTERN MOGOLLON RIM ",
        "state": "AZ"
      }
    ],
    "Flash_Flood": [
      {
        "type": "Flash+Flood",
        "time": "1416",
        "inj": "0",
        "deaths": "0",
        "prop_dmg": "10.0k",
        "crop_dmg": "0",
        "begin": "07/03/2011",
        "county": "COCONINO CO.",
        "state": "AZ"
      }
    ],
    "Flood": [
      {
        "type": "Flood",
        "time": "1830",
        "inj": "1",
        "deaths": "0",
        "prop_dmg": "1.00k",
        "crop_dmg": "0",
        "begin": "08/01/1996",
        "county": "COCONINO CO.",
        "state": "AZ"
      },
      {
        "type": "Flood",
        "time": "1630",
        "inj": "0",
        "deaths": "0",
        "prop_dmg": "1.00k",
        "crop_dmg": "0",
        "begin": "08/04/1997",
        "county": "COCONINO CO.",
        "state": "AZ"
      },
      {
        "type": "Flood",
        "time": "1320",
        "inj": "0",
        "deaths": "0",
        "prop_dmg": "500",
        "crop_dmg": "0",
        "begin": "09/13/1997",
        "county": "COCONINO CO.",
        "state": "AZ"
      },
      {
        "type": "Flood",
        "time": "1730",
        "inj": "0",
        "deaths": "0",
        "prop_dmg": "1.00k",
        "crop_dmg": "0",
        "begin": "07/27/1999",
        "county": "COCONINO CO.",
        "state": "AZ"
      }
    ],
    "Freezing_Fog": [],
    "Funnel_Cloud": [],
    "Hail": [],
    "Heat": [],
    "Heavy_Rain": [
      {
        "type": "Heavy+Rain",
        "time": "1215",
        "inj": "0",
        "deaths": "0",
        "prop_dmg": "10.0k",
        "crop_dmg": "0",
        "begin": "08/14/2011",
        "county": "COCONINO CO.",
        "state": "AZ"
      }
    ],
    "Heavy_Snow": [],
    "High_Surf": [],
    "High_Wind": [],
    "Ice_Storm": [
      {
        "type": "Ice+Storm",
        "time": "700",
        "inj": "0",
        "deaths": "2",
        "prop_dmg": "0",
        "crop_dmg": "0",
        "begin": "01/25/2006",
        "county": "EASTERN MOGOLLON RIM ",
        "state": "AZ"
      },
      {
        "type": "Ice+Storm",
        "time": "700",
        "inj": "0",
        "deaths": "3",
        "prop_dmg": "0",
        "crop_dmg": "0",
        "begin": "01/25/2006",
        "county": "WESTERN MOGOLLON RIM ",
        "state": "AZ"
      }
    ],
    "Lakeshore_Flood": [],
    "Landslide": [],
    "Lightning": [
      {
        "type": "Lightning",
        "time": "1325",
        "inj": "7",
        "deaths": "0",
        "prop_dmg": "0",
        "crop_dmg": "0",
        "begin": "08/22/2000",
        "county": "COCONINO CO.",
        "state": "AZ"
      },
      {
        "type": "Lightning",
        "time": "1500",
        "inj": "0",
        "deaths": "1",
        "prop_dmg": "0",
        "crop_dmg": "0",
        "begin": "07/30/2006",
        "county": "COCONINO CO.",
        "state": "AZ"
      },
      {
        "type": "Lightning",
        "time": "1530",
        "inj": "2",
        "deaths": "0",
        "prop_dmg": "0",
        "crop_dmg": "0",
        "begin": "07/22/2008",
        "county": "COCONINO CO.",
        "state": "AZ"
      },
      {
        "type": "Lightning",
        "time": "1445",
        "inj": "1",
        "deaths": "0",
        "prop_dmg": "0",
        "crop_dmg": "0",
        "begin": "07/23/2008",
        "county": "COCONINO CO.",
        "state": "AZ"
      },
      {
        "type": "Lightning",
        "time": "1345",
        "inj": "5",
        "deaths": "1",
        "prop_dmg": "0",
        "crop_dmg": "0",
        "begin": "08/04/2011",
        "county": "COCONINO CO.",
        "state": "AZ"
      },
      {
        "type": "Lightning",
        "time": "1300",
        "inj": "4",
        "deaths": "0",
        "prop_dmg": "0",
        "crop_dmg": "0",
        "begin": "07/15/2013",
        "county": "COCONINO CO.",
        "state": "AZ"
      },
      {
        "type": "Lightning",
        "time": "1500",
        "inj": "1",
        "deaths": "2",
        "prop_dmg": "0",
        "crop_dmg": "0",
        "begin": "07/23/2013",
        "county": "COCONINO CO.",
        "state": "AZ"
      }
    ],
    "Rip_Current": [],
    "Seiche": [],
    "Sleet": [],
    "Storm_Surge__FTide": [],
    "Strong_Wind": [],
    "Thunderstorm_Wind": [],
    "Tornado": [
      {
        "type": "Tornado",
        "time": "1555",
        "inj": "0",
        "deaths": "0",
        "prop_dmg": "25.0k",
        "crop_dmg": "0",
        "begin": "10/24/1992",
        "county": "COCONINO CO.",
        "state": "AZ"
      },
      {
        "type": "Tornado",
        "time": "453",
        "inj": "7",
        "deaths": "0",
        "prop_dmg": "1.00M",
        "crop_dmg": "0",
        "begin": "10/06/2010",
        "county": "COCONINO CO.",
        "state": "AZ"
      },
      {
        "type": "Tornado",
        "time": "554",
        "inj": "0",
        "deaths": "0",
        "prop_dmg": "400k",
        "crop_dmg": "0",
        "begin": "10/06/2010",
        "county": "COCONINO CO.",
        "state": "AZ"
      },
      {
        "type": "Tornado",
        "time": "1105",
        "inj": "0",
        "deaths": "0",
        "prop_dmg": "200k",
        "crop_dmg": "0",
        "begin": "10/06/2010",
        "county": "COCONINO CO.",
        "state": "AZ"
      }
    ],
    "Tropical_Depression": [],
    "Tropical_Storm": [],
    "Tsunami": [],
    "Volcanic_Ashfall": [],
    "Waterspout": [],
    "Wildfire": [
      {
        "type": "Wildfire",
        "time": "2200",
        "inj": "0",
        "deaths": "0",
        "prop_dmg": "50.0k",
        "crop_dmg": "0",
        "begin": "05/24/2000",
        "county": "COCONINO CO.",
        "state": "AZ"
      },
      {
        "type": "Wildfire",
        "time": "1300",
        "inj": "0",
        "deaths": "0",
        "prop_dmg": "2.50M",
        "crop_dmg": "0",
        "begin": "10/02/2009",
        "county": "WESTERN MOGOLLON RIM ",
        "state": "AZ"
      },
      {
        "type": "Wildfire",
        "time": "1100",
        "inj": "0",
        "deaths": "0",
        "prop_dmg": "10.0M",
        "crop_dmg": "0",
        "begin": "06/20/2010",
        "county": "WESTERN MOGOLLON RIM ",
        "state": "AZ"
      }
    ],
    "Winter_Storm": [
      {
        "type": "Winter+Storm",
        "time": "1500",
        "inj": "5",
        "deaths": "0",
        "prop_dmg": "0",
        "crop_dmg": "0",
        "begin": "11/29/2001",
        "county": "WESTERN MOGOLLON RIM ",
        "state": "AZ"
      },
      {
        "type": "Winter+Storm",
        "time": "2200",
        "inj": "0",
        "deaths": "0",
        "prop_dmg": "1.00M",
        "crop_dmg": "0",
        "begin": "01/20/2010",
        "county": "WESTERN MOGOLLON RIM ",
        "state": "AZ"
      }
    ],
    "Winter_Weather": [
      {
        "type": "Winter+Weather",
        "time": "1200",
        "inj": "0",
        "deaths": "0",
        "prop_dmg": "400k",
        "crop_dmg": "0",
        "begin": "10/28/2009",
        "county": "WESTERN MOGOLLON RIM ",
        "state": "AZ"
      },
      {
        "type": "Winter+Weather",
        "time": "2200",
        "inj": "2",
        "deaths": "0",
        "prop_dmg": "100k",
        "crop_dmg": "0",
        "begin": "11/28/2009",
        "county": "WESTERN MOGOLLON RIM ",
        "state": "AZ"
      },
      {
        "type": "Winter+Weather",
        "time": "2300",
        "inj": "0",
        "deaths": "0",
        "prop_dmg": "30.0k",
        "crop_dmg": "0",
        "begin": "11/20/2010",
        "county": "WESTERN MOGOLLON RIM ",
        "state": "AZ"
      }
    ]
  },
  "007": {
    "name": "Gila County",
    "fips": "AZ",
    "pop10": "53597",
    "lat": 33.789618,
    "lon": -110.81187,
    "geoid": "04007",
    "deaths": 2,
    "prop_dmg": "3.65M",
    "crop_dmg": 0,
    "inj": 31,
    "all": 17,
    "eq": [],
    "Hurricane____Typhoon___": [],
    "Cold__FWind_Chill": [
      {
        "type": "Cold%2FWind+Chill",
        "time": "0",
        "inj": "0",
        "deaths": "0",
        "prop_dmg": "100k",
        "crop_dmg": "0",
        "begin": "01/01/2011",
        "county": "NORTHERN GILA COUNTY ",
        "state": "AZ"
      }
    ],
    "Coastal_Flood": [],
    "Avalanche": [],
    "Astronomical_Low_Tide": [],
    "Dense_Fog": [
      {
        "type": "Dense+Fog",
        "time": "530",
        "inj": "8",
        "deaths": "0",
        "prop_dmg": "0",
        "crop_dmg": "0",
        "begin": "03/01/2001",
        "county": "SOUTHERN GILA/TONTO NF FOOTHILLS ",
        "state": "AZ"
      }
    ],
    "Drought": [],
    "Dust_Devil": [
      {
        "type": "Dust+Devil",
        "time": "1130",
        "inj": "0",
        "deaths": "0",
        "prop_dmg": "25.0k",
        "crop_dmg": "0",
        "begin": "07/06/2011",
        "county": "GILA CO.",
        "state": "AZ"
      },
      {
        "type": "Dust+Devil",
        "time": "1130",
        "inj": "0",
        "deaths": "0",
        "prop_dmg": "25.0k",
        "crop_dmg": "0",
        "begin": "07/06/2011",
        "county": "GILA CO.",
        "state": "AZ"
      }
    ],
    "Dust_Storm": [
      {
        "type": "Dust+Storm",
        "time": "1610",
        "inj": "14",
        "deaths": "1",
        "prop_dmg": "0",
        "crop_dmg": "0",
        "begin": "07/06/1999",
        "county": "S GILA/NE MARICOPA/X N PINAL ",
        "state": "AZ"
      }
    ],
    "Excessive_Heat": [],
    "Extreme_Cold__FWind_Chill": [],
    "Flash_Flood": [
      {
        "type": "Flash+Flood",
        "time": "30",
        "inj": "0",
        "deaths": "0",
        "prop_dmg": "50.0k",
        "crop_dmg": "0",
        "begin": "01/28/2008",
        "county": "GILA CO.",
        "state": "AZ"
      },
      {
        "type": "Flash+Flood",
        "time": "400",
        "inj": "0",
        "deaths": "0",
        "prop_dmg": "100k",
        "crop_dmg": "0",
        "begin": "01/28/2008",
        "county": "GILA CO.",
        "state": "AZ"
      }
    ],
    "Flood": [
      {
        "type": "Flood",
        "time": "800",
        "inj": "0",
        "deaths": "0",
        "prop_dmg": "200k",
        "crop_dmg": "0",
        "begin": "01/21/2010",
        "county": "GILA CO.",
        "state": "AZ"
      }
    ],
    "Freezing_Fog": [],
    "Funnel_Cloud": [],
    "Hail": [],
    "Heat": [],
    "Heavy_Rain": [
      {
        "type": "Heavy+Rain",
        "time": "1825",
        "inj": "0",
        "deaths": "0",
        "prop_dmg": "10.0k",
        "crop_dmg": "0",
        "begin": "07/02/2009",
        "county": "GILA CO.",
        "state": "AZ"
      },
      {
        "type": "Heavy+Rain",
        "time": "1856",
        "inj": "0",
        "deaths": "0",
        "prop_dmg": "10.0k",
        "crop_dmg": "0",
        "begin": "07/02/2009",
        "county": "GILA CO.",
        "state": "AZ"
      }
    ],
    "Heavy_Snow": [],
    "High_Surf": [],
    "High_Wind": [],
    "Ice_Storm": [],
    "Lakeshore_Flood": [],
    "Landslide": [],
    "Lightning": [
      {
        "type": "Lightning",
        "time": "1436",
        "inj": "0",
        "deaths": "0",
        "prop_dmg": "120k",
        "crop_dmg": "0",
        "begin": "07/05/1999",
        "county": "GILA CO.",
        "state": "AZ"
      },
      {
        "type": "Lightning",
        "time": "1918",
        "inj": "1",
        "deaths": "0",
        "prop_dmg": "0",
        "crop_dmg": "0",
        "begin": "07/27/1999",
        "county": "GILA CO.",
        "state": "AZ"
      },
      {
        "type": "Lightning",
        "time": "1500",
        "inj": "2",
        "deaths": "1",
        "prop_dmg": "0",
        "crop_dmg": "0",
        "begin": "08/12/2000",
        "county": "GILA CO.",
        "state": "AZ"
      },
      {
        "type": "Lightning",
        "time": "2145",
        "inj": "1",
        "deaths": "0",
        "prop_dmg": "0",
        "crop_dmg": "0",
        "begin": "07/20/2003",
        "county": "GILA CO.",
        "state": "AZ"
      },
      {
        "type": "Lightning",
        "time": "1735",
        "inj": "0",
        "deaths": "0",
        "prop_dmg": "5.00k",
        "crop_dmg": "0",
        "begin": "07/17/2009",
        "county": "GILA CO.",
        "state": "AZ"
      }
    ],
    "Rip_Current": [],
    "Seiche": [],
    "Sleet": [],
    "Storm_Surge__FTide": [],
    "Strong_Wind": [],
    "Thunderstorm_Wind": [],
    "Tornado": [],
    "Tropical_Depression": [],
    "Tropical_Storm": [],
    "Tsunami": [],
    "Volcanic_Ashfall": [],
    "Waterspout": [],
    "Wildfire": [
      {
        "type": "Wildfire",
        "time": "1400",
        "inj": "0",
        "deaths": "0",
        "prop_dmg": "3.00M",
        "crop_dmg": "0",
        "begin": "05/30/2009",
        "county": "NORTHERN GILA COUNTY ",
        "state": "AZ"
      },
      {
        "type": "Wildfire",
        "time": "1433",
        "inj": "5",
        "deaths": "0",
        "prop_dmg": "0",
        "crop_dmg": "0",
        "begin": "06/14/2012",
        "county": "NORTHERN GILA COUNTY ",
        "state": "AZ"
      }
    ],
    "Winter_Storm": [],
    "Winter_Weather": []
  },
  "009": {
    "name": "Graham County",
    "fips": "AZ",
    "pop10": "37220",
    "lat": 32.931828,
    "lon": -109.87831,
    "geoid": "04009",
    "deaths": 0,
    "prop_dmg": "30.0k",
    "crop_dmg": 0,
    "inj": 0,
    "all": 2,
    "eq": [],
    "Hurricane____Typhoon___": [],
    "Cold__FWind_Chill": [],
    "Coastal_Flood": [],
    "Avalanche": [],
    "Astronomical_Low_Tide": [],
    "Dense_Fog": [],
    "Drought": [],
    "Dust_Devil": [],
    "Dust_Storm": [],
    "Excessive_Heat": [],
    "Extreme_Cold__FWind_Chill": [],
    "Flash_Flood": [],
    "Flood": [
      {
        "type": "Flood",
        "time": "2200",
        "inj": "0",
        "deaths": "0",
        "prop_dmg": "20.0k",
        "crop_dmg": "0",
        "begin": "01/21/2010",
        "county": "GRAHAM CO.",
        "state": "AZ"
      }
    ],
    "Freezing_Fog": [],
    "Funnel_Cloud": [],
    "Hail": [],
    "Heat": [],
    "Heavy_Rain": [
      {
        "type": "Heavy+Rain",
        "time": "2230",
        "inj": "0",
        "deaths": "0",
        "prop_dmg": "10.0k",
        "crop_dmg": "0",
        "begin": "07/24/2004",
        "county": "GRAHAM CO.",
        "state": "AZ"
      }
    ],
    "Heavy_Snow": [],
    "High_Surf": [],
    "High_Wind": [],
    "Ice_Storm": [],
    "Lakeshore_Flood": [],
    "Landslide": [],
    "Lightning": [],
    "Rip_Current": [],
    "Seiche": [],
    "Sleet": [],
    "Storm_Surge__FTide": [],
    "Strong_Wind": [],
    "Thunderstorm_Wind": [],
    "Tornado": [],
    "Tropical_Depression": [],
    "Tropical_Storm": [],
    "Tsunami": [],
    "Volcanic_Ashfall": [],
    "Waterspout": [],
    "Wildfire": [],
    "Winter_Storm": [],
    "Winter_Weather": []
  },
  "011": {
    "name": "Greenlee County",
    "fips": "AZ",
    "pop10": "8437",
    "lat": 33.238872,
    "lon": -109.242323,
    "geoid": "04011",
    "deaths": 0,
    "prop_dmg": "50.0k",
    "crop_dmg": 0,
    "inj": 0,
    "all": 1,
    "eq": [],
    "Hurricane____Typhoon___": [],
    "Cold__FWind_Chill": [],
    "Coastal_Flood": [],
    "Avalanche": [],
    "Astronomical_Low_Tide": [],
    "Dense_Fog": [],
    "Drought": [],
    "Dust_Devil": [],
    "Dust_Storm": [],
    "Excessive_Heat": [],
    "Extreme_Cold__FWind_Chill": [],
    "Flash_Flood": [],
    "Flood": [],
    "Freezing_Fog": [],
    "Funnel_Cloud": [],
    "Hail": [],
    "Heat": [],
    "Heavy_Rain": [],
    "Heavy_Snow": [],
    "High_Surf": [],
    "High_Wind": [],
    "Ice_Storm": [],
    "Lakeshore_Flood": [],
    "Landslide": [],
    "Lightning": [],
    "Rip_Current": [],
    "Seiche": [],
    "Sleet": [],
    "Storm_Surge__FTide": [],
    "Strong_Wind": [],
    "Thunderstorm_Wind": [],
    "Tornado": [],
    "Tropical_Depression": [],
    "Tropical_Storm": [],
    "Tsunami": [],
    "Volcanic_Ashfall": [],
    "Waterspout": [],
    "Wildfire": [
      {
        "type": "Wildfire",
        "time": "0",
        "inj": "0",
        "deaths": "0",
        "prop_dmg": "50.0k",
        "crop_dmg": "0",
        "begin": "07/01/2011",
        "county": "WHITE MOUNTAINS OF GRAHAM AND GREENLEE COUNTIES ",
        "state": "AZ"
      }
    ],
    "Winter_Storm": [],
    "Winter_Weather": []
  },
  "012": {
    "name": "La Paz County",
    "fips": "AZ",
    "pop10": "20489",
    "lat": 33.727625,
    "lon": -114.038793,
    "geoid": "04012",
    "deaths": 0,
    "prop_dmg": "5.04M",
    "crop_dmg": "200M",
    "inj": 1,
    "all": 5,
    "eq": [],
    "Hurricane____Typhoon___": [],
    "Cold__FWind_Chill": [],
    "Coastal_Flood": [],
    "Avalanche": [],
    "Astronomical_Low_Tide": [],
    "Dense_Fog": [],
    "Drought": [],
    "Dust_Devil": [],
    "Dust_Storm": [
      {
        "type": "Dust+Storm",
        "time": "1600",
        "inj": "1",
        "deaths": "0",
        "prop_dmg": "20.0k",
        "crop_dmg": "0",
        "begin": "05/08/2007",
        "county": "WEST CENTRAL DESERTS ",
        "state": "AZ"
      }
    ],
    "Excessive_Heat": [],
    "Extreme_Cold__FWind_Chill": [],
    "Flash_Flood": [],
    "Flood": [
      {
        "type": "Flood",
        "time": "348",
        "inj": "0",
        "deaths": "0",
        "prop_dmg": "5.00M",
        "crop_dmg": "0",
        "begin": "01/22/2010",
        "county": "LA PAZ CO.",
        "state": "AZ"
      }
    ],
    "Freezing_Fog": [],
    "Funnel_Cloud": [],
    "Hail": [],
    "Heat": [],
    "Heavy_Rain": [
      {
        "type": "Heavy+Rain",
        "time": "1100",
        "inj": "0",
        "deaths": "0",
        "prop_dmg": "6.00k",
        "crop_dmg": "0",
        "begin": "07/26/2013",
        "county": "LA PAZ CO.",
        "state": "AZ"
      }
    ],
    "Heavy_Snow": [],
    "High_Surf": [],
    "High_Wind": [],
    "Ice_Storm": [],
    "Lakeshore_Flood": [],
    "Landslide": [],
    "Lightning": [
      {
        "type": "Lightning",
        "time": "1330",
        "inj": "0",
        "deaths": "0",
        "prop_dmg": "12.0k",
        "crop_dmg": "0",
        "begin": "07/02/2009",
        "county": "LA PAZ CO.",
        "state": "AZ"
      }
    ],
    "Rip_Current": [],
    "Seiche": [],
    "Sleet": [],
    "Storm_Surge__FTide": [],
    "Strong_Wind": [],
    "Thunderstorm_Wind": [],
    "Tornado": [],
    "Tropical_Depression": [],
    "Tropical_Storm": [
      {
        "type": "Tropical+Storm",
        "time": "200",
        "inj": "0",
        "deaths": "0",
        "prop_dmg": "0",
        "crop_dmg": "200M",
        "begin": "09/25/1997",
        "county": "LOWER COLORADO RIVER VALLEY ",
        "state": "AZ"
      }
    ],
    "Tsunami": [],
    "Volcanic_Ashfall": [],
    "Waterspout": [],
    "Wildfire": [],
    "Winter_Storm": [],
    "Winter_Weather": []
  },
  "013": {
    "name": "Maricopa County",
    "fips": "AZ",
    "pop10": "3817117",
    "lat": 33.346541,
    "lon": -112.495534,
    "geoid": "04013",
    "deaths": 40,
    "prop_dmg": "37.7M",
    "crop_dmg": 0,
    "inj": 82,
    "all": 64,
    "eq": [],
    "Hurricane____Typhoon___": [],
    "Cold__FWind_Chill": [],
    "Coastal_Flood": [],
    "Avalanche": [],
    "Astronomical_Low_Tide": [],
    "Dense_Fog": [],
    "Drought": [],
    "Dust_Devil": [
      {
        "type": "Dust+Devil",
        "time": "2050",
        "inj": "0",
        "deaths": "0",
        "prop_dmg": "15.0k",
        "crop_dmg": "0",
        "begin": "06/10/1996",
        "county": "GREATER PHOENIX AREA ",
        "state": "AZ"
      },
      {
        "type": "Dust+Devil",
        "time": "1400",
        "inj": "0",
        "deaths": "0",
        "prop_dmg": "2.00k",
        "crop_dmg": "0",
        "begin": "05/13/2011",
        "county": "MARICOPA CO.",
        "state": "AZ"
      },
      {
        "type": "Dust+Devil",
        "time": "2050",
        "inj": "0",
        "deaths": "0",
        "prop_dmg": "15.0k",
        "crop_dmg": "0",
        "begin": "06/10/1996",
        "county": "GREATER PHOENIX AREA ",
        "state": "AZ"
      },
      {
        "type": "Dust+Devil",
        "time": "1400",
        "inj": "0",
        "deaths": "0",
        "prop_dmg": "2.00k",
        "crop_dmg": "0",
        "begin": "05/13/2011",
        "county": "MARICOPA CO.",
        "state": "AZ"
      },
      {
        "type": "Dust+Devil",
        "time": "1400",
        "inj": "0",
        "deaths": "0",
        "prop_dmg": "5.00k",
        "crop_dmg": "0",
        "begin": "04/30/2014",
        "county": "MARICOPA CO.",
        "state": "AZ"
      }
    ],
    "Dust_Storm": [
      {
        "type": "Dust+Storm",
        "time": "1730",
        "inj": "0",
        "deaths": "0",
        "prop_dmg": "30.0k",
        "crop_dmg": "0",
        "begin": "07/25/1996",
        "county": "NORTHWEST MARICOPA COUNTY ",
        "state": "AZ"
      },
      {
        "type": "Dust+Storm",
        "time": "1335",
        "inj": "25",
        "deaths": "0",
        "prop_dmg": "200k",
        "crop_dmg": "0",
        "begin": "07/10/1997",
        "county": "SOUTHEAST PINAL ",
        "state": "AZ"
      },
      {
        "type": "Dust+Storm",
        "time": "1630",
        "inj": "0",
        "deaths": "0",
        "prop_dmg": "20.0k",
        "crop_dmg": "0",
        "begin": "07/15/2006",
        "county": "C MARICOPA ",
        "state": "AZ"
      },
      {
        "type": "Dust+Storm",
        "time": "1500",
        "inj": "0",
        "deaths": "0",
        "prop_dmg": "10.0k",
        "crop_dmg": "0",
        "begin": "04/28/2007",
        "county": "GREATER PHOENIX AREA ",
        "state": "AZ"
      },
      {
        "type": "Dust+Storm",
        "time": "1940",
        "inj": "0",
        "deaths": "0",
        "prop_dmg": "10.0k",
        "crop_dmg": "0",
        "begin": "07/19/2009",
        "county": "GREATER PHOENIX AREA ",
        "state": "AZ"
      },
      {
        "type": "Dust+Storm",
        "time": "1743",
        "inj": "0",
        "deaths": "0",
        "prop_dmg": "2.00k",
        "crop_dmg": "0",
        "begin": "07/03/2011",
        "county": "GREATER PHOENIX AREA ",
        "state": "AZ"
      },
      {
        "type": "Dust+Storm",
        "time": "1920",
        "inj": "0",
        "deaths": "0",
        "prop_dmg": "30.0k",
        "crop_dmg": "0",
        "begin": "07/05/2011",
        "county": "GREATER PHOENIX AREA ",
        "state": "AZ"
      },
      {
        "type": "Dust+Storm",
        "time": "1650",
        "inj": "0",
        "deaths": "0",
        "prop_dmg": "10.0k",
        "crop_dmg": "0",
        "begin": "07/21/2012",
        "county": "GREATER PHOENIX AREA ",
        "state": "AZ"
      },
      {
        "type": "Dust+Storm",
        "time": "1800",
        "inj": "0",
        "deaths": "0",
        "prop_dmg": "5.00k",
        "crop_dmg": "0",
        "begin": "08/26/2013",
        "county": "GREATER PHOENIX AREA ",
        "state": "AZ"
      }
    ],
    "Excessive_Heat": [
      {
        "type": "Excessive+Heat",
        "time": "500",
        "inj": "0",
        "deaths": "2",
        "prop_dmg": "0",
        "crop_dmg": "0",
        "begin": "08/01/2008",
        "county": "GREATER PHOENIX AREA ",
        "state": "AZ"
      },
      {
        "type": "Excessive+Heat",
        "time": "1000",
        "inj": "0",
        "deaths": "1",
        "prop_dmg": "0",
        "crop_dmg": "0",
        "begin": "06/02/2013",
        "county": "GREATER PHOENIX AREA ",
        "state": "AZ"
      }
    ],
    "Extreme_Cold__FWind_Chill": [],
    "Flash_Flood": [
      {
        "type": "Flash+Flood",
        "time": "1700",
        "inj": "0",
        "deaths": "1",
        "prop_dmg": "0",
        "crop_dmg": "0",
        "begin": "07/14/2012",
        "county": "MARICOPA CO.",
        "state": "AZ"
      }
    ],
    "Flood": [
      {
        "type": "Flood",
        "time": "1545",
        "inj": "0",
        "deaths": "0",
        "prop_dmg": "80.0k",
        "crop_dmg": "0",
        "begin": "07/14/1999",
        "county": "MARICOPA CO.",
        "state": "AZ"
      },
      {
        "type": "Flood",
        "time": "630",
        "inj": "0",
        "deaths": "0",
        "prop_dmg": "20.0k",
        "crop_dmg": "0",
        "begin": "01/21/2010",
        "county": "MARICOPA CO.",
        "state": "AZ"
      },
      {
        "type": "Flood",
        "time": "1017",
        "inj": "0",
        "deaths": "0",
        "prop_dmg": "100k",
        "crop_dmg": "0",
        "begin": "01/21/2010",
        "county": "MARICOPA CO.",
        "state": "AZ"
      },
      {
        "type": "Flood",
        "time": "1810",
        "inj": "0",
        "deaths": "0",
        "prop_dmg": "10.0k",
        "crop_dmg": "0",
        "begin": "01/21/2010",
        "county": "MARICOPA CO.",
        "state": "AZ"
      },
      {
        "type": "Flood",
        "time": "1845",
        "inj": "0",
        "deaths": "0",
        "prop_dmg": "2.00M",
        "crop_dmg": "0",
        "begin": "01/21/2010",
        "county": "MARICOPA CO.",
        "state": "AZ"
      },
      {
        "type": "Flood",
        "time": "1320",
        "inj": "0",
        "deaths": "1",
        "prop_dmg": "0",
        "crop_dmg": "0",
        "begin": "03/08/2013",
        "county": "MARICOPA CO.",
        "state": "AZ"
      }
    ],
    "Freezing_Fog": [],
    "Funnel_Cloud": [],
    "Hail": [],
    "Heat": [
      {
        "type": "Heat",
        "time": "1200",
        "inj": "0",
        "deaths": "30",
        "prop_dmg": "0",
        "crop_dmg": "0",
        "begin": "07/12/2005",
        "county": "GREATER PHOENIX AREA ",
        "state": "AZ"
      },
      {
        "type": "Heat",
        "time": "0",
        "inj": "0",
        "deaths": "4",
        "prop_dmg": "0",
        "crop_dmg": "0",
        "begin": "06/16/2013",
        "county": "SOUTHWEST MARICOPA COUNTY ",
        "state": "AZ"
      }
    ],
    "Heavy_Rain": [
      {
        "type": "Heavy+Rain",
        "time": "1200",
        "inj": "0",
        "deaths": "0",
        "prop_dmg": "5.00k",
        "crop_dmg": "0",
        "begin": "01/07/2008",
        "county": "MARICOPA CO.",
        "state": "AZ"
      },
      {
        "type": "Heavy+Rain",
        "time": "1200",
        "inj": "0",
        "deaths": "0",
        "prop_dmg": "20.0k",
        "crop_dmg": "0",
        "begin": "07/13/2008",
        "county": "MARICOPA CO.",
        "state": "AZ"
      },
      {
        "type": "Heavy+Rain",
        "time": "2245",
        "inj": "0",
        "deaths": "0",
        "prop_dmg": "2.00k",
        "crop_dmg": "0",
        "begin": "08/29/2008",
        "county": "MARICOPA CO.",
        "state": "AZ"
      },
      {
        "type": "Heavy+Rain",
        "time": "1520",
        "inj": "0",
        "deaths": "0",
        "prop_dmg": "5.00k",
        "crop_dmg": "0",
        "begin": "07/14/2012",
        "county": "MARICOPA CO.",
        "state": "AZ"
      },
      {
        "type": "Heavy+Rain",
        "time": "1545",
        "inj": "0",
        "deaths": "0",
        "prop_dmg": "110k",
        "crop_dmg": "0",
        "begin": "07/14/2012",
        "county": "MARICOPA CO.",
        "state": "AZ"
      }
    ],
    "Heavy_Snow": [],
    "High_Surf": [],
    "High_Wind": [],
    "Ice_Storm": [],
    "Lakeshore_Flood": [],
    "Landslide": [],
    "Lightning": [
      {
        "type": "Lightning",
        "time": "1800",
        "inj": "1",
        "deaths": "0",
        "prop_dmg": "0",
        "crop_dmg": "0",
        "begin": "02/01/1996",
        "county": "MARICOPA CO.",
        "state": "AZ"
      },
      {
        "type": "Lightning",
        "time": "1800",
        "inj": "3",
        "deaths": "0",
        "prop_dmg": "0",
        "crop_dmg": "0",
        "begin": "07/05/1999",
        "county": "MARICOPA CO.",
        "state": "AZ"
      },
      {
        "type": "Lightning",
        "time": "2000",
        "inj": "0",
        "deaths": "0",
        "prop_dmg": "5.00k",
        "crop_dmg": "0",
        "begin": "07/06/1999",
        "county": "MARICOPA CO.",
        "state": "AZ"
      },
      {
        "type": "Lightning",
        "time": "1630",
        "inj": "0",
        "deaths": "0",
        "prop_dmg": "10.0k",
        "crop_dmg": "0",
        "begin": "07/14/1999",
        "county": "MARICOPA CO.",
        "state": "AZ"
      },
      {
        "type": "Lightning",
        "time": "2200",
        "inj": "1",
        "deaths": "1",
        "prop_dmg": "0",
        "crop_dmg": "0",
        "begin": "07/27/1999",
        "county": "MARICOPA CO.",
        "state": "AZ"
      },
      {
        "type": "Lightning",
        "time": "2000",
        "inj": "2",
        "deaths": "0",
        "prop_dmg": "0",
        "crop_dmg": "0",
        "begin": "06/29/2000",
        "county": "MARICOPA CO.",
        "state": "AZ"
      },
      {
        "type": "Lightning",
        "time": "2109",
        "inj": "0",
        "deaths": "0",
        "prop_dmg": "50.0k",
        "crop_dmg": "0",
        "begin": "07/04/2001",
        "county": "MARICOPA CO.",
        "state": "AZ"
      },
      {
        "type": "Lightning",
        "time": "237",
        "inj": "0",
        "deaths": "0",
        "prop_dmg": "50.0k",
        "crop_dmg": "0",
        "begin": "07/13/2002",
        "county": "MARICOPA CO.",
        "state": "AZ"
      },
      {
        "type": "Lightning",
        "time": "2350",
        "inj": "0",
        "deaths": "0",
        "prop_dmg": "20.0k",
        "crop_dmg": "0",
        "begin": "07/20/2003",
        "county": "MARICOPA CO.",
        "state": "AZ"
      },
      {
        "type": "Lightning",
        "time": "2020",
        "inj": "0",
        "deaths": "0",
        "prop_dmg": "150k",
        "crop_dmg": "0",
        "begin": "08/14/2003",
        "county": "MARICOPA CO.",
        "state": "AZ"
      },
      {
        "type": "Lightning",
        "time": "1547",
        "inj": "0",
        "deaths": "0",
        "prop_dmg": "50.0k",
        "crop_dmg": "0",
        "begin": "07/17/2005",
        "county": "MARICOPA CO.",
        "state": "AZ"
      },
      {
        "type": "Lightning",
        "time": "1800",
        "inj": "0",
        "deaths": "0",
        "prop_dmg": "500k",
        "crop_dmg": "0",
        "begin": "07/31/2005",
        "county": "MARICOPA CO.",
        "state": "AZ"
      },
      {
        "type": "Lightning",
        "time": "1645",
        "inj": "0",
        "deaths": "0",
        "prop_dmg": "350k",
        "crop_dmg": "0",
        "begin": "08/09/2005",
        "county": "MARICOPA CO.",
        "state": "AZ"
      },
      {
        "type": "Lightning",
        "time": "1830",
        "inj": "0",
        "deaths": "0",
        "prop_dmg": "100k",
        "crop_dmg": "0",
        "begin": "08/21/2006",
        "county": "MARICOPA CO.",
        "state": "AZ"
      },
      {
        "type": "Lightning",
        "time": "1400",
        "inj": "0",
        "deaths": "0",
        "prop_dmg": "50.0k",
        "crop_dmg": "0",
        "begin": "08/24/2006",
        "county": "MARICOPA CO.",
        "state": "AZ"
      },
      {
        "type": "Lightning",
        "time": "305",
        "inj": "0",
        "deaths": "0",
        "prop_dmg": "20.0k",
        "crop_dmg": "0",
        "begin": "08/14/2007",
        "county": "MARICOPA CO.",
        "state": "AZ"
      },
      {
        "type": "Lightning",
        "time": "1530",
        "inj": "0",
        "deaths": "0",
        "prop_dmg": "20.0k",
        "crop_dmg": "0",
        "begin": "02/04/2008",
        "county": "MARICOPA CO.",
        "state": "AZ"
      },
      {
        "type": "Lightning",
        "time": "2205",
        "inj": "0",
        "deaths": "0",
        "prop_dmg": "30.0k",
        "crop_dmg": "0",
        "begin": "02/20/2008",
        "county": "MARICOPA CO.",
        "state": "AZ"
      },
      {
        "type": "Lightning",
        "time": "1620",
        "inj": "0",
        "deaths": "0",
        "prop_dmg": "5.00k",
        "crop_dmg": "0",
        "begin": "06/25/2008",
        "county": "MARICOPA CO.",
        "state": "AZ"
      },
      {
        "type": "Lightning",
        "time": "2250",
        "inj": "0",
        "deaths": "0",
        "prop_dmg": "50.0k",
        "crop_dmg": "0",
        "begin": "07/03/2008",
        "county": "MARICOPA CO.",
        "state": "AZ"
      },
      {
        "type": "Lightning",
        "time": "2205",
        "inj": "0",
        "deaths": "0",
        "prop_dmg": "200k",
        "crop_dmg": "0",
        "begin": "05/18/2009",
        "county": "MARICOPA CO.",
        "state": "AZ"
      },
      {
        "type": "Lightning",
        "time": "2240",
        "inj": "0",
        "deaths": "0",
        "prop_dmg": "100k",
        "crop_dmg": "0",
        "begin": "07/18/2009",
        "county": "MARICOPA CO.",
        "state": "AZ"
      },
      {
        "type": "Lightning",
        "time": "1849",
        "inj": "0",
        "deaths": "0",
        "prop_dmg": "5.00k",
        "crop_dmg": "0",
        "begin": "07/20/2009",
        "county": "MARICOPA CO.",
        "state": "AZ"
      },
      {
        "type": "Lightning",
        "time": "2015",
        "inj": "0",
        "deaths": "0",
        "prop_dmg": "25.0k",
        "crop_dmg": "0",
        "begin": "08/21/2009",
        "county": "MARICOPA CO.",
        "state": "AZ"
      },
      {
        "type": "Lightning",
        "time": "300",
        "inj": "0",
        "deaths": "0",
        "prop_dmg": "4.00k",
        "crop_dmg": "0",
        "begin": "07/25/2011",
        "county": "MARICOPA CO.",
        "state": "AZ"
      },
      {
        "type": "Lightning",
        "time": "1700",
        "inj": "1",
        "deaths": "0",
        "prop_dmg": "0",
        "crop_dmg": "0",
        "begin": "07/30/2011",
        "county": "MARICOPA CO.",
        "state": "AZ"
      },
      {
        "type": "Lightning",
        "time": "200",
        "inj": "0",
        "deaths": "0",
        "prop_dmg": "350k",
        "crop_dmg": "0",
        "begin": "09/08/2014",
        "county": "MARICOPA CO.",
        "state": "AZ"
      }
    ],
    "Rip_Current": [],
    "Seiche": [],
    "Sleet": [],
    "Storm_Surge__FTide": [],
    "Strong_Wind": [],
    "Thunderstorm_Wind": [],
    "Tornado": [
      {
        "type": "Tornado",
        "time": "1900",
        "inj": "0",
        "deaths": "0",
        "prop_dmg": "2.50k",
        "crop_dmg": "0",
        "begin": "08/04/1957",
        "county": "MARICOPA CO.",
        "state": "AZ"
      },
      {
        "type": "Tornado",
        "time": "1830",
        "inj": "2",
        "deaths": "0",
        "prop_dmg": "25.0k",
        "crop_dmg": "0",
        "begin": "07/04/1968",
        "county": "MARICOPA CO.",
        "state": "AZ"
      },
      {
        "type": "Tornado",
        "time": "2000",
        "inj": "3",
        "deaths": "0",
        "prop_dmg": "250k",
        "crop_dmg": "0",
        "begin": "10/03/1968",
        "county": "MARICOPA CO.",
        "state": "AZ"
      },
      {
        "type": "Tornado",
        "time": "1845",
        "inj": "41",
        "deaths": "0",
        "prop_dmg": "2.50M",
        "crop_dmg": "0",
        "begin": "08/30/1971",
        "county": "MARICOPA CO.",
        "state": "AZ"
      },
      {
        "type": "Tornado",
        "time": "2015",
        "inj": "0",
        "deaths": "0",
        "prop_dmg": "25.0k",
        "crop_dmg": "0",
        "begin": "09/14/1971",
        "county": "MARICOPA CO.",
        "state": "AZ"
      },
      {
        "type": "Tornado",
        "time": "1930",
        "inj": "3",
        "deaths": "0",
        "prop_dmg": "25.0M",
        "crop_dmg": "0",
        "begin": "06/21/1972",
        "county": "MARICOPA CO.",
        "state": "AZ"
      },
      {
        "type": "Tornado",
        "time": "1230",
        "inj": "0",
        "deaths": "0",
        "prop_dmg": "5.00M",
        "crop_dmg": "0",
        "begin": "01/17/1993",
        "county": "MARICOPA CO.",
        "state": "AZ"
      }
    ],
    "Tropical_Depression": [],
    "Tropical_Storm": [],
    "Tsunami": [],
    "Volcanic_Ashfall": [],
    "Waterspout": [],
    "Wildfire": [],
    "Winter_Storm": [],
    "Winter_Weather": []
  },
  "015": {
    "name": "Mohave County",
    "fips": "AZ",
    "pop10": "200186",
    "lat": 35.717705,
    "lon": -113.749689,
    "geoid": "04015",
    "deaths": 3,
    "prop_dmg": "7.04M",
    "crop_dmg": 0,
    "inj": 9,
    "all": 46,
    "eq": [],
    "Hurricane____Typhoon___": [],
    "Cold__FWind_Chill": [],
    "Coastal_Flood": [],
    "Avalanche": [],
    "Astronomical_Low_Tide": [],
    "Dense_Fog": [],
    "Drought": [],
    "Dust_Devil": [
      {
        "type": "Dust+Devil",
        "time": "1455",
        "inj": "0",
        "deaths": "0",
        "prop_dmg": "500",
        "crop_dmg": "0",
        "begin": "05/14/2011",
        "county": "MOHAVE CO.",
        "state": "AZ"
      },
      {
        "type": "Dust+Devil",
        "time": "1455",
        "inj": "0",
        "deaths": "0",
        "prop_dmg": "500",
        "crop_dmg": "0",
        "begin": "05/14/2011",
        "county": "MOHAVE CO.",
        "state": "AZ"
      }
    ],
    "Dust_Storm": [
      {
        "type": "Dust+Storm",
        "time": "1830",
        "inj": "0",
        "deaths": "0",
        "prop_dmg": "100k",
        "crop_dmg": "0",
        "begin": "09/02/2007",
        "county": "NORTHWEST DESERTS ",
        "state": "AZ"
      }
    ],
    "Excessive_Heat": [
      {
        "type": "Excessive+Heat",
        "time": "1200",
        "inj": "0",
        "deaths": "0",
        "prop_dmg": "25.0k",
        "crop_dmg": "0",
        "begin": "06/28/2013",
        "county": "LAKE HAVASU AND FORT MOHAVE ",
        "state": "AZ"
      },
      {
        "type": "Excessive+Heat",
        "time": "1200",
        "inj": "5",
        "deaths": "1",
        "prop_dmg": "0",
        "crop_dmg": "0",
        "begin": "06/06/2013",
        "county": "LAKE MEAD NATIONAL RECREATION AREA ",
        "state": "AZ"
      },
      {
        "type": "Excessive+Heat",
        "time": "1200",
        "inj": "3",
        "deaths": "0",
        "prop_dmg": "0",
        "crop_dmg": "0",
        "begin": "06/28/2013",
        "county": "LAKE MEAD NATIONAL RECREATION AREA ",
        "state": "AZ"
      },
      {
        "type": "Excessive+Heat",
        "time": "0",
        "inj": "1",
        "deaths": "0",
        "prop_dmg": "0",
        "crop_dmg": "0",
        "begin": "07/01/2013",
        "county": "LAKE MEAD NATIONAL RECREATION AREA ",
        "state": "AZ"
      }
    ],
    "Extreme_Cold__FWind_Chill": [],
    "Flash_Flood": [
      {
        "type": "Flash+Flood",
        "time": "1730",
        "inj": "0",
        "deaths": "0",
        "prop_dmg": "25.0k",
        "crop_dmg": "0",
        "begin": "01/21/2010",
        "county": "MOHAVE CO.",
        "state": "AZ"
      },
      {
        "type": "Flash+Flood",
        "time": "900",
        "inj": "0",
        "deaths": "0",
        "prop_dmg": "5.00k",
        "crop_dmg": "0",
        "begin": "07/13/2012",
        "county": "MOHAVE CO.",
        "state": "AZ"
      },
      {
        "type": "Flash+Flood",
        "time": "1455",
        "inj": "0",
        "deaths": "0",
        "prop_dmg": "1.00k",
        "crop_dmg": "0",
        "begin": "07/13/2012",
        "county": "MOHAVE CO.",
        "state": "AZ"
      },
      {
        "type": "Flash+Flood",
        "time": "1740",
        "inj": "0",
        "deaths": "1",
        "prop_dmg": "5.00M",
        "crop_dmg": "0",
        "begin": "07/13/2012",
        "county": "MOHAVE CO.",
        "state": "AZ"
      },
      {
        "type": "Flash+Flood",
        "time": "755",
        "inj": "0",
        "deaths": "0",
        "prop_dmg": "10.0k",
        "crop_dmg": "0",
        "begin": "07/14/2012",
        "county": "MOHAVE CO.",
        "state": "AZ"
      },
      {
        "type": "Flash+Flood",
        "time": "1420",
        "inj": "0",
        "deaths": "0",
        "prop_dmg": "1.00k",
        "crop_dmg": "0",
        "begin": "07/14/2012",
        "county": "MOHAVE CO.",
        "state": "AZ"
      },
      {
        "type": "Flash+Flood",
        "time": "1530",
        "inj": "0",
        "deaths": "0",
        "prop_dmg": "1.00k",
        "crop_dmg": "0",
        "begin": "07/14/2012",
        "county": "MOHAVE CO.",
        "state": "AZ"
      },
      {
        "type": "Flash+Flood",
        "time": "1700",
        "inj": "0",
        "deaths": "0",
        "prop_dmg": "5.00k",
        "crop_dmg": "0",
        "begin": "07/14/2012",
        "county": "MOHAVE CO.",
        "state": "AZ"
      },
      {
        "type": "Flash+Flood",
        "time": "1830",
        "inj": "0",
        "deaths": "0",
        "prop_dmg": "100k",
        "crop_dmg": "0",
        "begin": "07/14/2012",
        "county": "MOHAVE CO.",
        "state": "AZ"
      },
      {
        "type": "Flash+Flood",
        "time": "1915",
        "inj": "0",
        "deaths": "0",
        "prop_dmg": "20.0k",
        "crop_dmg": "0",
        "begin": "07/14/2012",
        "county": "MOHAVE CO.",
        "state": "AZ"
      },
      {
        "type": "Flash+Flood",
        "time": "1325",
        "inj": "0",
        "deaths": "0",
        "prop_dmg": "100k",
        "crop_dmg": "0",
        "begin": "07/16/2012",
        "county": "MOHAVE CO.",
        "state": "AZ"
      },
      {
        "type": "Flash+Flood",
        "time": "1430",
        "inj": "0",
        "deaths": "0",
        "prop_dmg": "100k",
        "crop_dmg": "0",
        "begin": "07/24/2012",
        "county": "MOHAVE CO.",
        "state": "AZ"
      }
    ],
    "Flood": [
      {
        "type": "Flood",
        "time": "243",
        "inj": "0",
        "deaths": "0",
        "prop_dmg": "1.00M",
        "crop_dmg": "0",
        "begin": "01/22/2010",
        "county": "MOHAVE CO.",
        "state": "AZ"
      }
    ],
    "Freezing_Fog": [],
    "Funnel_Cloud": [],
    "Hail": [],
    "Heat": [
      {
        "type": "Heat",
        "time": "1200",
        "inj": "0",
        "deaths": "1",
        "prop_dmg": "0",
        "crop_dmg": "0",
        "begin": "06/03/2014",
        "county": "LAKE MEAD NATIONAL RECREATION AREA ",
        "state": "AZ"
      }
    ],
    "Heavy_Rain": [
      {
        "type": "Heavy+Rain",
        "time": "1609",
        "inj": "0",
        "deaths": "0",
        "prop_dmg": "2.00k",
        "crop_dmg": "0",
        "begin": "09/10/2002",
        "county": "MOHAVE CO.",
        "state": "AZ"
      },
      {
        "type": "Heavy+Rain",
        "time": "1631",
        "inj": "0",
        "deaths": "0",
        "prop_dmg": "5.00k",
        "crop_dmg": "0",
        "begin": "07/31/2011",
        "county": "MOHAVE CO.",
        "state": "AZ"
      },
      {
        "type": "Heavy+Rain",
        "time": "2200",
        "inj": "0",
        "deaths": "0",
        "prop_dmg": "100k",
        "crop_dmg": "0",
        "begin": "04/13/2012",
        "county": "MOHAVE CO.",
        "state": "AZ"
      }
    ],
    "Heavy_Snow": [],
    "High_Surf": [],
    "High_Wind": [],
    "Ice_Storm": [
      {
        "type": "Ice+Storm",
        "time": "400",
        "inj": "0",
        "deaths": "0",
        "prop_dmg": "10.0k",
        "crop_dmg": "0",
        "begin": "11/22/2004",
        "county": "S MOHAVE T X SW AND X WC ",
        "state": "AZ"
      }
    ],
    "Lakeshore_Flood": [],
    "Landslide": [],
    "Lightning": [
      {
        "type": "Lightning",
        "time": "400",
        "inj": "0",
        "deaths": "0",
        "prop_dmg": "8.00k",
        "crop_dmg": "0",
        "begin": "08/08/1998",
        "county": "MOHAVE CO.",
        "state": "AZ"
      },
      {
        "type": "Lightning",
        "time": "2025",
        "inj": "0",
        "deaths": "0",
        "prop_dmg": "5.00k",
        "crop_dmg": "0",
        "begin": "08/02/2000",
        "county": "MOHAVE CO.",
        "state": "AZ"
      },
      {
        "type": "Lightning",
        "time": "1733",
        "inj": "0",
        "deaths": "0",
        "prop_dmg": "20.0k",
        "crop_dmg": "0",
        "begin": "08/16/2000",
        "county": "MOHAVE CO.",
        "state": "AZ"
      },
      {
        "type": "Lightning",
        "time": "2108",
        "inj": "0",
        "deaths": "0",
        "prop_dmg": "100k",
        "crop_dmg": "0",
        "begin": "08/11/2004",
        "county": "MOHAVE CO.",
        "state": "AZ"
      },
      {
        "type": "Lightning",
        "time": "30",
        "inj": "0",
        "deaths": "0",
        "prop_dmg": "1.00k",
        "crop_dmg": "0",
        "begin": "07/06/2011",
        "county": "MOHAVE CO.",
        "state": "AZ"
      },
      {
        "type": "Lightning",
        "time": "1740",
        "inj": "0",
        "deaths": "0",
        "prop_dmg": "2.00k",
        "crop_dmg": "0",
        "begin": "07/10/2011",
        "county": "MOHAVE CO.",
        "state": "AZ"
      },
      {
        "type": "Lightning",
        "time": "1604",
        "inj": "0",
        "deaths": "0",
        "prop_dmg": "1.00k",
        "crop_dmg": "0",
        "begin": "07/31/2011",
        "county": "MOHAVE CO.",
        "state": "AZ"
      },
      {
        "type": "Lightning",
        "time": "800",
        "inj": "0",
        "deaths": "0",
        "prop_dmg": "10.0k",
        "crop_dmg": "0",
        "begin": "07/13/2012",
        "county": "MOHAVE CO.",
        "state": "AZ"
      },
      {
        "type": "Lightning",
        "time": "1645",
        "inj": "0",
        "deaths": "0",
        "prop_dmg": "5.00k",
        "crop_dmg": "0",
        "begin": "07/13/2012",
        "county": "MOHAVE CO.",
        "state": "AZ"
      },
      {
        "type": "Lightning",
        "time": "1935",
        "inj": "0",
        "deaths": "0",
        "prop_dmg": "25.0k",
        "crop_dmg": "0",
        "begin": "07/14/2012",
        "county": "MOHAVE CO.",
        "state": "AZ"
      },
      {
        "type": "Lightning",
        "time": "1203",
        "inj": "0",
        "deaths": "0",
        "prop_dmg": "20.0k",
        "crop_dmg": "0",
        "begin": "07/30/2012",
        "county": "MOHAVE CO.",
        "state": "AZ"
      },
      {
        "type": "Lightning",
        "time": "1500",
        "inj": "0",
        "deaths": "0",
        "prop_dmg": "50.0k",
        "crop_dmg": "0",
        "begin": "07/31/2012",
        "county": "MOHAVE CO.",
        "state": "AZ"
      },
      {
        "type": "Lightning",
        "time": "1500",
        "inj": "0",
        "deaths": "0",
        "prop_dmg": "25.0k",
        "crop_dmg": "0",
        "begin": "07/31/2012",
        "county": "MOHAVE CO.",
        "state": "AZ"
      },
      {
        "type": "Lightning",
        "time": "1805",
        "inj": "0",
        "deaths": "0",
        "prop_dmg": "25.0k",
        "crop_dmg": "0",
        "begin": "09/11/2012",
        "county": "MOHAVE CO.",
        "state": "AZ"
      },
      {
        "type": "Lightning",
        "time": "2230",
        "inj": "0",
        "deaths": "0",
        "prop_dmg": "20.0k",
        "crop_dmg": "0",
        "begin": "08/22/2013",
        "county": "MOHAVE CO.",
        "state": "AZ"
      },
      {
        "type": "Lightning",
        "time": "0",
        "inj": "0",
        "deaths": "0",
        "prop_dmg": "20.0k",
        "crop_dmg": "0",
        "begin": "08/23/2013",
        "county": "MOHAVE CO.",
        "state": "AZ"
      },
      {
        "type": "Lightning",
        "time": "3",
        "inj": "0",
        "deaths": "0",
        "prop_dmg": "20.0k",
        "crop_dmg": "0",
        "begin": "08/23/2013",
        "county": "MOHAVE CO.",
        "state": "AZ"
      },
      {
        "type": "Lightning",
        "time": "2015",
        "inj": "0",
        "deaths": "0",
        "prop_dmg": "10.0k",
        "crop_dmg": "0",
        "begin": "11/21/2013",
        "county": "MOHAVE CO.",
        "state": "AZ"
      },
      {
        "type": "Lightning",
        "time": "1645",
        "inj": "0",
        "deaths": "0",
        "prop_dmg": "10.0k",
        "crop_dmg": "0",
        "begin": "08/03/2014",
        "county": "MOHAVE CO.",
        "state": "AZ"
      }
    ],
    "Rip_Current": [],
    "Seiche": [],
    "Sleet": [],
    "Storm_Surge__FTide": [],
    "Strong_Wind": [],
    "Thunderstorm_Wind": [],
    "Tornado": [],
    "Tropical_Depression": [],
    "Tropical_Storm": [],
    "Tsunami": [],
    "Volcanic_Ashfall": [],
    "Waterspout": [],
    "Wildfire": [
      {
        "type": "Wildfire",
        "time": "1200",
        "inj": "0",
        "deaths": "0",
        "prop_dmg": "22.0k",
        "crop_dmg": "0",
        "begin": "06/27/2012",
        "county": "NORTHWEST DESERTS ",
        "state": "AZ"
      },
      {
        "type": "Wildfire",
        "time": "1400",
        "inj": "0",
        "deaths": "0",
        "prop_dmg": "25.0k",
        "crop_dmg": "0",
        "begin": "07/11/2012",
        "county": "LAKE HAVASU AND FORT MOHAVE ",
        "state": "AZ"
      }
    ],
    "Winter_Storm": [],
    "Winter_Weather": []
  },
  "017": {
    "name": "Navajo County",
    "fips": "AZ",
    "pop10": "107449",
    "lat": 35.390934,
    "lon": -110.320908,
    "geoid": "04017",
    "deaths": 1,
    "prop_dmg": "41.0k",
    "crop_dmg": 0,
    "inj": 1,
    "all": 5,
    "eq": [],
    "Hurricane____Typhoon___": [],
    "Cold__FWind_Chill": [],
    "Coastal_Flood": [],
    "Avalanche": [],
    "Astronomical_Low_Tide": [],
    "Dense_Fog": [],
    "Drought": [],
    "Dust_Devil": [],
    "Dust_Storm": [],
    "Excessive_Heat": [],
    "Extreme_Cold__FWind_Chill": [
      {
        "type": "Extreme+Cold%2FWind+Chill",
        "time": "0",
        "inj": "0",
        "deaths": "0",
        "prop_dmg": "30.0k",
        "crop_dmg": "0",
        "begin": "01/01/2011",
        "county": "LITTLE COLORADO RIVER VALLEY IN NAVAJO COUNTY ",
        "state": "AZ"
      }
    ],
    "Flash_Flood": [],
    "Flood": [
      {
        "type": "Flood",
        "time": "1720",
        "inj": "0",
        "deaths": "0",
        "prop_dmg": "1.00k",
        "crop_dmg": "0",
        "begin": "08/05/1997",
        "county": "NAVAJO CO.",
        "state": "AZ"
      }
    ],
    "Freezing_Fog": [],
    "Funnel_Cloud": [],
    "Hail": [],
    "Heat": [],
    "Heavy_Rain": [],
    "Heavy_Snow": [],
    "High_Surf": [],
    "High_Wind": [],
    "Ice_Storm": [],
    "Lakeshore_Flood": [],
    "Landslide": [],
    "Lightning": [
      {
        "type": "Lightning",
        "time": "1400",
        "inj": "1",
        "deaths": "0",
        "prop_dmg": "0",
        "crop_dmg": "0",
        "begin": "08/13/2004",
        "county": "NAVAJO CO.",
        "state": "AZ"
      },
      {
        "type": "Lightning",
        "time": "1945",
        "inj": "0",
        "deaths": "0",
        "prop_dmg": "10.0k",
        "crop_dmg": "0",
        "begin": "07/31/2007",
        "county": "NAVAJO CO.",
        "state": "AZ"
      },
      {
        "type": "Lightning",
        "time": "1300",
        "inj": "0",
        "deaths": "1",
        "prop_dmg": "0",
        "crop_dmg": "0",
        "begin": "07/19/2013",
        "county": "NAVAJO CO.",
        "state": "AZ"
      }
    ],
    "Rip_Current": [],
    "Seiche": [],
    "Sleet": [],
    "Storm_Surge__FTide": [],
    "Strong_Wind": [],
    "Thunderstorm_Wind": [],
    "Tornado": [],
    "Tropical_Depression": [],
    "Tropical_Storm": [],
    "Tsunami": [],
    "Volcanic_Ashfall": [],
    "Waterspout": [],
    "Wildfire": [],
    "Winter_Storm": [],
    "Winter_Weather": []
  },
  "019": {
    "name": "Pima County",
    "fips": "AZ",
    "pop10": "980263",
    "lat": 32.128237,
    "lon": -111.783018,
    "geoid": "04019",
    "deaths": 12,
    "prop_dmg": "138M",
    "crop_dmg": 0,
    "inj": 38,
    "all": 75,
    "eq": [],
    "Hurricane____Typhoon___": [],
    "Cold__FWind_Chill": [
      {
        "type": "Cold%2FWind+Chill",
        "time": "2200",
        "inj": "1",
        "deaths": "2",
        "prop_dmg": "0",
        "crop_dmg": "0",
        "begin": "02/02/2011",
        "county": "TUCSON METRO AREA ",
        "state": "AZ"
      }
    ],
    "Coastal_Flood": [],
    "Avalanche": [],
    "Astronomical_Low_Tide": [],
    "Dense_Fog": [],
    "Drought": [],
    "Dust_Devil": [
      {
        "type": "Dust+Devil",
        "time": "1400",
        "inj": "2",
        "deaths": "0",
        "prop_dmg": "0",
        "crop_dmg": "0",
        "begin": "04/02/2011",
        "county": "PIMA CO.",
        "state": "AZ"
      },
      {
        "type": "Dust+Devil",
        "time": "1345",
        "inj": "6",
        "deaths": "0",
        "prop_dmg": "1.00k",
        "crop_dmg": "0",
        "begin": "05/13/2011",
        "county": "PIMA CO.",
        "state": "AZ"
      },
      {
        "type": "Dust+Devil",
        "time": "1500",
        "inj": "0",
        "deaths": "0",
        "prop_dmg": "1.00k",
        "crop_dmg": "0",
        "begin": "04/06/2012",
        "county": "PIMA CO.",
        "state": "AZ"
      },
      {
        "type": "Dust+Devil",
        "time": "1400",
        "inj": "2",
        "deaths": "0",
        "prop_dmg": "0",
        "crop_dmg": "0",
        "begin": "04/02/2011",
        "county": "PIMA CO.",
        "state": "AZ"
      },
      {
        "type": "Dust+Devil",
        "time": "1345",
        "inj": "6",
        "deaths": "0",
        "prop_dmg": "1.00k",
        "crop_dmg": "0",
        "begin": "05/13/2011",
        "county": "PIMA CO.",
        "state": "AZ"
      },
      {
        "type": "Dust+Devil",
        "time": "1500",
        "inj": "0",
        "deaths": "0",
        "prop_dmg": "1.00k",
        "crop_dmg": "0",
        "begin": "04/06/2012",
        "county": "PIMA CO.",
        "state": "AZ"
      },
      {
        "type": "Dust+Devil",
        "time": "1430",
        "inj": "0",
        "deaths": "0",
        "prop_dmg": "500",
        "crop_dmg": "0",
        "begin": "05/27/2013",
        "county": "PIMA CO.",
        "state": "AZ"
      },
      {
        "type": "Dust+Devil",
        "time": "1305",
        "inj": "0",
        "deaths": "0",
        "prop_dmg": "2.00k",
        "crop_dmg": "0",
        "begin": "05/31/2013",
        "county": "PIMA CO.",
        "state": "AZ"
      },
      {
        "type": "Dust+Devil",
        "time": "1430",
        "inj": "0",
        "deaths": "0",
        "prop_dmg": "500",
        "crop_dmg": "0",
        "begin": "05/27/2013",
        "county": "PIMA CO.",
        "state": "AZ"
      },
      {
        "type": "Dust+Devil",
        "time": "1305",
        "inj": "0",
        "deaths": "0",
        "prop_dmg": "2.00k",
        "crop_dmg": "0",
        "begin": "05/31/2013",
        "county": "PIMA CO.",
        "state": "AZ"
      },
      {
        "type": "Dust+Devil",
        "time": "1555",
        "inj": "0",
        "deaths": "0",
        "prop_dmg": "2.00k",
        "crop_dmg": "0",
        "begin": "06/28/2014",
        "county": "PIMA CO.",
        "state": "AZ"
      },
      {
        "type": "Dust+Devil",
        "time": "1555",
        "inj": "0",
        "deaths": "0",
        "prop_dmg": "2.00k",
        "crop_dmg": "0",
        "begin": "06/28/2014",
        "county": "PIMA CO.",
        "state": "AZ"
      }
    ],
    "Dust_Storm": [],
    "Excessive_Heat": [],
    "Extreme_Cold__FWind_Chill": [],
    "Flash_Flood": [
      {
        "type": "Flash+Flood",
        "time": "2200",
        "inj": "0",
        "deaths": "0",
        "prop_dmg": "20.0k",
        "crop_dmg": "0",
        "begin": "07/06/1999",
        "county": "PIMA CO.",
        "state": "AZ"
      },
      {
        "type": "Flash+Flood",
        "time": "1330",
        "inj": "0",
        "deaths": "0",
        "prop_dmg": "50.0k",
        "crop_dmg": "0",
        "begin": "07/04/2012",
        "county": "PIMA CO.",
        "state": "AZ"
      },
      {
        "type": "Flash+Flood",
        "time": "1445",
        "inj": "0",
        "deaths": "0",
        "prop_dmg": "5.00k",
        "crop_dmg": "0",
        "begin": "07/04/2012",
        "county": "PIMA CO.",
        "state": "AZ"
      },
      {
        "type": "Flash+Flood",
        "time": "1900",
        "inj": "0",
        "deaths": "0",
        "prop_dmg": "10.0k",
        "crop_dmg": "0",
        "begin": "07/12/2012",
        "county": "PIMA CO.",
        "state": "AZ"
      },
      {
        "type": "Flash+Flood",
        "time": "1600",
        "inj": "0",
        "deaths": "0",
        "prop_dmg": "500",
        "crop_dmg": "0",
        "begin": "07/14/2012",
        "county": "PIMA CO.",
        "state": "AZ"
      },
      {
        "type": "Flash+Flood",
        "time": "1645",
        "inj": "0",
        "deaths": "0",
        "prop_dmg": "5.00k",
        "crop_dmg": "0",
        "begin": "07/15/2012",
        "county": "PIMA CO.",
        "state": "AZ"
      },
      {
        "type": "Flash+Flood",
        "time": "1735",
        "inj": "0",
        "deaths": "0",
        "prop_dmg": "20.0k",
        "crop_dmg": "0",
        "begin": "07/15/2012",
        "county": "PIMA CO.",
        "state": "AZ"
      }
    ],
    "Flood": [
      {
        "type": "Flood",
        "time": "730",
        "inj": "0",
        "deaths": "0",
        "prop_dmg": "3.00M",
        "crop_dmg": "0",
        "begin": "07/31/2006",
        "county": "PIMA CO.",
        "state": "AZ"
      },
      {
        "type": "Flood",
        "time": "1900",
        "inj": "0",
        "deaths": "0",
        "prop_dmg": "777k",
        "crop_dmg": "0",
        "begin": "01/27/2008",
        "county": "PIMA CO.",
        "state": "AZ"
      },
      {
        "type": "Flood",
        "time": "1000",
        "inj": "0",
        "deaths": "0",
        "prop_dmg": "10.0k",
        "crop_dmg": "0",
        "begin": "01/21/2010",
        "county": "PIMA CO.",
        "state": "AZ"
      },
      {
        "type": "Flood",
        "time": "300",
        "inj": "0",
        "deaths": "0",
        "prop_dmg": "10.0k",
        "crop_dmg": "0",
        "begin": "08/22/2012",
        "county": "PIMA CO.",
        "state": "AZ"
      },
      {
        "type": "Flood",
        "time": "1555",
        "inj": "0",
        "deaths": "0",
        "prop_dmg": "2.00k",
        "crop_dmg": "0",
        "begin": "08/22/2012",
        "county": "PIMA CO.",
        "state": "AZ"
      },
      {
        "type": "Flood",
        "time": "100",
        "inj": "1",
        "deaths": "1",
        "prop_dmg": "20.0k",
        "crop_dmg": "0",
        "begin": "09/07/2012",
        "county": "PIMA CO.",
        "state": "AZ"
      },
      {
        "type": "Flood",
        "time": "2330",
        "inj": "0",
        "deaths": "0",
        "prop_dmg": "1.00k",
        "crop_dmg": "0",
        "begin": "09/09/2012",
        "county": "PIMA CO.",
        "state": "AZ"
      }
    ],
    "Freezing_Fog": [],
    "Funnel_Cloud": [],
    "Hail": [],
    "Heat": [
      {
        "type": "Heat",
        "time": "1330",
        "inj": "0",
        "deaths": "1",
        "prop_dmg": "0",
        "crop_dmg": "0",
        "begin": "05/19/2012",
        "county": "TUCSON METRO AREA ",
        "state": "AZ"
      },
      {
        "type": "Heat",
        "time": "1200",
        "inj": "0",
        "deaths": "1",
        "prop_dmg": "0",
        "crop_dmg": "0",
        "begin": "05/21/2012",
        "county": "TUCSON METRO AREA ",
        "state": "AZ"
      },
      {
        "type": "Heat",
        "time": "1300",
        "inj": "0",
        "deaths": "1",
        "prop_dmg": "0",
        "crop_dmg": "0",
        "begin": "06/19/2012",
        "county": "TUCSON METRO AREA ",
        "state": "AZ"
      },
      {
        "type": "Heat",
        "time": "1720",
        "inj": "0",
        "deaths": "1",
        "prop_dmg": "0",
        "crop_dmg": "0",
        "begin": "10/22/2014",
        "county": "TUCSON METRO AREA ",
        "state": "AZ"
      }
    ],
    "Heavy_Rain": [
      {
        "type": "Heavy+Rain",
        "time": "2000",
        "inj": "0",
        "deaths": "0",
        "prop_dmg": "5.00k",
        "crop_dmg": "0",
        "begin": "08/27/2008",
        "county": "PIMA CO.",
        "state": "AZ"
      },
      {
        "type": "Heavy+Rain",
        "time": "1730",
        "inj": "0",
        "deaths": "0",
        "prop_dmg": "250k",
        "crop_dmg": "0",
        "begin": "07/04/2011",
        "county": "PIMA CO.",
        "state": "AZ"
      },
      {
        "type": "Heavy+Rain",
        "time": "1610",
        "inj": "0",
        "deaths": "0",
        "prop_dmg": "25.0k",
        "crop_dmg": "0",
        "begin": "08/16/2011",
        "county": "PIMA CO.",
        "state": "AZ"
      },
      {
        "type": "Heavy+Rain",
        "time": "1615",
        "inj": "0",
        "deaths": "0",
        "prop_dmg": "75.0k",
        "crop_dmg": "0",
        "begin": "07/15/2012",
        "county": "PIMA CO.",
        "state": "AZ"
      },
      {
        "type": "Heavy+Rain",
        "time": "1400",
        "inj": "0",
        "deaths": "0",
        "prop_dmg": "30.0k",
        "crop_dmg": "0",
        "begin": "07/26/2013",
        "county": "PIMA CO.",
        "state": "AZ"
      }
    ],
    "Heavy_Snow": [],
    "High_Surf": [],
    "High_Wind": [],
    "Ice_Storm": [],
    "Lakeshore_Flood": [],
    "Landslide": [],
    "Lightning": [
      {
        "type": "Lightning",
        "time": "1640",
        "inj": "0",
        "deaths": "0",
        "prop_dmg": "40.0k",
        "crop_dmg": "0",
        "begin": "07/07/1997",
        "county": "PIMA CO.",
        "state": "AZ"
      },
      {
        "type": "Lightning",
        "time": "2040",
        "inj": "0",
        "deaths": "0",
        "prop_dmg": "10.0k",
        "crop_dmg": "0",
        "begin": "08/07/1997",
        "county": "PIMA CO.",
        "state": "AZ"
      },
      {
        "type": "Lightning",
        "time": "1600",
        "inj": "1",
        "deaths": "0",
        "prop_dmg": "0",
        "crop_dmg": "0",
        "begin": "08/13/1997",
        "county": "PIMA CO.",
        "state": "AZ"
      },
      {
        "type": "Lightning",
        "time": "1530",
        "inj": "1",
        "deaths": "0",
        "prop_dmg": "0",
        "crop_dmg": "0",
        "begin": "07/05/1999",
        "county": "PIMA CO.",
        "state": "AZ"
      },
      {
        "type": "Lightning",
        "time": "1411",
        "inj": "0",
        "deaths": "0",
        "prop_dmg": "100k",
        "crop_dmg": "0",
        "begin": "07/10/1999",
        "county": "PIMA CO.",
        "state": "AZ"
      },
      {
        "type": "Lightning",
        "time": "1700",
        "inj": "1",
        "deaths": "0",
        "prop_dmg": "0",
        "crop_dmg": "0",
        "begin": "07/27/1999",
        "county": "PIMA CO.",
        "state": "AZ"
      },
      {
        "type": "Lightning",
        "time": "1830",
        "inj": "0",
        "deaths": "0",
        "prop_dmg": "30.0k",
        "crop_dmg": "0",
        "begin": "08/05/2000",
        "county": "PIMA CO.",
        "state": "AZ"
      },
      {
        "type": "Lightning",
        "time": "1900",
        "inj": "0",
        "deaths": "1",
        "prop_dmg": "0",
        "crop_dmg": "0",
        "begin": "05/28/2005",
        "county": "PIMA CO.",
        "state": "AZ"
      },
      {
        "type": "Lightning",
        "time": "1700",
        "inj": "0",
        "deaths": "0",
        "prop_dmg": "1.00k",
        "crop_dmg": "0",
        "begin": "07/18/2006",
        "county": "PIMA CO.",
        "state": "AZ"
      },
      {
        "type": "Lightning",
        "time": "2030",
        "inj": "4",
        "deaths": "0",
        "prop_dmg": "0",
        "crop_dmg": "0",
        "begin": "08/13/2007",
        "county": "PIMA CO.",
        "state": "AZ"
      },
      {
        "type": "Lightning",
        "time": "1600",
        "inj": "1",
        "deaths": "0",
        "prop_dmg": "0",
        "crop_dmg": "0",
        "begin": "07/22/2008",
        "county": "PIMA CO.",
        "state": "AZ"
      },
      {
        "type": "Lightning",
        "time": "2030",
        "inj": "1",
        "deaths": "0",
        "prop_dmg": "0",
        "crop_dmg": "0",
        "begin": "02/16/2009",
        "county": "PIMA CO.",
        "state": "AZ"
      },
      {
        "type": "Lightning",
        "time": "215",
        "inj": "0",
        "deaths": "0",
        "prop_dmg": "1.00k",
        "crop_dmg": "0",
        "begin": "04/11/2009",
        "county": "PIMA CO.",
        "state": "AZ"
      },
      {
        "type": "Lightning",
        "time": "1847",
        "inj": "0",
        "deaths": "0",
        "prop_dmg": "1.00k",
        "crop_dmg": "0",
        "begin": "07/10/2009",
        "county": "PIMA CO.",
        "state": "AZ"
      },
      {
        "type": "Lightning",
        "time": "1900",
        "inj": "0",
        "deaths": "0",
        "prop_dmg": "250",
        "crop_dmg": "0",
        "begin": "07/10/2009",
        "county": "PIMA CO.",
        "state": "AZ"
      },
      {
        "type": "Lightning",
        "time": "1800",
        "inj": "0",
        "deaths": "0",
        "prop_dmg": "5.00k",
        "crop_dmg": "0",
        "begin": "07/19/2009",
        "county": "PIMA CO.",
        "state": "AZ"
      },
      {
        "type": "Lightning",
        "time": "1155",
        "inj": "1",
        "deaths": "1",
        "prop_dmg": "0",
        "crop_dmg": "0",
        "begin": "07/10/2010",
        "county": "PIMA CO.",
        "state": "AZ"
      },
      {
        "type": "Lightning",
        "time": "1730",
        "inj": "0",
        "deaths": "0",
        "prop_dmg": "3.00k",
        "crop_dmg": "0",
        "begin": "07/19/2010",
        "county": "PIMA CO.",
        "state": "AZ"
      },
      {
        "type": "Lightning",
        "time": "100",
        "inj": "0",
        "deaths": "0",
        "prop_dmg": "80.0k",
        "crop_dmg": "0",
        "begin": "07/20/2010",
        "county": "PIMA CO.",
        "state": "AZ"
      },
      {
        "type": "Lightning",
        "time": "1600",
        "inj": "1",
        "deaths": "0",
        "prop_dmg": "500",
        "crop_dmg": "0",
        "begin": "07/21/2010",
        "county": "PIMA CO.",
        "state": "AZ"
      },
      {
        "type": "Lightning",
        "time": "1650",
        "inj": "0",
        "deaths": "0",
        "prop_dmg": "5.00k",
        "crop_dmg": "0",
        "begin": "07/04/2011",
        "county": "PIMA CO.",
        "state": "AZ"
      },
      {
        "type": "Lightning",
        "time": "1700",
        "inj": "0",
        "deaths": "0",
        "prop_dmg": "50.0k",
        "crop_dmg": "0",
        "begin": "07/04/2011",
        "county": "PIMA CO.",
        "state": "AZ"
      },
      {
        "type": "Lightning",
        "time": "1530",
        "inj": "0",
        "deaths": "0",
        "prop_dmg": "1.00k",
        "crop_dmg": "0",
        "begin": "08/07/2011",
        "county": "PIMA CO.",
        "state": "AZ"
      },
      {
        "type": "Lightning",
        "time": "1709",
        "inj": "0",
        "deaths": "0",
        "prop_dmg": "1.00k",
        "crop_dmg": "0",
        "begin": "08/07/2011",
        "county": "PIMA CO.",
        "state": "AZ"
      },
      {
        "type": "Lightning",
        "time": "1500",
        "inj": "0",
        "deaths": "0",
        "prop_dmg": "15.0k",
        "crop_dmg": "0",
        "begin": "07/29/2012",
        "county": "PIMA CO.",
        "state": "AZ"
      },
      {
        "type": "Lightning",
        "time": "1930",
        "inj": "0",
        "deaths": "0",
        "prop_dmg": "1.00k",
        "crop_dmg": "0",
        "begin": "08/05/2012",
        "county": "PIMA CO.",
        "state": "AZ"
      },
      {
        "type": "Lightning",
        "time": "1933",
        "inj": "0",
        "deaths": "0",
        "prop_dmg": "1.00k",
        "crop_dmg": "0",
        "begin": "06/30/2013",
        "county": "PIMA CO.",
        "state": "AZ"
      },
      {
        "type": "Lightning",
        "time": "1815",
        "inj": "0",
        "deaths": "0",
        "prop_dmg": "500",
        "crop_dmg": "0",
        "begin": "08/16/2013",
        "county": "PIMA CO.",
        "state": "AZ"
      },
      {
        "type": "Lightning",
        "time": "1530",
        "inj": "0",
        "deaths": "0",
        "prop_dmg": "1.00k",
        "crop_dmg": "0",
        "begin": "08/20/2013",
        "county": "PIMA CO.",
        "state": "AZ"
      },
      {
        "type": "Lightning",
        "time": "1800",
        "inj": "0",
        "deaths": "0",
        "prop_dmg": "2.00k",
        "crop_dmg": "0",
        "begin": "07/03/2014",
        "county": "PIMA CO.",
        "state": "AZ"
      },
      {
        "type": "Lightning",
        "time": "1530",
        "inj": "0",
        "deaths": "0",
        "prop_dmg": "1.00k",
        "crop_dmg": "0",
        "begin": "07/04/2014",
        "county": "PIMA CO.",
        "state": "AZ"
      },
      {
        "type": "Lightning",
        "time": "1300",
        "inj": "0",
        "deaths": "1",
        "prop_dmg": "0",
        "crop_dmg": "0",
        "begin": "08/14/2014",
        "county": "PIMA CO.",
        "state": "AZ"
      }
    ],
    "Rip_Current": [],
    "Seiche": [],
    "Sleet": [],
    "Storm_Surge__FTide": [],
    "Strong_Wind": [],
    "Thunderstorm_Wind": [],
    "Tornado": [
      {
        "type": "Tornado",
        "time": "1216",
        "inj": "9",
        "deaths": "2",
        "prop_dmg": "25.0k",
        "crop_dmg": "0",
        "begin": "08/27/1964",
        "county": "PIMA CO.",
        "state": "AZ"
      },
      {
        "type": "Tornado",
        "time": "1628",
        "inj": "0",
        "deaths": "0",
        "prop_dmg": "500k",
        "crop_dmg": "0",
        "begin": "07/28/1994",
        "county": "PIMA CO.",
        "state": "AZ"
      }
    ],
    "Tropical_Depression": [],
    "Tropical_Storm": [],
    "Tsunami": [],
    "Volcanic_Ashfall": [],
    "Waterspout": [],
    "Wildfire": [
      {
        "type": "Wildfire",
        "time": "800",
        "inj": "0",
        "deaths": "0",
        "prop_dmg": "100k",
        "crop_dmg": "0",
        "begin": "05/21/2002",
        "county": "PIMA CO.",
        "state": "AZ"
      },
      {
        "type": "Wildfire",
        "time": "0",
        "inj": "0",
        "deaths": "0",
        "prop_dmg": "100k",
        "crop_dmg": "0",
        "begin": "06/01/2002",
        "county": "PIMA CO.",
        "state": "AZ"
      },
      {
        "type": "Wildfire",
        "time": "0",
        "inj": "0",
        "deaths": "0",
        "prop_dmg": "100k",
        "crop_dmg": "0",
        "begin": "06/01/2002",
        "county": "PIMA CO.",
        "state": "AZ"
      },
      {
        "type": "Wildfire",
        "time": "1500",
        "inj": "0",
        "deaths": "0",
        "prop_dmg": "66.0M",
        "crop_dmg": "0",
        "begin": "06/17/2003",
        "county": "PIMA CO.",
        "state": "AZ"
      },
      {
        "type": "Wildfire",
        "time": "0",
        "inj": "0",
        "deaths": "0",
        "prop_dmg": "66.0M",
        "crop_dmg": "0",
        "begin": "07/01/2003",
        "county": "PIMA CO.",
        "state": "AZ"
      }
    ],
    "Winter_Storm": [],
    "Winter_Weather": []
  },
  "021": {
    "name": "Pinal County",
    "fips": "AZ",
    "pop10": "375770",
    "lat": 32.91891,
    "lon": -111.367257,
    "geoid": "04021",
    "deaths": 5,
    "prop_dmg": "2.89M",
    "crop_dmg": 0,
    "inj": 20,
    "all": 30,
    "eq": [],
    "Hurricane____Typhoon___": [],
    "Cold__FWind_Chill": [
      {
        "type": "Cold%2FWind+Chill",
        "time": "500",
        "inj": "0",
        "deaths": "1",
        "prop_dmg": "0",
        "crop_dmg": "0",
        "begin": "01/16/2013",
        "county": "SOUTHEAST PINAL COUNTY ",
        "state": "AZ"
      }
    ],
    "Coastal_Flood": [],
    "Avalanche": [],
    "Astronomical_Low_Tide": [],
    "Dense_Fog": [
      {
        "type": "Dense+Fog",
        "time": "500",
        "inj": "0",
        "deaths": "0",
        "prop_dmg": "50.0k",
        "crop_dmg": "0",
        "begin": "01/14/2015",
        "county": "CENTRAL DESERTS ",
        "state": "AZ"
      }
    ],
    "Drought": [],
    "Dust_Devil": [
      {
        "type": "Dust+Devil",
        "time": "1400",
        "inj": "0",
        "deaths": "0",
        "prop_dmg": "5.00k",
        "crop_dmg": "0",
        "begin": "06/18/2008",
        "county": "PINAL CO.",
        "state": "AZ"
      },
      {
        "type": "Dust+Devil",
        "time": "1400",
        "inj": "0",
        "deaths": "0",
        "prop_dmg": "5.00k",
        "crop_dmg": "0",
        "begin": "06/18/2008",
        "county": "PINAL CO.",
        "state": "AZ"
      }
    ],
    "Dust_Storm": [
      {
        "type": "Dust+Storm",
        "time": "1608",
        "inj": "2",
        "deaths": "0",
        "prop_dmg": "0",
        "crop_dmg": "0",
        "begin": "09/18/2004",
        "county": "CENTRAL DESERTS ",
        "state": "AZ"
      },
      {
        "type": "Dust+Storm",
        "time": "1025",
        "inj": "13",
        "deaths": "2",
        "prop_dmg": "0",
        "crop_dmg": "0",
        "begin": "02/15/2006",
        "county": "NW PINAL ",
        "state": "AZ"
      },
      {
        "type": "Dust+Storm",
        "time": "1700",
        "inj": "0",
        "deaths": "0",
        "prop_dmg": "100k",
        "crop_dmg": "0",
        "begin": "08/16/2007",
        "county": "CENTRAL DESERTS ",
        "state": "AZ"
      },
      {
        "type": "Dust+Storm",
        "time": "1730",
        "inj": "0",
        "deaths": "0",
        "prop_dmg": "40.0k",
        "crop_dmg": "0",
        "begin": "07/17/2009",
        "county": "CENTRAL DESERTS ",
        "state": "AZ"
      },
      {
        "type": "Dust+Storm",
        "time": "1255",
        "inj": "0",
        "deaths": "0",
        "prop_dmg": "100k",
        "crop_dmg": "0",
        "begin": "04/06/2011",
        "county": "SOUTH CENTRAL PINAL COUNTY ",
        "state": "AZ"
      },
      {
        "type": "Dust+Storm",
        "time": "1500",
        "inj": "0",
        "deaths": "0",
        "prop_dmg": "10.0k",
        "crop_dmg": "0",
        "begin": "07/18/2011",
        "county": "CENTRAL DESERTS ",
        "state": "AZ"
      },
      {
        "type": "Dust+Storm",
        "time": "1800",
        "inj": "0",
        "deaths": "0",
        "prop_dmg": "150k",
        "crop_dmg": "0",
        "begin": "08/25/2011",
        "county": "SOUTH CENTRAL PINAL COUNTY ",
        "state": "AZ"
      },
      {
        "type": "Dust+Storm",
        "time": "1520",
        "inj": "0",
        "deaths": "0",
        "prop_dmg": "200k",
        "crop_dmg": "0",
        "begin": "09/27/2011",
        "county": "SOUTH CENTRAL PINAL COUNTY ",
        "state": "AZ"
      },
      {
        "type": "Dust+Storm",
        "time": "1400",
        "inj": "4",
        "deaths": "0",
        "prop_dmg": "100k",
        "crop_dmg": "0",
        "begin": "10/04/2011",
        "county": "CENTRAL DESERTS ",
        "state": "AZ"
      },
      {
        "type": "Dust+Storm",
        "time": "1230",
        "inj": "0",
        "deaths": "0",
        "prop_dmg": "250k",
        "crop_dmg": "0",
        "begin": "10/04/2011",
        "county": "SOUTH CENTRAL PINAL COUNTY ",
        "state": "AZ"
      },
      {
        "type": "Dust+Storm",
        "time": "1600",
        "inj": "0",
        "deaths": "0",
        "prop_dmg": "40.0k",
        "crop_dmg": "0",
        "begin": "06/26/2012",
        "county": "SOUTH CENTRAL PINAL COUNTY ",
        "state": "AZ"
      },
      {
        "type": "Dust+Storm",
        "time": "1345",
        "inj": "0",
        "deaths": "0",
        "prop_dmg": "50.0k",
        "crop_dmg": "0",
        "begin": "04/08/2013",
        "county": "SOUTH CENTRAL PINAL COUNTY ",
        "state": "AZ"
      },
      {
        "type": "Dust+Storm",
        "time": "1200",
        "inj": "0",
        "deaths": "0",
        "prop_dmg": "500k",
        "crop_dmg": "0",
        "begin": "10/29/2013",
        "county": "SOUTH CENTRAL PINAL COUNTY ",
        "state": "AZ"
      }
    ],
    "Excessive_Heat": [
      {
        "type": "Excessive+Heat",
        "time": "1000",
        "inj": "0",
        "deaths": "1",
        "prop_dmg": "0",
        "crop_dmg": "0",
        "begin": "06/12/2013",
        "county": "CENTRAL DESERTS ",
        "state": "AZ"
      }
    ],
    "Extreme_Cold__FWind_Chill": [],
    "Flash_Flood": [
      {
        "type": "Flash+Flood",
        "time": "2145",
        "inj": "0",
        "deaths": "0",
        "prop_dmg": "300k",
        "crop_dmg": "0",
        "begin": "01/21/2010",
        "county": "PINAL CO.",
        "state": "AZ"
      }
    ],
    "Flood": [
      {
        "type": "Flood",
        "time": "700",
        "inj": "0",
        "deaths": "0",
        "prop_dmg": "250k",
        "crop_dmg": "0",
        "begin": "08/01/2006",
        "county": "PINAL CO.",
        "state": "AZ"
      },
      {
        "type": "Flood",
        "time": "1310",
        "inj": "0",
        "deaths": "0",
        "prop_dmg": "300k",
        "crop_dmg": "0",
        "begin": "08/01/2006",
        "county": "PINAL CO.",
        "state": "AZ"
      }
    ],
    "Freezing_Fog": [],
    "Funnel_Cloud": [],
    "Hail": [],
    "Heat": [
      {
        "type": "Heat",
        "time": "0",
        "inj": "0",
        "deaths": "1",
        "prop_dmg": "0",
        "crop_dmg": "0",
        "begin": "06/23/2010",
        "county": "CENTRAL DESERTS ",
        "state": "AZ"
      }
    ],
    "Heavy_Rain": [
      {
        "type": "Heavy+Rain",
        "time": "830",
        "inj": "0",
        "deaths": "0",
        "prop_dmg": "250k",
        "crop_dmg": "0",
        "begin": "07/04/2012",
        "county": "PINAL CO.",
        "state": "AZ"
      },
      {
        "type": "Heavy+Rain",
        "time": "1400",
        "inj": "0",
        "deaths": "0",
        "prop_dmg": "15.0k",
        "crop_dmg": "0",
        "begin": "07/22/2013",
        "county": "PINAL CO.",
        "state": "AZ"
      }
    ],
    "Heavy_Snow": [],
    "High_Surf": [],
    "High_Wind": [],
    "Ice_Storm": [],
    "Lakeshore_Flood": [],
    "Landslide": [],
    "Lightning": [
      {
        "type": "Lightning",
        "time": "1650",
        "inj": "0",
        "deaths": "0",
        "prop_dmg": "60.0k",
        "crop_dmg": "0",
        "begin": "08/19/1999",
        "county": "PINAL CO.",
        "state": "AZ"
      },
      {
        "type": "Lightning",
        "time": "2117",
        "inj": "1",
        "deaths": "0",
        "prop_dmg": "0",
        "crop_dmg": "0",
        "begin": "07/04/2001",
        "county": "PINAL CO.",
        "state": "AZ"
      },
      {
        "type": "Lightning",
        "time": "600",
        "inj": "0",
        "deaths": "0",
        "prop_dmg": "10.0k",
        "crop_dmg": "0",
        "begin": "07/27/2006",
        "county": "PINAL CO.",
        "state": "AZ"
      },
      {
        "type": "Lightning",
        "time": "1800",
        "inj": "0",
        "deaths": "0",
        "prop_dmg": "30.0k",
        "crop_dmg": "0",
        "begin": "07/17/2009",
        "county": "PINAL CO.",
        "state": "AZ"
      },
      {
        "type": "Lightning",
        "time": "1730",
        "inj": "0",
        "deaths": "0",
        "prop_dmg": "1.00k",
        "crop_dmg": "0",
        "begin": "07/03/2014",
        "county": "PINAL CO.",
        "state": "AZ"
      }
    ],
    "Rip_Current": [],
    "Seiche": [],
    "Sleet": [],
    "Storm_Surge__FTide": [],
    "Strong_Wind": [],
    "Thunderstorm_Wind": [],
    "Tornado": [],
    "Tropical_Depression": [],
    "Tropical_Storm": [],
    "Tsunami": [],
    "Volcanic_Ashfall": [],
    "Waterspout": [],
    "Wildfire": [
      {
        "type": "Wildfire",
        "time": "1600",
        "inj": "0",
        "deaths": "0",
        "prop_dmg": "75.0k",
        "crop_dmg": "0",
        "begin": "07/08/2013",
        "county": "SOUTHEAST PINAL COUNTY ",
        "state": "AZ"
      }
    ],
    "Winter_Storm": [],
    "Winter_Weather": []
  },
  "023": {
    "name": "Santa Cruz County",
    "fips": "AZ",
    "pop10": "47420",
    "lat": 31.525904,
    "lon": -110.84519,
    "geoid": "04023",
    "deaths": 1,
    "prop_dmg": "230k",
    "crop_dmg": 0,
    "inj": 2,
    "all": 6,
    "eq": [],
    "Hurricane____Typhoon___": [],
    "Cold__FWind_Chill": [],
    "Coastal_Flood": [],
    "Avalanche": [],
    "Astronomical_Low_Tide": [],
    "Dense_Fog": [],
    "Drought": [],
    "Dust_Devil": [],
    "Dust_Storm": [],
    "Excessive_Heat": [],
    "Extreme_Cold__FWind_Chill": [],
    "Flash_Flood": [],
    "Flood": [],
    "Freezing_Fog": [],
    "Funnel_Cloud": [],
    "Hail": [],
    "Heat": [],
    "Heavy_Rain": [],
    "Heavy_Snow": [],
    "High_Surf": [],
    "High_Wind": [],
    "Ice_Storm": [],
    "Lakeshore_Flood": [],
    "Landslide": [],
    "Lightning": [
      {
        "type": "Lightning",
        "time": "1700",
        "inj": "2",
        "deaths": "0",
        "prop_dmg": "0",
        "crop_dmg": "0",
        "begin": "06/26/1996",
        "county": "SANTA CRUZ CO.",
        "state": "AZ"
      },
      {
        "type": "Lightning",
        "time": "1400",
        "inj": "0",
        "deaths": "1",
        "prop_dmg": "0",
        "crop_dmg": "0",
        "begin": "07/30/2014",
        "county": "SANTA CRUZ CO.",
        "state": "AZ"
      }
    ],
    "Rip_Current": [],
    "Seiche": [],
    "Sleet": [],
    "Storm_Surge__FTide": [],
    "Strong_Wind": [],
    "Thunderstorm_Wind": [],
    "Tornado": [],
    "Tropical_Depression": [],
    "Tropical_Storm": [],
    "Tsunami": [],
    "Volcanic_Ashfall": [],
    "Waterspout": [],
    "Wildfire": [
      {
        "type": "Wildfire",
        "time": "800",
        "inj": "0",
        "deaths": "0",
        "prop_dmg": "90.0k",
        "crop_dmg": "0",
        "begin": "04/29/2002",
        "county": "SANTA CRUZ CO.",
        "state": "AZ"
      },
      {
        "type": "Wildfire",
        "time": "800",
        "inj": "0",
        "deaths": "0",
        "prop_dmg": "90.0k",
        "crop_dmg": "0",
        "begin": "05/01/2002",
        "county": "SANTA CRUZ CO.",
        "state": "AZ"
      },
      {
        "type": "Wildfire",
        "time": "0",
        "inj": "0",
        "deaths": "0",
        "prop_dmg": "25.0k",
        "crop_dmg": "0",
        "begin": "06/01/2011",
        "county": "UPPER SANTA CRUZ RIVER AND ALTAR VALLEYS ",
        "state": "AZ"
      },
      {
        "type": "Wildfire",
        "time": "0",
        "inj": "0",
        "deaths": "0",
        "prop_dmg": "25.0k",
        "crop_dmg": "0",
        "begin": "06/01/2011",
        "county": "UPPER SANTA CRUZ RIVER AND ALTAR VALLEYS ",
        "state": "AZ"
      }
    ],
    "Winter_Storm": [],
    "Winter_Weather": []
  },
  "025": {
    "name": "Yavapai County",
    "fips": "AZ",
    "pop10": "211033",
    "lat": 34.630044,
    "lon": -112.573745,
    "geoid": "04025",
    "deaths": 20,
    "prop_dmg": "8.13M",
    "crop_dmg": 0,
    "inj": 0,
    "all": 16,
    "eq": [],
    "Hurricane____Typhoon___": [],
    "Cold__FWind_Chill": [
      {
        "type": "Cold%2FWind+Chill",
        "time": "0",
        "inj": "0",
        "deaths": "0",
        "prop_dmg": "70.0k",
        "crop_dmg": "0",
        "begin": "01/01/2011",
        "county": "YAVAPAI COUNTY MOUNTAINS ",
        "state": "AZ"
      }
    ],
    "Coastal_Flood": [],
    "Avalanche": [],
    "Astronomical_Low_Tide": [],
    "Dense_Fog": [],
    "Drought": [],
    "Dust_Devil": [
      {
        "type": "Dust+Devil",
        "time": "1240",
        "inj": "0",
        "deaths": "0",
        "prop_dmg": "20.0k",
        "crop_dmg": "0",
        "begin": "06/06/2014",
        "county": "YAVAPAI CO.",
        "state": "AZ"
      },
      {
        "type": "Dust+Devil",
        "time": "1240",
        "inj": "0",
        "deaths": "0",
        "prop_dmg": "20.0k",
        "crop_dmg": "0",
        "begin": "06/06/2014",
        "county": "YAVAPAI CO.",
        "state": "AZ"
      }
    ],
    "Dust_Storm": [
      {
        "type": "Dust+Storm",
        "time": "1400",
        "inj": "0",
        "deaths": "0",
        "prop_dmg": "150k",
        "crop_dmg": "0",
        "begin": "03/22/2009",
        "county": "YAVAPAI COUNTY VALLEYS AND BASINS ",
        "state": "AZ"
      }
    ],
    "Excessive_Heat": [],
    "Extreme_Cold__FWind_Chill": [],
    "Flash_Flood": [],
    "Flood": [
      {
        "type": "Flood",
        "time": "0",
        "inj": "0",
        "deaths": "0",
        "prop_dmg": "1.00k",
        "crop_dmg": "0",
        "begin": "07/06/1998",
        "county": "YAVAPAI CO.",
        "state": "AZ"
      },
      {
        "type": "Flood",
        "time": "2130",
        "inj": "0",
        "deaths": "0",
        "prop_dmg": "500k",
        "crop_dmg": "0",
        "begin": "01/21/2010",
        "county": "YAVAPAI CO.",
        "state": "AZ"
      }
    ],
    "Freezing_Fog": [],
    "Funnel_Cloud": [],
    "Hail": [],
    "Heat": [],
    "Heavy_Rain": [
      {
        "type": "Heavy+Rain",
        "time": "1711",
        "inj": "0",
        "deaths": "0",
        "prop_dmg": "150k",
        "crop_dmg": "0",
        "begin": "07/05/2001",
        "county": "YAVAPAI CO.",
        "state": "AZ"
      }
    ],
    "Heavy_Snow": [],
    "High_Surf": [],
    "High_Wind": [],
    "Ice_Storm": [],
    "Lakeshore_Flood": [],
    "Landslide": [],
    "Lightning": [
      {
        "type": "Lightning",
        "time": "1630",
        "inj": "0",
        "deaths": "0",
        "prop_dmg": "100k",
        "crop_dmg": "0",
        "begin": "08/05/1999",
        "county": "YAVAPAI CO.",
        "state": "AZ"
      },
      {
        "type": "Lightning",
        "time": "1400",
        "inj": "0",
        "deaths": "0",
        "prop_dmg": "5.00k",
        "crop_dmg": "0",
        "begin": "08/25/2003",
        "county": "YAVAPAI CO.",
        "state": "AZ"
      },
      {
        "type": "Lightning",
        "time": "1432",
        "inj": "0",
        "deaths": "0",
        "prop_dmg": "10.0k",
        "crop_dmg": "0",
        "begin": "08/27/2003",
        "county": "YAVAPAI CO.",
        "state": "AZ"
      },
      {
        "type": "Lightning",
        "time": "1600",
        "inj": "0",
        "deaths": "0",
        "prop_dmg": "100k",
        "crop_dmg": "0",
        "begin": "08/18/2004",
        "county": "YAVAPAI CO.",
        "state": "AZ"
      },
      {
        "type": "Lightning",
        "time": "1600",
        "inj": "0",
        "deaths": "0",
        "prop_dmg": "5.00k",
        "crop_dmg": "0",
        "begin": "07/22/2012",
        "county": "YAVAPAI CO.",
        "state": "AZ"
      }
    ],
    "Rip_Current": [],
    "Seiche": [],
    "Sleet": [],
    "Storm_Surge__FTide": [],
    "Strong_Wind": [],
    "Thunderstorm_Wind": [],
    "Tornado": [
      {
        "type": "Tornado",
        "time": "1500",
        "inj": "0",
        "deaths": "0",
        "prop_dmg": "30.0",
        "crop_dmg": "0",
        "begin": "08/10/1972",
        "county": "YAVAPAI CO.",
        "state": "AZ"
      }
    ],
    "Tropical_Depression": [],
    "Tropical_Storm": [],
    "Tsunami": [],
    "Volcanic_Ashfall": [],
    "Waterspout": [],
    "Wildfire": [
      {
        "type": "Wildfire",
        "time": "1736",
        "inj": "0",
        "deaths": "19",
        "prop_dmg": "0",
        "crop_dmg": "0",
        "begin": "06/28/2013",
        "county": "YAVAPAI COUNTY MOUNTAINS ",
        "state": "AZ"
      },
      {
        "type": "Wildfire",
        "time": "1550",
        "inj": "0",
        "deaths": "0",
        "prop_dmg": "7.00M",
        "crop_dmg": "0",
        "begin": "05/20/2014",
        "county": "OAK CREEK AND SYCAMORE CANYONS ",
        "state": "AZ"
      }
    ],
    "Winter_Storm": [
      {
        "type": "Winter+Storm",
        "time": "1500",
        "inj": "0",
        "deaths": "1",
        "prop_dmg": "0",
        "crop_dmg": "0",
        "begin": "11/29/2001",
        "county": "YAVAPAI COUNTY MOUNTAINS ",
        "state": "AZ"
      }
    ],
    "Winter_Weather": []
  },
  "027": {
    "name": "Yuma County",
    "fips": "AZ",
    "pop10": "195751",
    "lat": 32.773942,
    "lon": -113.910905,
    "geoid": "04027",
    "deaths": 0,
    "prop_dmg": "415k",
    "crop_dmg": 0,
    "inj": 1,
    "all": 6,
    "eq": [],
    "Hurricane____Typhoon___": [],
    "Cold__FWind_Chill": [],
    "Coastal_Flood": [],
    "Avalanche": [],
    "Astronomical_Low_Tide": [],
    "Dense_Fog": [],
    "Drought": [],
    "Dust_Devil": [],
    "Dust_Storm": [
      {
        "type": "Dust+Storm",
        "time": "1600",
        "inj": "0",
        "deaths": "0",
        "prop_dmg": "5.00k",
        "crop_dmg": "0",
        "begin": "04/28/1999",
        "county": "SW YUMA ",
        "state": "AZ"
      },
      {
        "type": "Dust+Storm",
        "time": "1810",
        "inj": "0",
        "deaths": "0",
        "prop_dmg": "20.0k",
        "crop_dmg": "0",
        "begin": "07/29/2005",
        "county": "YUMA/MARTINEZ LAKE AND VICINITY ",
        "state": "AZ"
      }
    ],
    "Excessive_Heat": [],
    "Extreme_Cold__FWind_Chill": [],
    "Flash_Flood": [],
    "Flood": [
      {
        "type": "Flood",
        "time": "1950",
        "inj": "0",
        "deaths": "0",
        "prop_dmg": "10.0k",
        "crop_dmg": "0",
        "begin": "07/28/1999",
        "county": "YUMA CO.",
        "state": "AZ"
      }
    ],
    "Freezing_Fog": [],
    "Funnel_Cloud": [],
    "Hail": [],
    "Heat": [],
    "Heavy_Rain": [
      {
        "type": "Heavy+Rain",
        "time": "1100",
        "inj": "0",
        "deaths": "0",
        "prop_dmg": "100k",
        "crop_dmg": "0",
        "begin": "07/20/2008",
        "county": "YUMA CO.",
        "state": "AZ"
      },
      {
        "type": "Heavy+Rain",
        "time": "1410",
        "inj": "0",
        "deaths": "0",
        "prop_dmg": "30.0k",
        "crop_dmg": "0",
        "begin": "09/05/2009",
        "county": "YUMA CO.",
        "state": "AZ"
      }
    ],
    "Heavy_Snow": [],
    "High_Surf": [],
    "High_Wind": [],
    "Ice_Storm": [],
    "Lakeshore_Flood": [],
    "Landslide": [],
    "Lightning": [],
    "Rip_Current": [],
    "Seiche": [],
    "Sleet": [],
    "Storm_Surge__FTide": [],
    "Strong_Wind": [],
    "Thunderstorm_Wind": [],
    "Tornado": [
      {
        "type": "Tornado",
        "time": "920",
        "inj": "1",
        "deaths": "0",
        "prop_dmg": "250k",
        "crop_dmg": "0",
        "begin": "08/17/1959",
        "county": "YUMA CO.",
        "state": "AZ"
      }
    ],
    "Tropical_Depression": [],
    "Tropical_Storm": [],
    "Tsunami": [],
    "Volcanic_Ashfall": [],
    "Waterspout": [],
    "Wildfire": [],
    "Winter_Storm": [],
    "Winter_Weather": []
  }
}