{
  "001": {
    "name": "Ada County",
    "fips": "ID",
    "pop10": "392365",
    "lat": 43.447861,
    "lon": -116.244456,
    "geoid": "16001",
    "deaths": 0,
    "prop_dmg": 0,
    "crop_dmg": 0,
    "inj": 0,
    "all": 0,
    "eq": [],
    "Hurricane____Typhoon___": [],
    "Cold__FWind_Chill": [],
    "Coastal_Flood": [],
    "Avalanche": [],
    "Astronomical_Low_Tide": [],
    "Dense_Fog": [],
    "Drought": [],
    "Dust_Devil": [],
    "Dust_Storm": [],
    "Excessive_Heat": [],
    "Extreme_Cold__FWind_Chill": [],
    "Flash_Flood": [],
    "Flood": [],
    "Freezing_Fog": [],
    "Funnel_Cloud": [],
    "Hail": [],
    "Heat": [],
    "Heavy_Rain": [],
    "Heavy_Snow": [],
    "High_Surf": [],
    "High_Wind": [],
    "Ice_Storm": [],
    "Lakeshore_Flood": [],
    "Landslide": [],
    "Lightning": [],
    "Rip_Current": [],
    "Seiche": [],
    "Sleet": [],
    "Storm_Surge__FTide": [],
    "Strong_Wind": [],
    "Thunderstorm_Wind": [],
    "Tornado": [],
    "Tropical_Depression": [],
    "Tropical_Storm": [],
    "Tsunami": [],
    "Volcanic_Ashfall": [],
    "Waterspout": [],
    "Wildfire": [],
    "Winter_Storm": [],
    "Winter_Weather": []
  },
  "003": {
    "name": "Adams County",
    "fips": "ID",
    "pop10": "3976",
    "lat": 44.884583,
    "lon": -116.431873,
    "geoid": "16003",
    "deaths": 0,
    "prop_dmg": "100k",
    "crop_dmg": 0,
    "inj": 1,
    "all": 1,
    "eq": [],
    "Hurricane____Typhoon___": [],
    "Cold__FWind_Chill": [],
    "Coastal_Flood": [],
    "Avalanche": [],
    "Astronomical_Low_Tide": [],
    "Dense_Fog": [],
    "Drought": [],
    "Dust_Devil": [],
    "Dust_Storm": [],
    "Excessive_Heat": [],
    "Extreme_Cold__FWind_Chill": [],
    "Flash_Flood": [],
    "Flood": [],
    "Freezing_Fog": [],
    "Funnel_Cloud": [],
    "Hail": [],
    "Heat": [],
    "Heavy_Rain": [],
    "Heavy_Snow": [],
    "High_Surf": [],
    "High_Wind": [],
    "Ice_Storm": [],
    "Lakeshore_Flood": [],
    "Landslide": [],
    "Lightning": [],
    "Rip_Current": [],
    "Seiche": [],
    "Sleet": [],
    "Storm_Surge__FTide": [],
    "Strong_Wind": [],
    "Thunderstorm_Wind": [],
    "Tornado": [
      {
        "type": "Tornado",
        "time": "1120",
        "inj": "1",
        "deaths": "0",
        "prop_dmg": "100k",
        "crop_dmg": "0",
        "begin": "06/04/2006",
        "county": "ADAMS CO.",
        "state": "ID"
      }
    ],
    "Tropical_Depression": [],
    "Tropical_Storm": [],
    "Tsunami": [],
    "Volcanic_Ashfall": [],
    "Waterspout": [],
    "Wildfire": [],
    "Winter_Storm": [],
    "Winter_Weather": []
  },
  "005": {
    "name": "Bannock County",
    "fips": "ID",
    "pop10": "82839",
    "lat": 42.692938,
    "lon": -112.228986,
    "geoid": "16005",
    "deaths": 2,
    "prop_dmg": "1.93M",
    "crop_dmg": "2.00M",
    "inj": 2,
    "all": 21,
    "eq": [],
    "Hurricane____Typhoon___": [],
    "Cold__FWind_Chill": [],
    "Coastal_Flood": [],
    "Avalanche": [],
    "Astronomical_Low_Tide": [],
    "Dense_Fog": [],
    "Drought": [],
    "Dust_Devil": [],
    "Dust_Storm": [
      {
        "type": "Dust+Storm",
        "time": "1500",
        "inj": "0",
        "deaths": "0",
        "prop_dmg": "120k",
        "crop_dmg": "0",
        "begin": "04/13/2013",
        "county": "LOWER SNAKE RIVER PLAIN ",
        "state": "ID"
      }
    ],
    "Excessive_Heat": [],
    "Extreme_Cold__FWind_Chill": [],
    "Flash_Flood": [
      {
        "type": "Flash+Flood",
        "time": "200",
        "inj": "0",
        "deaths": "0",
        "prop_dmg": "8.00k",
        "crop_dmg": "0",
        "begin": "06/14/2009",
        "county": "BANNOCK CO.",
        "state": "ID"
      }
    ],
    "Flood": [
      {
        "type": "Flood",
        "time": "1200",
        "inj": "0",
        "deaths": "0",
        "prop_dmg": "5.00k",
        "crop_dmg": "0",
        "begin": "02/24/2009",
        "county": "BANNOCK CO.",
        "state": "ID"
      },
      {
        "type": "Flood",
        "time": "500",
        "inj": "0",
        "deaths": "0",
        "prop_dmg": "25.0k",
        "crop_dmg": "0",
        "begin": "06/14/2009",
        "county": "BANNOCK CO.",
        "state": "ID"
      },
      {
        "type": "Flood",
        "time": "1",
        "inj": "0",
        "deaths": "0",
        "prop_dmg": "10.0k",
        "crop_dmg": "0",
        "begin": "06/01/2011",
        "county": "BANNOCK CO.",
        "state": "ID"
      },
      {
        "type": "Flood",
        "time": "1200",
        "inj": "0",
        "deaths": "0",
        "prop_dmg": "9.00k",
        "crop_dmg": "0",
        "begin": "02/22/2012",
        "county": "BANNOCK CO.",
        "state": "ID"
      }
    ],
    "Freezing_Fog": [
      {
        "type": "Freezing+Fog",
        "time": "2100",
        "inj": "0",
        "deaths": "0",
        "prop_dmg": "10.0k",
        "crop_dmg": "0",
        "begin": "01/24/2015",
        "county": "LOWER SNAKE RIVER PLAIN ",
        "state": "ID"
      }
    ],
    "Funnel_Cloud": [
      {
        "type": "Funnel+Cloud",
        "time": "1145",
        "inj": "0",
        "deaths": "0",
        "prop_dmg": "2.00k",
        "crop_dmg": "0",
        "begin": "08/27/1999",
        "county": "BANNOCK CO.",
        "state": "ID"
      }
    ],
    "Hail": [],
    "Heat": [],
    "Heavy_Rain": [
      {
        "type": "Heavy+Rain",
        "time": "1425",
        "inj": "0",
        "deaths": "0",
        "prop_dmg": "100k",
        "crop_dmg": "0",
        "begin": "08/12/1997",
        "county": "BANNOCK CO.",
        "state": "ID"
      },
      {
        "type": "Heavy+Rain",
        "time": "1",
        "inj": "0",
        "deaths": "0",
        "prop_dmg": "0",
        "crop_dmg": "2.00M",
        "begin": "08/01/2014",
        "county": "BANNOCK CO.",
        "state": "ID"
      }
    ],
    "Heavy_Snow": [
      {
        "type": "Heavy+Snow",
        "time": "700",
        "inj": "0",
        "deaths": "0",
        "prop_dmg": "25.0k",
        "crop_dmg": "0",
        "begin": "10/06/2007",
        "county": "LOWER SNAKE RIVER PLAIN ",
        "state": "ID"
      },
      {
        "type": "Heavy+Snow",
        "time": "400",
        "inj": "2",
        "deaths": "1",
        "prop_dmg": "0",
        "crop_dmg": "0",
        "begin": "10/11/2008",
        "county": "LOWER SNAKE RIVER PLAIN ",
        "state": "ID"
      },
      {
        "type": "Heavy+Snow",
        "time": "900",
        "inj": "0",
        "deaths": "0",
        "prop_dmg": "6.00k",
        "crop_dmg": "0",
        "begin": "11/30/2011",
        "county": "LOWER SNAKE RIVER PLAIN ",
        "state": "ID"
      },
      {
        "type": "Heavy+Snow",
        "time": "1700",
        "inj": "0",
        "deaths": "1",
        "prop_dmg": "0",
        "crop_dmg": "0",
        "begin": "10/25/2012",
        "county": "LOWER SNAKE RIVER PLAIN ",
        "state": "ID"
      },
      {
        "type": "Heavy+Snow",
        "time": "1000",
        "inj": "0",
        "deaths": "0",
        "prop_dmg": "50.0k",
        "crop_dmg": "0",
        "begin": "11/13/2014",
        "county": "LOWER SNAKE RIVER PLAIN ",
        "state": "ID"
      }
    ],
    "High_Surf": [],
    "High_Wind": [],
    "Ice_Storm": [],
    "Lakeshore_Flood": [],
    "Landslide": [],
    "Lightning": [
      {
        "type": "Lightning",
        "time": "2018",
        "inj": "0",
        "deaths": "0",
        "prop_dmg": "1.00M",
        "crop_dmg": "0",
        "begin": "06/17/1997",
        "county": "BANNOCK CO.",
        "state": "ID"
      },
      {
        "type": "Lightning",
        "time": "1630",
        "inj": "0",
        "deaths": "0",
        "prop_dmg": "10.0k",
        "crop_dmg": "0",
        "begin": "05/29/1999",
        "county": "BANNOCK CO.",
        "state": "ID"
      }
    ],
    "Rip_Current": [],
    "Seiche": [],
    "Sleet": [],
    "Storm_Surge__FTide": [],
    "Strong_Wind": [],
    "Thunderstorm_Wind": [],
    "Tornado": [],
    "Tropical_Depression": [],
    "Tropical_Storm": [],
    "Tsunami": [],
    "Volcanic_Ashfall": [],
    "Waterspout": [],
    "Wildfire": [
      {
        "type": "Wildfire",
        "time": "1400",
        "inj": "0",
        "deaths": "0",
        "prop_dmg": "500k",
        "crop_dmg": "0",
        "begin": "07/21/2003",
        "county": "BANNOCK CO.",
        "state": "ID"
      },
      {
        "type": "Wildfire",
        "time": "800",
        "inj": "0",
        "deaths": "0",
        "prop_dmg": "1.00k",
        "crop_dmg": "0",
        "begin": "07/29/2005",
        "county": "LOWER SNAKE RIVER PLAIN ",
        "state": "ID"
      },
      {
        "type": "Wildfire",
        "time": "1300",
        "inj": "0",
        "deaths": "0",
        "prop_dmg": "50.0k",
        "crop_dmg": "0",
        "begin": "06/04/2012",
        "county": "LOWER SNAKE RIVER PLAIN ",
        "state": "ID"
      }
    ],
    "Winter_Storm": [
      {
        "type": "Winter+Storm",
        "time": "400",
        "inj": "0",
        "deaths": "0",
        "prop_dmg": "2.00k",
        "crop_dmg": "0",
        "begin": "01/10/2013",
        "county": "LOWER SNAKE RIVER PLAIN ",
        "state": "ID"
      }
    ],
    "Winter_Weather": []
  },
  "007": {
    "name": "Bear Lake County",
    "fips": "ID",
    "pop10": "5986",
    "lat": 42.285833,
    "lon": -111.327445,
    "geoid": "16007",
    "deaths": 0,
    "prop_dmg": "502k",
    "crop_dmg": 0,
    "inj": 0,
    "all": 2,
    "eq": [],
    "Hurricane____Typhoon___": [],
    "Cold__FWind_Chill": [],
    "Coastal_Flood": [],
    "Avalanche": [],
    "Astronomical_Low_Tide": [],
    "Dense_Fog": [],
    "Drought": [],
    "Dust_Devil": [],
    "Dust_Storm": [],
    "Excessive_Heat": [],
    "Extreme_Cold__FWind_Chill": [],
    "Flash_Flood": [],
    "Flood": [
      {
        "type": "Flood",
        "time": "1",
        "inj": "0",
        "deaths": "0",
        "prop_dmg": "2.00k",
        "crop_dmg": "0",
        "begin": "07/01/2011",
        "county": "BEAR LAKE CO.",
        "state": "ID"
      }
    ],
    "Freezing_Fog": [],
    "Funnel_Cloud": [],
    "Hail": [],
    "Heat": [],
    "Heavy_Rain": [],
    "Heavy_Snow": [],
    "High_Surf": [],
    "High_Wind": [],
    "Ice_Storm": [],
    "Lakeshore_Flood": [],
    "Landslide": [],
    "Lightning": [],
    "Rip_Current": [],
    "Seiche": [],
    "Sleet": [],
    "Storm_Surge__FTide": [],
    "Strong_Wind": [],
    "Thunderstorm_Wind": [],
    "Tornado": [],
    "Tropical_Depression": [],
    "Tropical_Storm": [],
    "Tsunami": [],
    "Volcanic_Ashfall": [],
    "Waterspout": [],
    "Wildfire": [
      {
        "type": "Wildfire",
        "time": "1300",
        "inj": "0",
        "deaths": "0",
        "prop_dmg": "500k",
        "crop_dmg": "0",
        "begin": "08/28/2012",
        "county": "WASATCH MOUNTAINS/IADHO PORTION ",
        "state": "ID"
      }
    ],
    "Winter_Storm": [],
    "Winter_Weather": []
  },
  "009": {
    "name": "Benewah County",
    "fips": "ID",
    "pop10": "9285",
    "lat": 47.218451,
    "lon": -116.633541,
    "geoid": "16009",
    "deaths": 0,
    "prop_dmg": "1.05M",
    "crop_dmg": 0,
    "inj": 0,
    "all": 8,
    "eq": [],
    "Hurricane____Typhoon___": [],
    "Cold__FWind_Chill": [],
    "Coastal_Flood": [],
    "Avalanche": [],
    "Astronomical_Low_Tide": [],
    "Dense_Fog": [],
    "Drought": [],
    "Dust_Devil": [],
    "Dust_Storm": [],
    "Excessive_Heat": [],
    "Extreme_Cold__FWind_Chill": [],
    "Flash_Flood": [
      {
        "type": "Flash+Flood",
        "time": "30",
        "inj": "0",
        "deaths": "0",
        "prop_dmg": "250k",
        "crop_dmg": "0",
        "begin": "02/24/1999",
        "county": "BENEWAH CO.",
        "state": "ID"
      }
    ],
    "Flood": [
      {
        "type": "Flood",
        "time": "600",
        "inj": "0",
        "deaths": "0",
        "prop_dmg": "15.0k",
        "crop_dmg": "0",
        "begin": "01/17/2011",
        "county": "BENEWAH CO.",
        "state": "ID"
      },
      {
        "type": "Flood",
        "time": "1000",
        "inj": "0",
        "deaths": "0",
        "prop_dmg": "200k",
        "crop_dmg": "0",
        "begin": "03/15/2012",
        "county": "BENEWAH CO.",
        "state": "ID"
      },
      {
        "type": "Flood",
        "time": "0",
        "inj": "0",
        "deaths": "0",
        "prop_dmg": "23.0k",
        "crop_dmg": "0",
        "begin": "03/30/2012",
        "county": "BENEWAH CO.",
        "state": "ID"
      },
      {
        "type": "Flood",
        "time": "1645",
        "inj": "0",
        "deaths": "0",
        "prop_dmg": "20.0k",
        "crop_dmg": "0",
        "begin": "04/22/2012",
        "county": "BENEWAH CO.",
        "state": "ID"
      },
      {
        "type": "Flood",
        "time": "900",
        "inj": "0",
        "deaths": "0",
        "prop_dmg": "500k",
        "crop_dmg": "0",
        "begin": "03/05/2014",
        "county": "BENEWAH CO.",
        "state": "ID"
      }
    ],
    "Freezing_Fog": [],
    "Funnel_Cloud": [],
    "Hail": [],
    "Heat": [],
    "Heavy_Rain": [],
    "Heavy_Snow": [],
    "High_Surf": [],
    "High_Wind": [],
    "Ice_Storm": [],
    "Lakeshore_Flood": [],
    "Landslide": [],
    "Lightning": [],
    "Rip_Current": [],
    "Seiche": [],
    "Sleet": [],
    "Storm_Surge__FTide": [],
    "Strong_Wind": [],
    "Thunderstorm_Wind": [],
    "Tornado": [],
    "Tropical_Depression": [],
    "Tropical_Storm": [],
    "Tsunami": [],
    "Volcanic_Ashfall": [],
    "Waterspout": [],
    "Wildfire": [
      {
        "type": "Wildfire",
        "time": "1710",
        "inj": "0",
        "deaths": "0",
        "prop_dmg": "20.0k",
        "crop_dmg": "0",
        "begin": "07/02/1998",
        "county": "BENEWAH CO.",
        "state": "ID"
      },
      {
        "type": "Wildfire",
        "time": "330",
        "inj": "0",
        "deaths": "0",
        "prop_dmg": "25.0k",
        "crop_dmg": "0",
        "begin": "08/19/1998",
        "county": "BENEWAH CO.",
        "state": "ID"
      }
    ],
    "Winter_Storm": [],
    "Winter_Weather": []
  },
  "011": {
    "name": "Bingham County",
    "fips": "ID",
    "pop10": "45607",
    "lat": 43.216357,
    "lon": -112.399206,
    "geoid": "16011",
    "deaths": 0,
    "prop_dmg": "94.5k",
    "crop_dmg": "4.12M",
    "inj": 0,
    "all": 7,
    "eq": [],
    "Hurricane____Typhoon___": [],
    "Cold__FWind_Chill": [],
    "Coastal_Flood": [],
    "Avalanche": [],
    "Astronomical_Low_Tide": [],
    "Dense_Fog": [],
    "Drought": [],
    "Dust_Devil": [],
    "Dust_Storm": [],
    "Excessive_Heat": [],
    "Extreme_Cold__FWind_Chill": [],
    "Flash_Flood": [
      {
        "type": "Flash+Flood",
        "time": "1000",
        "inj": "0",
        "deaths": "0",
        "prop_dmg": "15.0k",
        "crop_dmg": "0",
        "begin": "02/28/2006",
        "county": "BINGHAM CO.",
        "state": "ID"
      }
    ],
    "Flood": [
      {
        "type": "Flood",
        "time": "1",
        "inj": "0",
        "deaths": "0",
        "prop_dmg": "5.00k",
        "crop_dmg": "0",
        "begin": "06/01/2011",
        "county": "BINGHAM CO.",
        "state": "ID"
      }
    ],
    "Freezing_Fog": [],
    "Funnel_Cloud": [],
    "Hail": [],
    "Heat": [],
    "Heavy_Rain": [
      {
        "type": "Heavy+Rain",
        "time": "1",
        "inj": "0",
        "deaths": "0",
        "prop_dmg": "0",
        "crop_dmg": "4.00M",
        "begin": "08/01/2014",
        "county": "BINGHAM CO.",
        "state": "ID"
      }
    ],
    "Heavy_Snow": [],
    "High_Surf": [],
    "High_Wind": [],
    "Ice_Storm": [],
    "Lakeshore_Flood": [],
    "Landslide": [],
    "Lightning": [
      {
        "type": "Lightning",
        "time": "1800",
        "inj": "0",
        "deaths": "0",
        "prop_dmg": "500",
        "crop_dmg": "0",
        "begin": "08/22/2003",
        "county": "BINGHAM CO.",
        "state": "ID"
      },
      {
        "type": "Lightning",
        "time": "1829",
        "inj": "0",
        "deaths": "0",
        "prop_dmg": "4.00k",
        "crop_dmg": "0",
        "begin": "06/29/2010",
        "county": "BINGHAM CO.",
        "state": "ID"
      },
      {
        "type": "Lightning",
        "time": "1300",
        "inj": "0",
        "deaths": "0",
        "prop_dmg": "20.0k",
        "crop_dmg": "0",
        "begin": "06/12/2013",
        "county": "BINGHAM CO.",
        "state": "ID"
      }
    ],
    "Rip_Current": [],
    "Seiche": [],
    "Sleet": [],
    "Storm_Surge__FTide": [],
    "Strong_Wind": [],
    "Thunderstorm_Wind": [],
    "Tornado": [],
    "Tropical_Depression": [],
    "Tropical_Storm": [],
    "Tsunami": [],
    "Volcanic_Ashfall": [],
    "Waterspout": [],
    "Wildfire": [
      {
        "type": "Wildfire",
        "time": "1400",
        "inj": "0",
        "deaths": "0",
        "prop_dmg": "50.0k",
        "crop_dmg": "120k",
        "begin": "07/26/2000",
        "county": "BINGHAM CO.",
        "state": "ID"
      }
    ],
    "Winter_Storm": [],
    "Winter_Weather": []
  },
  "013": {
    "name": "Blaine County",
    "fips": "ID",
    "pop10": "21376",
    "lat": 43.394482,
    "lon": -113.95529,
    "geoid": "16013",
    "deaths": 4,
    "prop_dmg": "1.02M",
    "crop_dmg": "4.50M",
    "inj": 0,
    "all": 10,
    "eq": [],
    "Hurricane____Typhoon___": [],
    "Cold__FWind_Chill": [],
    "Coastal_Flood": [],
    "Avalanche": [
      {
        "type": "Avalanche",
        "time": "1645",
        "inj": "0",
        "deaths": "1",
        "prop_dmg": "0",
        "crop_dmg": "0",
        "begin": "02/28/2004",
        "county": "BIG AND LITTLE WOOD RIVER REGION ",
        "state": "ID"
      },
      {
        "type": "Avalanche",
        "time": "1100",
        "inj": "0",
        "deaths": "0",
        "prop_dmg": "10.0k",
        "crop_dmg": "0",
        "begin": "01/05/2008",
        "county": "BIG AND LITTLE WOOD RIVER REGION ",
        "state": "ID"
      },
      {
        "type": "Avalanche",
        "time": "1420",
        "inj": "0",
        "deaths": "1",
        "prop_dmg": "0",
        "crop_dmg": "0",
        "begin": "01/22/2010",
        "county": "BIG AND LITTLE WOOD RIVER REGION ",
        "state": "ID"
      },
      {
        "type": "Avalanche",
        "time": "1400",
        "inj": "0",
        "deaths": "1",
        "prop_dmg": "0",
        "crop_dmg": "0",
        "begin": "02/16/2014",
        "county": "BIG AND LITTLE WOOD RIVER REGION ",
        "state": "ID"
      }
    ],
    "Astronomical_Low_Tide": [],
    "Dense_Fog": [],
    "Drought": [],
    "Dust_Devil": [],
    "Dust_Storm": [],
    "Excessive_Heat": [],
    "Extreme_Cold__FWind_Chill": [],
    "Flash_Flood": [],
    "Flood": [],
    "Freezing_Fog": [],
    "Funnel_Cloud": [],
    "Hail": [],
    "Heat": [],
    "Heavy_Rain": [
      {
        "type": "Heavy+Rain",
        "time": "1",
        "inj": "0",
        "deaths": "0",
        "prop_dmg": "0",
        "crop_dmg": "4.50M",
        "begin": "08/01/2014",
        "county": "BLAINE CO.",
        "state": "ID"
      }
    ],
    "Heavy_Snow": [
      {
        "type": "Heavy+Snow",
        "time": "100",
        "inj": "0",
        "deaths": "0",
        "prop_dmg": "4.00k",
        "crop_dmg": "0",
        "begin": "10/04/2009",
        "county": "BIG AND LITTLE WOOD RIVER REGION ",
        "state": "ID"
      }
    ],
    "High_Surf": [],
    "High_Wind": [],
    "Ice_Storm": [],
    "Lakeshore_Flood": [],
    "Landslide": [],
    "Lightning": [
      {
        "type": "Lightning",
        "time": "1635",
        "inj": "0",
        "deaths": "0",
        "prop_dmg": "1.00k",
        "crop_dmg": "0",
        "begin": "08/12/2014",
        "county": "BLAINE CO.",
        "state": "ID"
      }
    ],
    "Rip_Current": [],
    "Seiche": [],
    "Sleet": [],
    "Storm_Surge__FTide": [],
    "Strong_Wind": [],
    "Thunderstorm_Wind": [],
    "Tornado": [],
    "Tropical_Depression": [],
    "Tropical_Storm": [],
    "Tsunami": [],
    "Volcanic_Ashfall": [],
    "Waterspout": [],
    "Wildfire": [
      {
        "type": "Wildfire",
        "time": "1400",
        "inj": "0",
        "deaths": "0",
        "prop_dmg": "1.00M",
        "crop_dmg": "0",
        "begin": "08/09/2013",
        "county": "BIG AND LITTLE WOOD RIVER REGION ",
        "state": "ID"
      },
      {
        "type": "Wildfire",
        "time": "700",
        "inj": "0",
        "deaths": "0",
        "prop_dmg": "2.00k",
        "crop_dmg": "0",
        "begin": "06/13/2014",
        "county": "BIG AND LITTLE WOOD RIVER REGION ",
        "state": "ID"
      }
    ],
    "Winter_Storm": [
      {
        "type": "Winter+Storm",
        "time": "500",
        "inj": "0",
        "deaths": "1",
        "prop_dmg": "0",
        "crop_dmg": "0",
        "begin": "01/21/2002",
        "county": "BIG AND LITTLE WOOD RIVER REGION ",
        "state": "ID"
      }
    ],
    "Winter_Weather": []
  },
  "015": {
    "name": "Boise County",
    "fips": "ID",
    "pop10": "7028",
    "lat": 43.987275,
    "lon": -115.71511,
    "geoid": "16015",
    "deaths": 0,
    "prop_dmg": 0,
    "crop_dmg": 0,
    "inj": 0,
    "all": 0,
    "eq": [],
    "Hurricane____Typhoon___": [],
    "Cold__FWind_Chill": [],
    "Coastal_Flood": [],
    "Avalanche": [],
    "Astronomical_Low_Tide": [],
    "Dense_Fog": [],
    "Drought": [],
    "Dust_Devil": [],
    "Dust_Storm": [],
    "Excessive_Heat": [],
    "Extreme_Cold__FWind_Chill": [],
    "Flash_Flood": [],
    "Flood": [],
    "Freezing_Fog": [],
    "Funnel_Cloud": [],
    "Hail": [],
    "Heat": [],
    "Heavy_Rain": [],
    "Heavy_Snow": [],
    "High_Surf": [],
    "High_Wind": [],
    "Ice_Storm": [],
    "Lakeshore_Flood": [],
    "Landslide": [],
    "Lightning": [],
    "Rip_Current": [],
    "Seiche": [],
    "Sleet": [],
    "Storm_Surge__FTide": [],
    "Strong_Wind": [],
    "Thunderstorm_Wind": [],
    "Tornado": [],
    "Tropical_Depression": [],
    "Tropical_Storm": [],
    "Tsunami": [],
    "Volcanic_Ashfall": [],
    "Waterspout": [],
    "Wildfire": [],
    "Winter_Storm": [],
    "Winter_Weather": []
  },
  "017": {
    "name": "Bonner County",
    "fips": "ID",
    "pop10": "40877",
    "lat": 48.312512,
    "lon": -116.59694,
    "geoid": "16017",
    "deaths": 3,
    "prop_dmg": "5.18M",
    "crop_dmg": 0,
    "inj": 5,
    "all": 15,
    "eq": [],
    "Hurricane____Typhoon___": [],
    "Cold__FWind_Chill": [
      {
        "type": "Cold%2FWind+Chill",
        "time": "742",
        "inj": "0",
        "deaths": "0",
        "prop_dmg": "50.0k",
        "crop_dmg": "0",
        "begin": "01/11/1998",
        "county": "BOUNDARY/BONNER/ X N KOOTENAI ",
        "state": "ID"
      }
    ],
    "Coastal_Flood": [],
    "Avalanche": [
      {
        "type": "Avalanche",
        "time": "1130",
        "inj": "3",
        "deaths": "2",
        "prop_dmg": "0",
        "crop_dmg": "0",
        "begin": "02/22/2003",
        "county": "NORTHERN PANHANDLE ",
        "state": "ID"
      },
      {
        "type": "Avalanche",
        "time": "1000",
        "inj": "0",
        "deaths": "1",
        "prop_dmg": "0",
        "crop_dmg": "0",
        "begin": "03/10/2004",
        "county": "BOUNDARY/BONNER/ X NW KOOTENAI ",
        "state": "ID"
      }
    ],
    "Astronomical_Low_Tide": [],
    "Dense_Fog": [],
    "Drought": [],
    "Dust_Devil": [],
    "Dust_Storm": [],
    "Excessive_Heat": [],
    "Extreme_Cold__FWind_Chill": [],
    "Flash_Flood": [],
    "Flood": [
      {
        "type": "Flood",
        "time": "0",
        "inj": "0",
        "deaths": "0",
        "prop_dmg": "4.00M",
        "crop_dmg": "0",
        "begin": "06/01/1997",
        "county": "NORTHERN PANHANDLE ",
        "state": "ID"
      },
      {
        "type": "Flood",
        "time": "0",
        "inj": "0",
        "deaths": "0",
        "prop_dmg": "20.0k",
        "crop_dmg": "0",
        "begin": "06/17/2011",
        "county": "BONNER CO.",
        "state": "ID"
      },
      {
        "type": "Flood",
        "time": "0",
        "inj": "0",
        "deaths": "0",
        "prop_dmg": "20.0k",
        "crop_dmg": "0",
        "begin": "07/01/2011",
        "county": "BONNER CO.",
        "state": "ID"
      },
      {
        "type": "Flood",
        "time": "500",
        "inj": "0",
        "deaths": "0",
        "prop_dmg": "72.0k",
        "crop_dmg": "0",
        "begin": "03/30/2012",
        "county": "BONNER CO.",
        "state": "ID"
      },
      {
        "type": "Flood",
        "time": "1600",
        "inj": "0",
        "deaths": "0",
        "prop_dmg": "550k",
        "crop_dmg": "0",
        "begin": "03/30/2012",
        "county": "BONNER CO.",
        "state": "ID"
      },
      {
        "type": "Flood",
        "time": "835",
        "inj": "0",
        "deaths": "0",
        "prop_dmg": "70.0k",
        "crop_dmg": "0",
        "begin": "03/31/2012",
        "county": "BONNER CO.",
        "state": "ID"
      },
      {
        "type": "Flood",
        "time": "930",
        "inj": "0",
        "deaths": "0",
        "prop_dmg": "15.0k",
        "crop_dmg": "0",
        "begin": "06/06/2012",
        "county": "BONNER CO.",
        "state": "ID"
      },
      {
        "type": "Flood",
        "time": "300",
        "inj": "0",
        "deaths": "0",
        "prop_dmg": "25.0k",
        "crop_dmg": "0",
        "begin": "03/09/2014",
        "county": "BONNER CO.",
        "state": "ID"
      }
    ],
    "Freezing_Fog": [],
    "Funnel_Cloud": [],
    "Hail": [],
    "Heat": [],
    "Heavy_Rain": [],
    "Heavy_Snow": [],
    "High_Surf": [],
    "High_Wind": [],
    "Ice_Storm": [],
    "Lakeshore_Flood": [],
    "Landslide": [],
    "Lightning": [
      {
        "type": "Lightning",
        "time": "900",
        "inj": "2",
        "deaths": "0",
        "prop_dmg": "0",
        "crop_dmg": "0",
        "begin": "06/29/2013",
        "county": "BONNER CO.",
        "state": "ID"
      }
    ],
    "Rip_Current": [],
    "Seiche": [],
    "Sleet": [],
    "Storm_Surge__FTide": [],
    "Strong_Wind": [],
    "Thunderstorm_Wind": [],
    "Tornado": [
      {
        "type": "Tornado",
        "time": "1715",
        "inj": "0",
        "deaths": "0",
        "prop_dmg": "250k",
        "crop_dmg": "0",
        "begin": "04/09/1991",
        "county": "BONNER CO.",
        "state": "ID"
      }
    ],
    "Tropical_Depression": [],
    "Tropical_Storm": [],
    "Tsunami": [],
    "Volcanic_Ashfall": [],
    "Waterspout": [],
    "Wildfire": [
      {
        "type": "Wildfire",
        "time": "200",
        "inj": "0",
        "deaths": "0",
        "prop_dmg": "5.00k",
        "crop_dmg": "0",
        "begin": "08/19/1998",
        "county": "BONNER CO.",
        "state": "ID"
      }
    ],
    "Winter_Storm": [
      {
        "type": "Winter+Storm",
        "time": "0",
        "inj": "0",
        "deaths": "0",
        "prop_dmg": "100k",
        "crop_dmg": "0",
        "begin": "12/01/2001",
        "county": "BOUNDARY/BONNER/ X NW KOOTENAI ",
        "state": "ID"
      }
    ],
    "Winter_Weather": []
  },
  "019": {
    "name": "Bonneville County",
    "fips": "ID",
    "pop10": "104234",
    "lat": 43.395171,
    "lon": -111.621878,
    "geoid": "16019",
    "deaths": 3,
    "prop_dmg": "2.84M",
    "crop_dmg": "6.00M",
    "inj": 12,
    "all": 17,
    "eq": [],
    "Hurricane____Typhoon___": [],
    "Cold__FWind_Chill": [],
    "Coastal_Flood": [],
    "Avalanche": [],
    "Astronomical_Low_Tide": [],
    "Dense_Fog": [],
    "Drought": [],
    "Dust_Devil": [],
    "Dust_Storm": [
      {
        "type": "Dust+Storm",
        "time": "1400",
        "inj": "8",
        "deaths": "0",
        "prop_dmg": "0",
        "crop_dmg": "0",
        "begin": "04/20/1997",
        "county": "JEFFERSON/MADISON/W BONNEVILLE/N BINGHAM/SE BUTTE ",
        "state": "ID"
      },
      {
        "type": "Dust+Storm",
        "time": "1600",
        "inj": "3",
        "deaths": "0",
        "prop_dmg": "0",
        "crop_dmg": "0",
        "begin": "08/16/2007",
        "county": "UPPER SNAKE RIVER PLAIN ",
        "state": "ID"
      },
      {
        "type": "Dust+Storm",
        "time": "1100",
        "inj": "0",
        "deaths": "0",
        "prop_dmg": "5.00k",
        "crop_dmg": "0",
        "begin": "11/25/2011",
        "county": "UPPER SNAKE RIVER PLAIN ",
        "state": "ID"
      },
      {
        "type": "Dust+Storm",
        "time": "1200",
        "inj": "0",
        "deaths": "0",
        "prop_dmg": "20.0k",
        "crop_dmg": "0",
        "begin": "11/29/2014",
        "county": "UPPER SNAKE RIVER PLAIN ",
        "state": "ID"
      }
    ],
    "Excessive_Heat": [],
    "Extreme_Cold__FWind_Chill": [],
    "Flash_Flood": [],
    "Flood": [
      {
        "type": "Flood",
        "time": "1300",
        "inj": "0",
        "deaths": "0",
        "prop_dmg": "40.0k",
        "crop_dmg": "0",
        "begin": "02/22/2012",
        "county": "BONNEVILLE CO.",
        "state": "ID"
      }
    ],
    "Freezing_Fog": [],
    "Funnel_Cloud": [],
    "Hail": [],
    "Heat": [
      {
        "type": "Heat",
        "time": "1400",
        "inj": "0",
        "deaths": "1",
        "prop_dmg": "0",
        "crop_dmg": "0",
        "begin": "06/18/2013",
        "county": "UPPER SNAKE RIVER PLAIN ",
        "state": "ID"
      }
    ],
    "Heavy_Rain": [
      {
        "type": "Heavy+Rain",
        "time": "1",
        "inj": "0",
        "deaths": "0",
        "prop_dmg": "0",
        "crop_dmg": "6.00M",
        "begin": "08/01/2014",
        "county": "BONNEVILLE CO.",
        "state": "ID"
      }
    ],
    "Heavy_Snow": [
      {
        "type": "Heavy+Snow",
        "time": "700",
        "inj": "0",
        "deaths": "2",
        "prop_dmg": "0",
        "crop_dmg": "0",
        "begin": "11/27/2004",
        "county": "UPPER SNAKE RIVER PLAIN ",
        "state": "ID"
      },
      {
        "type": "Heavy+Snow",
        "time": "700",
        "inj": "0",
        "deaths": "0",
        "prop_dmg": "75.0k",
        "crop_dmg": "0",
        "begin": "10/06/2007",
        "county": "UPPER SNAKE RIVER PLAIN ",
        "state": "ID"
      },
      {
        "type": "Heavy+Snow",
        "time": "800",
        "inj": "0",
        "deaths": "0",
        "prop_dmg": "140k",
        "crop_dmg": "0",
        "begin": "01/18/2011",
        "county": "UPPER SNAKE RIVER PLAIN ",
        "state": "ID"
      },
      {
        "type": "Heavy+Snow",
        "time": "600",
        "inj": "0",
        "deaths": "0",
        "prop_dmg": "3.00k",
        "crop_dmg": "0",
        "begin": "10/06/2011",
        "county": "UPPER SNAKE RIVER PLAIN ",
        "state": "ID"
      },
      {
        "type": "Heavy+Snow",
        "time": "1000",
        "inj": "0",
        "deaths": "0",
        "prop_dmg": "10.0k",
        "crop_dmg": "0",
        "begin": "11/13/2014",
        "county": "UPPER SNAKE RIVER PLAIN ",
        "state": "ID"
      }
    ],
    "High_Surf": [],
    "High_Wind": [],
    "Ice_Storm": [],
    "Lakeshore_Flood": [],
    "Landslide": [],
    "Lightning": [
      {
        "type": "Lightning",
        "time": "1930",
        "inj": "0",
        "deaths": "0",
        "prop_dmg": "5.00k",
        "crop_dmg": "0",
        "begin": "06/28/2004",
        "county": "BONNEVILLE CO.",
        "state": "ID"
      },
      {
        "type": "Lightning",
        "time": "1800",
        "inj": "0",
        "deaths": "0",
        "prop_dmg": "13.0k",
        "crop_dmg": "0",
        "begin": "06/05/2009",
        "county": "BONNEVILLE CO.",
        "state": "ID"
      }
    ],
    "Rip_Current": [],
    "Seiche": [],
    "Sleet": [],
    "Storm_Surge__FTide": [],
    "Strong_Wind": [],
    "Thunderstorm_Wind": [],
    "Tornado": [
      {
        "type": "Tornado",
        "time": "1520",
        "inj": "1",
        "deaths": "0",
        "prop_dmg": "2.50M",
        "crop_dmg": "0",
        "begin": "04/07/1978",
        "county": "BONNEVILLE CO.",
        "state": "ID"
      }
    ],
    "Tropical_Depression": [],
    "Tropical_Storm": [],
    "Tsunami": [],
    "Volcanic_Ashfall": [],
    "Waterspout": [],
    "Wildfire": [
      {
        "type": "Wildfire",
        "time": "1200",
        "inj": "0",
        "deaths": "0",
        "prop_dmg": "4.00k",
        "crop_dmg": "0",
        "begin": "07/14/2010",
        "county": "UPPER SNAKE RIVER PLAIN ",
        "state": "ID"
      },
      {
        "type": "Wildfire",
        "time": "1300",
        "inj": "0",
        "deaths": "0",
        "prop_dmg": "20.0k",
        "crop_dmg": "0",
        "begin": "06/25/2012",
        "county": "UPPER SNAKE RIVER PLAIN ",
        "state": "ID"
      }
    ],
    "Winter_Storm": [],
    "Winter_Weather": []
  },
  "021": {
    "name": "Boundary County",
    "fips": "ID",
    "pop10": "10972",
    "lat": 48.773065,
    "lon": -116.524619,
    "geoid": "16021",
    "deaths": 0,
    "prop_dmg": "80.0k",
    "crop_dmg": "4.00M",
    "inj": 0,
    "all": 4,
    "eq": [],
    "Hurricane____Typhoon___": [],
    "Cold__FWind_Chill": [],
    "Coastal_Flood": [],
    "Avalanche": [],
    "Astronomical_Low_Tide": [],
    "Dense_Fog": [],
    "Drought": [],
    "Dust_Devil": [],
    "Dust_Storm": [],
    "Excessive_Heat": [],
    "Extreme_Cold__FWind_Chill": [],
    "Flash_Flood": [],
    "Flood": [
      {
        "type": "Flood",
        "time": "1000",
        "inj": "0",
        "deaths": "0",
        "prop_dmg": "50.0k",
        "crop_dmg": "0",
        "begin": "03/15/2012",
        "county": "BOUNDARY CO.",
        "state": "ID"
      },
      {
        "type": "Flood",
        "time": "0",
        "inj": "0",
        "deaths": "0",
        "prop_dmg": "0",
        "crop_dmg": "4.00M",
        "begin": "07/01/2012",
        "county": "BOUNDARY CO.",
        "state": "ID"
      },
      {
        "type": "Flood",
        "time": "600",
        "inj": "0",
        "deaths": "0",
        "prop_dmg": "5.00k",
        "crop_dmg": "0",
        "begin": "01/11/2014",
        "county": "BOUNDARY CO.",
        "state": "ID"
      },
      {
        "type": "Flood",
        "time": "900",
        "inj": "0",
        "deaths": "0",
        "prop_dmg": "25.0k",
        "crop_dmg": "0",
        "begin": "03/05/2014",
        "county": "BOUNDARY CO.",
        "state": "ID"
      }
    ],
    "Freezing_Fog": [],
    "Funnel_Cloud": [],
    "Hail": [],
    "Heat": [],
    "Heavy_Rain": [],
    "Heavy_Snow": [],
    "High_Surf": [],
    "High_Wind": [],
    "Ice_Storm": [],
    "Lakeshore_Flood": [],
    "Landslide": [],
    "Lightning": [],
    "Rip_Current": [],
    "Seiche": [],
    "Sleet": [],
    "Storm_Surge__FTide": [],
    "Strong_Wind": [],
    "Thunderstorm_Wind": [],
    "Tornado": [],
    "Tropical_Depression": [],
    "Tropical_Storm": [],
    "Tsunami": [],
    "Volcanic_Ashfall": [],
    "Waterspout": [],
    "Wildfire": [],
    "Winter_Storm": [],
    "Winter_Weather": []
  },
  "023": {
    "name": "Butte County",
    "fips": "ID",
    "pop10": "2891",
    "lat": 43.6851,
    "lon": -113.177627,
    "geoid": "16023",
    "deaths": 0,
    "prop_dmg": 0,
    "crop_dmg": "3.00M",
    "inj": 0,
    "all": 1,
    "eq": [],
    "Hurricane____Typhoon___": [],
    "Cold__FWind_Chill": [],
    "Coastal_Flood": [],
    "Avalanche": [],
    "Astronomical_Low_Tide": [],
    "Dense_Fog": [],
    "Drought": [],
    "Dust_Devil": [],
    "Dust_Storm": [],
    "Excessive_Heat": [],
    "Extreme_Cold__FWind_Chill": [],
    "Flash_Flood": [],
    "Flood": [],
    "Freezing_Fog": [],
    "Funnel_Cloud": [],
    "Hail": [],
    "Heat": [],
    "Heavy_Rain": [
      {
        "type": "Heavy+Rain",
        "time": "1",
        "inj": "0",
        "deaths": "0",
        "prop_dmg": "0",
        "crop_dmg": "3.00M",
        "begin": "08/01/2014",
        "county": "BUTTE CO.",
        "state": "ID"
      }
    ],
    "Heavy_Snow": [],
    "High_Surf": [],
    "High_Wind": [],
    "Ice_Storm": [],
    "Lakeshore_Flood": [],
    "Landslide": [],
    "Lightning": [],
    "Rip_Current": [],
    "Seiche": [],
    "Sleet": [],
    "Storm_Surge__FTide": [],
    "Strong_Wind": [],
    "Thunderstorm_Wind": [],
    "Tornado": [],
    "Tropical_Depression": [],
    "Tropical_Storm": [],
    "Tsunami": [],
    "Volcanic_Ashfall": [],
    "Waterspout": [],
    "Wildfire": [],
    "Winter_Storm": [],
    "Winter_Weather": []
  },
  "025": {
    "name": "Camas County",
    "fips": "ID",
    "pop10": "1117",
    "lat": 43.463396,
    "lon": -114.804427,
    "geoid": "16025",
    "deaths": 2,
    "prop_dmg": 0,
    "crop_dmg": 0,
    "inj": 2,
    "all": 1,
    "eq": [],
    "Hurricane____Typhoon___": [],
    "Cold__FWind_Chill": [],
    "Coastal_Flood": [],
    "Avalanche": [
      {
        "type": "Avalanche",
        "time": "100",
        "inj": "2",
        "deaths": "2",
        "prop_dmg": "0",
        "crop_dmg": "0",
        "begin": "01/02/2004",
        "county": "CAMAS PRAIRIE ",
        "state": "ID"
      }
    ],
    "Astronomical_Low_Tide": [],
    "Dense_Fog": [],
    "Drought": [],
    "Dust_Devil": [],
    "Dust_Storm": [],
    "Excessive_Heat": [],
    "Extreme_Cold__FWind_Chill": [],
    "Flash_Flood": [],
    "Flood": [],
    "Freezing_Fog": [],
    "Funnel_Cloud": [],
    "Hail": [],
    "Heat": [],
    "Heavy_Rain": [],
    "Heavy_Snow": [],
    "High_Surf": [],
    "High_Wind": [],
    "Ice_Storm": [],
    "Lakeshore_Flood": [],
    "Landslide": [],
    "Lightning": [],
    "Rip_Current": [],
    "Seiche": [],
    "Sleet": [],
    "Storm_Surge__FTide": [],
    "Strong_Wind": [],
    "Thunderstorm_Wind": [],
    "Tornado": [],
    "Tropical_Depression": [],
    "Tropical_Storm": [],
    "Tsunami": [],
    "Volcanic_Ashfall": [],
    "Waterspout": [],
    "Wildfire": [],
    "Winter_Storm": [],
    "Winter_Weather": []
  },
  "027": {
    "name": "Canyon County",
    "fips": "ID",
    "pop10": "188923",
    "lat": 43.623051,
    "lon": -116.708527,
    "geoid": "16027",
    "deaths": 2,
    "prop_dmg": "15.0k",
    "crop_dmg": 0,
    "inj": 7,
    "all": 5,
    "eq": [],
    "Hurricane____Typhoon___": [],
    "Cold__FWind_Chill": [],
    "Coastal_Flood": [],
    "Avalanche": [],
    "Astronomical_Low_Tide": [],
    "Dense_Fog": [],
    "Drought": [],
    "Dust_Devil": [],
    "Dust_Storm": [],
    "Excessive_Heat": [],
    "Extreme_Cold__FWind_Chill": [],
    "Flash_Flood": [],
    "Flood": [],
    "Freezing_Fog": [],
    "Funnel_Cloud": [],
    "Hail": [],
    "Heat": [],
    "Heavy_Rain": [],
    "Heavy_Snow": [
      {
        "type": "Heavy+Snow",
        "time": "1800",
        "inj": "4",
        "deaths": "0",
        "prop_dmg": "0",
        "crop_dmg": "0",
        "begin": "11/28/2001",
        "county": "LOWER TREASURE VALLEY ",
        "state": "ID"
      }
    ],
    "High_Surf": [],
    "High_Wind": [],
    "Ice_Storm": [],
    "Lakeshore_Flood": [],
    "Landslide": [],
    "Lightning": [
      {
        "type": "Lightning",
        "time": "1900",
        "inj": "0",
        "deaths": "0",
        "prop_dmg": "15.0k",
        "crop_dmg": "0",
        "begin": "05/14/1996",
        "county": "CANYON CO.",
        "state": "ID"
      },
      {
        "type": "Lightning",
        "time": "1930",
        "inj": "0",
        "deaths": "1",
        "prop_dmg": "0",
        "crop_dmg": "0",
        "begin": "06/30/1997",
        "county": "CANYON CO.",
        "state": "ID"
      },
      {
        "type": "Lightning",
        "time": "1045",
        "inj": "2",
        "deaths": "1",
        "prop_dmg": "0",
        "crop_dmg": "0",
        "begin": "07/07/2002",
        "county": "CANYON CO.",
        "state": "ID"
      }
    ],
    "Rip_Current": [],
    "Seiche": [],
    "Sleet": [],
    "Storm_Surge__FTide": [],
    "Strong_Wind": [],
    "Thunderstorm_Wind": [],
    "Tornado": [],
    "Tropical_Depression": [],
    "Tropical_Storm": [],
    "Tsunami": [],
    "Volcanic_Ashfall": [],
    "Waterspout": [],
    "Wildfire": [
      {
        "type": "Wildfire",
        "time": "1300",
        "inj": "1",
        "deaths": "0",
        "prop_dmg": "0",
        "crop_dmg": "0",
        "begin": "06/24/2001",
        "county": "CANYON CO.",
        "state": "ID"
      }
    ],
    "Winter_Storm": [],
    "Winter_Weather": []
  },
  "029": {
    "name": "Caribou County",
    "fips": "ID",
    "pop10": "6963",
    "lat": 42.786273,
    "lon": -111.544171,
    "geoid": "16029",
    "deaths": 1,
    "prop_dmg": "20.3M",
    "crop_dmg": "3.00M",
    "inj": 0,
    "all": 8,
    "eq": [],
    "Hurricane____Typhoon___": [],
    "Cold__FWind_Chill": [],
    "Coastal_Flood": [],
    "Avalanche": [
      {
        "type": "Avalanche",
        "time": "1300",
        "inj": "0",
        "deaths": "1",
        "prop_dmg": "0",
        "crop_dmg": "0",
        "begin": "02/17/2007",
        "county": "CARIBOU HIGHLANDS ",
        "state": "ID"
      }
    ],
    "Astronomical_Low_Tide": [],
    "Dense_Fog": [],
    "Drought": [],
    "Dust_Devil": [],
    "Dust_Storm": [],
    "Excessive_Heat": [],
    "Extreme_Cold__FWind_Chill": [],
    "Flash_Flood": [],
    "Flood": [
      {
        "type": "Flood",
        "time": "1200",
        "inj": "0",
        "deaths": "0",
        "prop_dmg": "3.00k",
        "crop_dmg": "0",
        "begin": "02/22/2012",
        "county": "CARIBOU CO.",
        "state": "ID"
      }
    ],
    "Freezing_Fog": [],
    "Funnel_Cloud": [],
    "Hail": [],
    "Heat": [],
    "Heavy_Rain": [
      {
        "type": "Heavy+Rain",
        "time": "1",
        "inj": "0",
        "deaths": "0",
        "prop_dmg": "0",
        "crop_dmg": "3.00M",
        "begin": "08/01/2014",
        "county": "CARIBOU CO.",
        "state": "ID"
      }
    ],
    "Heavy_Snow": [
      {
        "type": "Heavy+Snow",
        "time": "1400",
        "inj": "0",
        "deaths": "0",
        "prop_dmg": "20.0k",
        "crop_dmg": "0",
        "begin": "11/08/2000",
        "county": "CARIBOU HIGHLANDS ",
        "state": "ID"
      },
      {
        "type": "Heavy+Snow",
        "time": "1000",
        "inj": "0",
        "deaths": "0",
        "prop_dmg": "30.0k",
        "crop_dmg": "0",
        "begin": "11/13/2014",
        "county": "CARIBOU HIGHLANDS ",
        "state": "ID"
      },
      {
        "type": "Heavy+Snow",
        "time": "500",
        "inj": "0",
        "deaths": "0",
        "prop_dmg": "8.00k",
        "crop_dmg": "0",
        "begin": "01/04/2015",
        "county": "CARIBOU HIGHLANDS ",
        "state": "ID"
      }
    ],
    "High_Surf": [],
    "High_Wind": [],
    "Ice_Storm": [],
    "Lakeshore_Flood": [],
    "Landslide": [],
    "Lightning": [],
    "Rip_Current": [],
    "Seiche": [],
    "Sleet": [],
    "Storm_Surge__FTide": [],
    "Strong_Wind": [],
    "Thunderstorm_Wind": [],
    "Tornado": [],
    "Tropical_Depression": [],
    "Tropical_Storm": [],
    "Tsunami": [],
    "Volcanic_Ashfall": [],
    "Waterspout": [],
    "Wildfire": [
      {
        "type": "Wildfire",
        "time": "1300",
        "inj": "0",
        "deaths": "0",
        "prop_dmg": "200k",
        "crop_dmg": "0",
        "begin": "08/15/2011",
        "county": "CARIBOU HIGHLANDS ",
        "state": "ID"
      },
      {
        "type": "Wildfire",
        "time": "1330",
        "inj": "0",
        "deaths": "0",
        "prop_dmg": "20.0M",
        "crop_dmg": "0",
        "begin": "06/28/2012",
        "county": "CARIBOU HIGHLANDS ",
        "state": "ID"
      }
    ],
    "Winter_Storm": [],
    "Winter_Weather": []
  },
  "031": {
    "name": "Cassia County",
    "fips": "ID",
    "pop10": "22952",
    "lat": 42.288635,
    "lon": -113.605498,
    "geoid": "16031",
    "deaths": 1,
    "prop_dmg": "10.0k",
    "crop_dmg": "6.00M",
    "inj": 1,
    "all": 3,
    "eq": [],
    "Hurricane____Typhoon___": [],
    "Cold__FWind_Chill": [],
    "Coastal_Flood": [],
    "Avalanche": [],
    "Astronomical_Low_Tide": [],
    "Dense_Fog": [],
    "Drought": [],
    "Dust_Devil": [],
    "Dust_Storm": [],
    "Excessive_Heat": [],
    "Extreme_Cold__FWind_Chill": [],
    "Flash_Flood": [],
    "Flood": [],
    "Freezing_Fog": [],
    "Funnel_Cloud": [],
    "Hail": [],
    "Heat": [],
    "Heavy_Rain": [
      {
        "type": "Heavy+Rain",
        "time": "1",
        "inj": "0",
        "deaths": "0",
        "prop_dmg": "0",
        "crop_dmg": "6.00M",
        "begin": "08/01/2014",
        "county": "CASSIA CO.",
        "state": "ID"
      }
    ],
    "Heavy_Snow": [],
    "High_Surf": [],
    "High_Wind": [],
    "Ice_Storm": [],
    "Lakeshore_Flood": [],
    "Landslide": [],
    "Lightning": [
      {
        "type": "Lightning",
        "time": "1430",
        "inj": "1",
        "deaths": "1",
        "prop_dmg": "0",
        "crop_dmg": "0",
        "begin": "07/17/1996",
        "county": "CASSIA CO.",
        "state": "ID"
      },
      {
        "type": "Lightning",
        "time": "1600",
        "inj": "0",
        "deaths": "0",
        "prop_dmg": "10.0k",
        "crop_dmg": "0",
        "begin": "05/29/2005",
        "county": "CASSIA CO.",
        "state": "ID"
      }
    ],
    "Rip_Current": [],
    "Seiche": [],
    "Sleet": [],
    "Storm_Surge__FTide": [],
    "Strong_Wind": [],
    "Thunderstorm_Wind": [],
    "Tornado": [],
    "Tropical_Depression": [],
    "Tropical_Storm": [],
    "Tsunami": [],
    "Volcanic_Ashfall": [],
    "Waterspout": [],
    "Wildfire": [],
    "Winter_Storm": [],
    "Winter_Weather": []
  },
  "033": {
    "name": "Clark County",
    "fips": "ID",
    "pop10": "982",
    "lat": 44.286251,
    "lon": -112.36112,
    "geoid": "16033",
    "deaths": 0,
    "prop_dmg": "25.0k",
    "crop_dmg": "4.00M",
    "inj": 0,
    "all": 2,
    "eq": [],
    "Hurricane____Typhoon___": [],
    "Cold__FWind_Chill": [],
    "Coastal_Flood": [],
    "Avalanche": [],
    "Astronomical_Low_Tide": [],
    "Dense_Fog": [],
    "Drought": [],
    "Dust_Devil": [],
    "Dust_Storm": [],
    "Excessive_Heat": [],
    "Extreme_Cold__FWind_Chill": [],
    "Flash_Flood": [],
    "Flood": [],
    "Freezing_Fog": [],
    "Funnel_Cloud": [],
    "Hail": [],
    "Heat": [],
    "Heavy_Rain": [
      {
        "type": "Heavy+Rain",
        "time": "1",
        "inj": "0",
        "deaths": "0",
        "prop_dmg": "0",
        "crop_dmg": "4.00M",
        "begin": "08/01/2014",
        "county": "CLARK CO.",
        "state": "ID"
      }
    ],
    "Heavy_Snow": [],
    "High_Surf": [],
    "High_Wind": [],
    "Ice_Storm": [],
    "Lakeshore_Flood": [],
    "Landslide": [],
    "Lightning": [],
    "Rip_Current": [],
    "Seiche": [],
    "Sleet": [],
    "Storm_Surge__FTide": [],
    "Strong_Wind": [],
    "Thunderstorm_Wind": [],
    "Tornado": [],
    "Tropical_Depression": [],
    "Tropical_Storm": [],
    "Tsunami": [],
    "Volcanic_Ashfall": [],
    "Waterspout": [],
    "Wildfire": [
      {
        "type": "Wildfire",
        "time": "300",
        "inj": "0",
        "deaths": "0",
        "prop_dmg": "25.0k",
        "crop_dmg": "0",
        "begin": "08/07/2003",
        "county": "CLARK CO.",
        "state": "ID"
      }
    ],
    "Winter_Storm": [],
    "Winter_Weather": []
  },
  "035": {
    "name": "Clearwater County",
    "fips": "ID",
    "pop10": "8761",
    "lat": 46.67257,
    "lon": -115.6535,
    "geoid": "16035",
    "deaths": 0,
    "prop_dmg": 0,
    "crop_dmg": 0,
    "inj": 0,
    "all": 0,
    "eq": [],
    "Hurricane____Typhoon___": [],
    "Cold__FWind_Chill": [],
    "Coastal_Flood": [],
    "Avalanche": [],
    "Astronomical_Low_Tide": [],
    "Dense_Fog": [],
    "Drought": [],
    "Dust_Devil": [],
    "Dust_Storm": [],
    "Excessive_Heat": [],
    "Extreme_Cold__FWind_Chill": [],
    "Flash_Flood": [],
    "Flood": [],
    "Freezing_Fog": [],
    "Funnel_Cloud": [],
    "Hail": [],
    "Heat": [],
    "Heavy_Rain": [],
    "Heavy_Snow": [],
    "High_Surf": [],
    "High_Wind": [],
    "Ice_Storm": [],
    "Lakeshore_Flood": [],
    "Landslide": [],
    "Lightning": [],
    "Rip_Current": [],
    "Seiche": [],
    "Sleet": [],
    "Storm_Surge__FTide": [],
    "Strong_Wind": [],
    "Thunderstorm_Wind": [],
    "Tornado": [],
    "Tropical_Depression": [],
    "Tropical_Storm": [],
    "Tsunami": [],
    "Volcanic_Ashfall": [],
    "Waterspout": [],
    "Wildfire": [],
    "Winter_Storm": [],
    "Winter_Weather": []
  },
  "037": {
    "name": "Custer County",
    "fips": "ID",
    "pop10": "4368",
    "lat": 44.273341,
    "lon": -114.252251,
    "geoid": "16037",
    "deaths": 2,
    "prop_dmg": "60.0k",
    "crop_dmg": "3.00M",
    "inj": 2,
    "all": 3,
    "eq": [
      {
        "type": "earthquake",
        "begin": "10/28/1983",
        "inj": "2",
        "prop_dmg": "      12.500",
        "crop_dmg": "",
        "county": "IDAHO:  BORAH PEAK, CHALLIS, MACKAY",
        "state": "ID",
        "deaths": "       2"
      }
    ],
    "Hurricane____Typhoon___": [],
    "Cold__FWind_Chill": [],
    "Coastal_Flood": [],
    "Avalanche": [],
    "Astronomical_Low_Tide": [],
    "Dense_Fog": [],
    "Drought": [],
    "Dust_Devil": [],
    "Dust_Storm": [],
    "Excessive_Heat": [],
    "Extreme_Cold__FWind_Chill": [],
    "Flash_Flood": [],
    "Flood": [
      {
        "type": "Flood",
        "time": "1235",
        "inj": "0",
        "deaths": "0",
        "prop_dmg": "60.0k",
        "crop_dmg": "0",
        "begin": "06/04/2010",
        "county": "CUSTER CO.",
        "state": "ID"
      }
    ],
    "Freezing_Fog": [],
    "Funnel_Cloud": [],
    "Hail": [],
    "Heat": [],
    "Heavy_Rain": [
      {
        "type": "Heavy+Rain",
        "time": "1",
        "inj": "0",
        "deaths": "0",
        "prop_dmg": "0",
        "crop_dmg": "3.00M",
        "begin": "08/01/2014",
        "county": "CUSTER CO.",
        "state": "ID"
      }
    ],
    "Heavy_Snow": [],
    "High_Surf": [],
    "High_Wind": [],
    "Ice_Storm": [],
    "Lakeshore_Flood": [],
    "Landslide": [],
    "Lightning": [],
    "Rip_Current": [],
    "Seiche": [],
    "Sleet": [],
    "Storm_Surge__FTide": [],
    "Strong_Wind": [],
    "Thunderstorm_Wind": [],
    "Tornado": [],
    "Tropical_Depression": [],
    "Tropical_Storm": [],
    "Tsunami": [],
    "Volcanic_Ashfall": [],
    "Waterspout": [],
    "Wildfire": [],
    "Winter_Storm": [],
    "Winter_Weather": []
  },
  "039": {
    "name": "Elmore County",
    "fips": "ID",
    "pop10": "27038",
    "lat": 43.394826,
    "lon": -115.470751,
    "geoid": "16039",
    "deaths": 3,
    "prop_dmg": "5.63M",
    "crop_dmg": 0,
    "inj": 0,
    "all": 6,
    "eq": [],
    "Hurricane____Typhoon___": [],
    "Cold__FWind_Chill": [],
    "Coastal_Flood": [],
    "Avalanche": [
      {
        "type": "Avalanche",
        "time": "1400",
        "inj": "0",
        "deaths": "2",
        "prop_dmg": "0",
        "crop_dmg": "0",
        "begin": "03/30/2010",
        "county": "BOISE MOUNTAINS ",
        "state": "ID"
      }
    ],
    "Astronomical_Low_Tide": [],
    "Dense_Fog": [],
    "Drought": [],
    "Dust_Devil": [],
    "Dust_Storm": [],
    "Excessive_Heat": [],
    "Extreme_Cold__FWind_Chill": [],
    "Flash_Flood": [],
    "Flood": [
      {
        "type": "Flood",
        "time": "200",
        "inj": "0",
        "deaths": "0",
        "prop_dmg": "25.0k",
        "crop_dmg": "0",
        "begin": "01/17/2011",
        "county": "ELMORE CO.",
        "state": "ID"
      }
    ],
    "Freezing_Fog": [],
    "Funnel_Cloud": [],
    "Hail": [],
    "Heat": [],
    "Heavy_Rain": [
      {
        "type": "Heavy+Rain",
        "time": "730",
        "inj": "0",
        "deaths": "0",
        "prop_dmg": "5.00k",
        "crop_dmg": "0",
        "begin": "05/16/1996",
        "county": "ELMORE CO.",
        "state": "ID"
      }
    ],
    "Heavy_Snow": [],
    "High_Surf": [],
    "High_Wind": [],
    "Ice_Storm": [],
    "Lakeshore_Flood": [],
    "Landslide": [],
    "Lightning": [],
    "Rip_Current": [],
    "Seiche": [],
    "Sleet": [],
    "Storm_Surge__FTide": [],
    "Strong_Wind": [],
    "Thunderstorm_Wind": [],
    "Tornado": [],
    "Tropical_Depression": [],
    "Tropical_Storm": [],
    "Tsunami": [],
    "Volcanic_Ashfall": [],
    "Waterspout": [],
    "Wildfire": [
      {
        "type": "Wildfire",
        "time": "1650",
        "inj": "0",
        "deaths": "1",
        "prop_dmg": "5.00M",
        "crop_dmg": "0",
        "begin": "08/25/2008",
        "county": "UPPER TREASURE VALLEY ",
        "state": "ID"
      },
      {
        "type": "Wildfire",
        "time": "1115",
        "inj": "0",
        "deaths": "0",
        "prop_dmg": "500k",
        "crop_dmg": "0",
        "begin": "07/28/2010",
        "county": "UPPER TREASURE VALLEY ",
        "state": "ID"
      },
      {
        "type": "Wildfire",
        "time": "2300",
        "inj": "0",
        "deaths": "0",
        "prop_dmg": "100k",
        "crop_dmg": "0",
        "begin": "08/21/2010",
        "county": "UPPER TREASURE VALLEY ",
        "state": "ID"
      }
    ],
    "Winter_Storm": [],
    "Winter_Weather": []
  },
  "041": {
    "name": "Franklin County",
    "fips": "ID",
    "pop10": "12786",
    "lat": 42.173589,
    "lon": -111.822955,
    "geoid": "16041",
    "deaths": 0,
    "prop_dmg": "5.00k",
    "crop_dmg": 0,
    "inj": 1,
    "all": 2,
    "eq": [],
    "Hurricane____Typhoon___": [],
    "Cold__FWind_Chill": [],
    "Coastal_Flood": [],
    "Avalanche": [],
    "Astronomical_Low_Tide": [],
    "Dense_Fog": [],
    "Drought": [],
    "Dust_Devil": [],
    "Dust_Storm": [],
    "Excessive_Heat": [],
    "Extreme_Cold__FWind_Chill": [],
    "Flash_Flood": [],
    "Flood": [],
    "Freezing_Fog": [],
    "Funnel_Cloud": [],
    "Hail": [],
    "Heat": [],
    "Heavy_Rain": [],
    "Heavy_Snow": [],
    "High_Surf": [],
    "High_Wind": [],
    "Ice_Storm": [],
    "Lakeshore_Flood": [],
    "Landslide": [],
    "Lightning": [
      {
        "type": "Lightning",
        "time": "1500",
        "inj": "1",
        "deaths": "0",
        "prop_dmg": "0",
        "crop_dmg": "0",
        "begin": "08/22/2003",
        "county": "FRANKLIN CO.",
        "state": "ID"
      }
    ],
    "Rip_Current": [],
    "Seiche": [],
    "Sleet": [],
    "Storm_Surge__FTide": [],
    "Strong_Wind": [],
    "Thunderstorm_Wind": [],
    "Tornado": [],
    "Tropical_Depression": [],
    "Tropical_Storm": [],
    "Tsunami": [],
    "Volcanic_Ashfall": [],
    "Waterspout": [],
    "Wildfire": [
      {
        "type": "Wildfire",
        "time": "1300",
        "inj": "0",
        "deaths": "0",
        "prop_dmg": "5.00k",
        "crop_dmg": "0",
        "begin": "08/10/2007",
        "county": "CACHE VALLEY/IDAHO PORTION ",
        "state": "ID"
      }
    ],
    "Winter_Storm": [],
    "Winter_Weather": []
  },
  "043": {
    "name": "Fremont County",
    "fips": "ID",
    "pop10": "13242",
    "lat": 44.218091,
    "lon": -111.484429,
    "geoid": "16043",
    "deaths": 5,
    "prop_dmg": "79.0k",
    "crop_dmg": "2.00M",
    "inj": 1,
    "all": 11,
    "eq": [],
    "Hurricane____Typhoon___": [],
    "Cold__FWind_Chill": [],
    "Coastal_Flood": [],
    "Avalanche": [
      {
        "type": "Avalanche",
        "time": "1500",
        "inj": "0",
        "deaths": "2",
        "prop_dmg": "0",
        "crop_dmg": "0",
        "begin": "01/03/1998",
        "county": "UPPER SNAKE HIGHLANDS ",
        "state": "ID"
      },
      {
        "type": "Avalanche",
        "time": "1500",
        "inj": "1",
        "deaths": "0",
        "prop_dmg": "1.00k",
        "crop_dmg": "0",
        "begin": "01/22/2000",
        "county": "UPPER SNAKE HIGHLANDS ",
        "state": "ID"
      },
      {
        "type": "Avalanche",
        "time": "1500",
        "inj": "0",
        "deaths": "1",
        "prop_dmg": "0",
        "crop_dmg": "0",
        "begin": "03/12/2002",
        "county": "UPPER SNAKE HIGHLANDS ",
        "state": "ID"
      },
      {
        "type": "Avalanche",
        "time": "1430",
        "inj": "0",
        "deaths": "1",
        "prop_dmg": "0",
        "crop_dmg": "0",
        "begin": "03/22/2002",
        "county": "UPPER SNAKE HIGHLANDS ",
        "state": "ID"
      },
      {
        "type": "Avalanche",
        "time": "1000",
        "inj": "0",
        "deaths": "1",
        "prop_dmg": "0",
        "crop_dmg": "0",
        "begin": "04/02/2006",
        "county": "UPPER SNAKE HIGHLANDS ",
        "state": "ID"
      }
    ],
    "Astronomical_Low_Tide": [],
    "Dense_Fog": [],
    "Drought": [],
    "Dust_Devil": [],
    "Dust_Storm": [],
    "Excessive_Heat": [],
    "Extreme_Cold__FWind_Chill": [],
    "Flash_Flood": [
      {
        "type": "Flash+Flood",
        "time": "2000",
        "inj": "0",
        "deaths": "0",
        "prop_dmg": "3.00k",
        "crop_dmg": "0",
        "begin": "06/07/2011",
        "county": "FREMONT CO.",
        "state": "ID"
      }
    ],
    "Flood": [
      {
        "type": "Flood",
        "time": "1115",
        "inj": "0",
        "deaths": "0",
        "prop_dmg": "4.00k",
        "crop_dmg": "0",
        "begin": "06/07/2011",
        "county": "FREMONT CO.",
        "state": "ID"
      },
      {
        "type": "Flood",
        "time": "700",
        "inj": "0",
        "deaths": "0",
        "prop_dmg": "55.0k",
        "crop_dmg": "0",
        "begin": "03/10/2012",
        "county": "FREMONT CO.",
        "state": "ID"
      }
    ],
    "Freezing_Fog": [],
    "Funnel_Cloud": [],
    "Hail": [],
    "Heat": [],
    "Heavy_Rain": [
      {
        "type": "Heavy+Rain",
        "time": "1",
        "inj": "0",
        "deaths": "0",
        "prop_dmg": "0",
        "crop_dmg": "2.00M",
        "begin": "08/01/2014",
        "county": "FREMONT CO.",
        "state": "ID"
      }
    ],
    "Heavy_Snow": [
      {
        "type": "Heavy+Snow",
        "time": "700",
        "inj": "0",
        "deaths": "0",
        "prop_dmg": "1.00k",
        "crop_dmg": "0",
        "begin": "11/08/2010",
        "county": "UPPER SNAKE HIGHLANDS ",
        "state": "ID"
      },
      {
        "type": "Heavy+Snow",
        "time": "2000",
        "inj": "0",
        "deaths": "0",
        "prop_dmg": "15.0k",
        "crop_dmg": "0",
        "begin": "01/17/2012",
        "county": "UPPER SNAKE HIGHLANDS ",
        "state": "ID"
      }
    ],
    "High_Surf": [],
    "High_Wind": [],
    "Ice_Storm": [],
    "Lakeshore_Flood": [],
    "Landslide": [],
    "Lightning": [],
    "Rip_Current": [],
    "Seiche": [],
    "Sleet": [],
    "Storm_Surge__FTide": [],
    "Strong_Wind": [],
    "Thunderstorm_Wind": [],
    "Tornado": [],
    "Tropical_Depression": [],
    "Tropical_Storm": [],
    "Tsunami": [],
    "Volcanic_Ashfall": [],
    "Waterspout": [],
    "Wildfire": [],
    "Winter_Storm": [],
    "Winter_Weather": []
  },
  "045": {
    "name": "Gem County",
    "fips": "ID",
    "pop10": "16719",
    "lat": 44.061473,
    "lon": -116.398784,
    "geoid": "16045",
    "deaths": 0,
    "prop_dmg": "1.00M",
    "crop_dmg": 0,
    "inj": 0,
    "all": 1,
    "eq": [],
    "Hurricane____Typhoon___": [],
    "Cold__FWind_Chill": [],
    "Coastal_Flood": [],
    "Avalanche": [],
    "Astronomical_Low_Tide": [],
    "Dense_Fog": [],
    "Drought": [],
    "Dust_Devil": [],
    "Dust_Storm": [],
    "Excessive_Heat": [],
    "Extreme_Cold__FWind_Chill": [],
    "Flash_Flood": [],
    "Flood": [
      {
        "type": "Flood",
        "time": "1000",
        "inj": "0",
        "deaths": "0",
        "prop_dmg": "1.00M",
        "crop_dmg": "0",
        "begin": "06/04/2010",
        "county": "GEM CO.",
        "state": "ID"
      }
    ],
    "Freezing_Fog": [],
    "Funnel_Cloud": [],
    "Hail": [],
    "Heat": [],
    "Heavy_Rain": [],
    "Heavy_Snow": [],
    "High_Surf": [],
    "High_Wind": [],
    "Ice_Storm": [],
    "Lakeshore_Flood": [],
    "Landslide": [],
    "Lightning": [],
    "Rip_Current": [],
    "Seiche": [],
    "Sleet": [],
    "Storm_Surge__FTide": [],
    "Strong_Wind": [],
    "Thunderstorm_Wind": [],
    "Tornado": [],
    "Tropical_Depression": [],
    "Tropical_Storm": [],
    "Tsunami": [],
    "Volcanic_Ashfall": [],
    "Waterspout": [],
    "Wildfire": [],
    "Winter_Storm": [],
    "Winter_Weather": []
  },
  "047": {
    "name": "Gooding County",
    "fips": "ID",
    "pop10": "15464",
    "lat": 42.973185,
    "lon": -114.82142,
    "geoid": "16047",
    "deaths": 0,
    "prop_dmg": 0,
    "crop_dmg": 0,
    "inj": 0,
    "all": 0,
    "eq": [],
    "Hurricane____Typhoon___": [],
    "Cold__FWind_Chill": [],
    "Coastal_Flood": [],
    "Avalanche": [],
    "Astronomical_Low_Tide": [],
    "Dense_Fog": [],
    "Drought": [],
    "Dust_Devil": [],
    "Dust_Storm": [],
    "Excessive_Heat": [],
    "Extreme_Cold__FWind_Chill": [],
    "Flash_Flood": [],
    "Flood": [],
    "Freezing_Fog": [],
    "Funnel_Cloud": [],
    "Hail": [],
    "Heat": [],
    "Heavy_Rain": [],
    "Heavy_Snow": [],
    "High_Surf": [],
    "High_Wind": [],
    "Ice_Storm": [],
    "Lakeshore_Flood": [],
    "Landslide": [],
    "Lightning": [],
    "Rip_Current": [],
    "Seiche": [],
    "Sleet": [],
    "Storm_Surge__FTide": [],
    "Strong_Wind": [],
    "Thunderstorm_Wind": [],
    "Tornado": [],
    "Tropical_Depression": [],
    "Tropical_Storm": [],
    "Tsunami": [],
    "Volcanic_Ashfall": [],
    "Waterspout": [],
    "Wildfire": [],
    "Winter_Storm": [],
    "Winter_Weather": []
  },
  "049": {
    "name": "Idaho County",
    "fips": "ID",
    "pop10": "16267",
    "lat": 45.849237,
    "lon": -115.467376,
    "geoid": "16049",
    "deaths": 0,
    "prop_dmg": "812k",
    "crop_dmg": 0,
    "inj": 0,
    "all": 4,
    "eq": [],
    "Hurricane____Typhoon___": [],
    "Cold__FWind_Chill": [],
    "Coastal_Flood": [],
    "Avalanche": [],
    "Astronomical_Low_Tide": [],
    "Dense_Fog": [],
    "Drought": [],
    "Dust_Devil": [],
    "Dust_Storm": [],
    "Excessive_Heat": [],
    "Extreme_Cold__FWind_Chill": [],
    "Flash_Flood": [
      {
        "type": "Flash+Flood",
        "time": "900",
        "inj": "0",
        "deaths": "0",
        "prop_dmg": "800k",
        "crop_dmg": "0",
        "begin": "06/07/2010",
        "county": "IDAHO CO.",
        "state": "ID"
      }
    ],
    "Flood": [
      {
        "type": "Flood",
        "time": "800",
        "inj": "0",
        "deaths": "0",
        "prop_dmg": "5.00k",
        "crop_dmg": "0",
        "begin": "03/09/2003",
        "county": "OROFINO / GRANGEVILLE REGION ",
        "state": "ID"
      }
    ],
    "Freezing_Fog": [],
    "Funnel_Cloud": [],
    "Hail": [],
    "Heat": [],
    "Heavy_Rain": [
      {
        "type": "Heavy+Rain",
        "time": "2100",
        "inj": "0",
        "deaths": "0",
        "prop_dmg": "5.00k",
        "crop_dmg": "0",
        "begin": "06/05/2009",
        "county": "IDAHO CO.",
        "state": "ID"
      }
    ],
    "Heavy_Snow": [],
    "High_Surf": [],
    "High_Wind": [],
    "Ice_Storm": [],
    "Lakeshore_Flood": [],
    "Landslide": [],
    "Lightning": [],
    "Rip_Current": [],
    "Seiche": [],
    "Sleet": [],
    "Storm_Surge__FTide": [],
    "Strong_Wind": [],
    "Thunderstorm_Wind": [],
    "Tornado": [],
    "Tropical_Depression": [],
    "Tropical_Storm": [],
    "Tsunami": [],
    "Volcanic_Ashfall": [],
    "Waterspout": [],
    "Wildfire": [],
    "Winter_Storm": [
      {
        "type": "Winter+Storm",
        "time": "1300",
        "inj": "0",
        "deaths": "0",
        "prop_dmg": "2.00k",
        "crop_dmg": "0",
        "begin": "11/13/2014",
        "county": "LOWER HELLS CANYON / SALMON RIVER REGION ",
        "state": "ID"
      }
    ],
    "Winter_Weather": []
  },
  "051": {
    "name": "Jefferson County",
    "fips": "ID",
    "pop10": "26140",
    "lat": 43.796965,
    "lon": -112.318588,
    "geoid": "16051",
    "deaths": 0,
    "prop_dmg": "10.0k",
    "crop_dmg": "4.00M",
    "inj": 0,
    "all": 2,
    "eq": [],
    "Hurricane____Typhoon___": [],
    "Cold__FWind_Chill": [],
    "Coastal_Flood": [],
    "Avalanche": [],
    "Astronomical_Low_Tide": [],
    "Dense_Fog": [],
    "Drought": [],
    "Dust_Devil": [],
    "Dust_Storm": [],
    "Excessive_Heat": [],
    "Extreme_Cold__FWind_Chill": [],
    "Flash_Flood": [],
    "Flood": [
      {
        "type": "Flood",
        "time": "1",
        "inj": "0",
        "deaths": "0",
        "prop_dmg": "10.0k",
        "crop_dmg": "0",
        "begin": "06/01/2011",
        "county": "JEFFERSON CO.",
        "state": "ID"
      }
    ],
    "Freezing_Fog": [],
    "Funnel_Cloud": [],
    "Hail": [],
    "Heat": [],
    "Heavy_Rain": [
      {
        "type": "Heavy+Rain",
        "time": "1",
        "inj": "0",
        "deaths": "0",
        "prop_dmg": "0",
        "crop_dmg": "4.00M",
        "begin": "08/01/2014",
        "county": "JEFFERSON CO.",
        "state": "ID"
      }
    ],
    "Heavy_Snow": [],
    "High_Surf": [],
    "High_Wind": [],
    "Ice_Storm": [],
    "Lakeshore_Flood": [],
    "Landslide": [],
    "Lightning": [],
    "Rip_Current": [],
    "Seiche": [],
    "Sleet": [],
    "Storm_Surge__FTide": [],
    "Strong_Wind": [],
    "Thunderstorm_Wind": [],
    "Tornado": [],
    "Tropical_Depression": [],
    "Tropical_Storm": [],
    "Tsunami": [],
    "Volcanic_Ashfall": [],
    "Waterspout": [],
    "Wildfire": [],
    "Winter_Storm": [],
    "Winter_Weather": []
  },
  "053": {
    "name": "Jerome County",
    "fips": "ID",
    "pop10": "22374",
    "lat": 42.691171,
    "lon": -114.263009,
    "geoid": "16053",
    "deaths": 0,
    "prop_dmg": "50.0M",
    "crop_dmg": 0,
    "inj": 2,
    "all": 3,
    "eq": [],
    "Hurricane____Typhoon___": [],
    "Cold__FWind_Chill": [],
    "Coastal_Flood": [],
    "Avalanche": [],
    "Astronomical_Low_Tide": [],
    "Dense_Fog": [],
    "Drought": [],
    "Dust_Devil": [],
    "Dust_Storm": [],
    "Excessive_Heat": [],
    "Extreme_Cold__FWind_Chill": [],
    "Flash_Flood": [],
    "Flood": [
      {
        "type": "Flood",
        "time": "0",
        "inj": "0",
        "deaths": "0",
        "prop_dmg": "50.0M",
        "crop_dmg": "0",
        "begin": "06/01/1997",
        "county": "WESTERN MAGIC VALLEY ",
        "state": "ID"
      }
    ],
    "Freezing_Fog": [],
    "Funnel_Cloud": [],
    "Hail": [],
    "Heat": [],
    "Heavy_Rain": [],
    "Heavy_Snow": [
      {
        "type": "Heavy+Snow",
        "time": "2000",
        "inj": "2",
        "deaths": "0",
        "prop_dmg": "0",
        "crop_dmg": "0",
        "begin": "11/28/2001",
        "county": "WESTERN MAGIC VALLEY ",
        "state": "ID"
      }
    ],
    "High_Surf": [],
    "High_Wind": [],
    "Ice_Storm": [],
    "Lakeshore_Flood": [],
    "Landslide": [],
    "Lightning": [],
    "Rip_Current": [],
    "Seiche": [],
    "Sleet": [],
    "Storm_Surge__FTide": [],
    "Strong_Wind": [],
    "Thunderstorm_Wind": [],
    "Tornado": [
      {
        "type": "Tornado",
        "time": "1645",
        "inj": "0",
        "deaths": "0",
        "prop_dmg": "25.0k",
        "crop_dmg": "0",
        "begin": "06/09/1990",
        "county": "JEROME CO.",
        "state": "ID"
      }
    ],
    "Tropical_Depression": [],
    "Tropical_Storm": [],
    "Tsunami": [],
    "Volcanic_Ashfall": [],
    "Waterspout": [],
    "Wildfire": [],
    "Winter_Storm": [],
    "Winter_Weather": []
  },
  "055": {
    "name": "Kootenai County",
    "fips": "ID",
    "pop10": "138494",
    "lat": 47.677113,
    "lon": -116.694918,
    "geoid": "16055",
    "deaths": 0,
    "prop_dmg": "6.76M",
    "crop_dmg": "15.0k",
    "inj": 0,
    "all": 22,
    "eq": [],
    "Hurricane____Typhoon___": [],
    "Cold__FWind_Chill": [],
    "Coastal_Flood": [],
    "Avalanche": [],
    "Astronomical_Low_Tide": [],
    "Dense_Fog": [],
    "Drought": [],
    "Dust_Devil": [],
    "Dust_Storm": [],
    "Excessive_Heat": [],
    "Extreme_Cold__FWind_Chill": [],
    "Flash_Flood": [
      {
        "type": "Flash+Flood",
        "time": "1800",
        "inj": "0",
        "deaths": "0",
        "prop_dmg": "15.0k",
        "crop_dmg": "0",
        "begin": "04/13/2000",
        "county": "KOOTENAI CO.",
        "state": "ID"
      }
    ],
    "Flood": [
      {
        "type": "Flood",
        "time": "900",
        "inj": "0",
        "deaths": "0",
        "prop_dmg": "15.0k",
        "crop_dmg": "0",
        "begin": "01/31/2000",
        "county": "KOOTENAI CO.",
        "state": "ID"
      },
      {
        "type": "Flood",
        "time": "1200",
        "inj": "0",
        "deaths": "0",
        "prop_dmg": "2.00k",
        "crop_dmg": "0",
        "begin": "01/08/2009",
        "county": "KOOTENAI CO.",
        "state": "ID"
      },
      {
        "type": "Flood",
        "time": "2300",
        "inj": "0",
        "deaths": "0",
        "prop_dmg": "25.0k",
        "crop_dmg": "0",
        "begin": "01/16/2011",
        "county": "KOOTENAI CO.",
        "state": "ID"
      },
      {
        "type": "Flood",
        "time": "0",
        "inj": "0",
        "deaths": "0",
        "prop_dmg": "20.0k",
        "crop_dmg": "0",
        "begin": "03/30/2012",
        "county": "KOOTENAI CO.",
        "state": "ID"
      },
      {
        "type": "Flood",
        "time": "0",
        "inj": "0",
        "deaths": "0",
        "prop_dmg": "20.0k",
        "crop_dmg": "0",
        "begin": "04/01/2012",
        "county": "KOOTENAI CO.",
        "state": "ID"
      },
      {
        "type": "Flood",
        "time": "600",
        "inj": "0",
        "deaths": "0",
        "prop_dmg": "10.0k",
        "crop_dmg": "0",
        "begin": "01/11/2014",
        "county": "KOOTENAI CO.",
        "state": "ID"
      },
      {
        "type": "Flood",
        "time": "1200",
        "inj": "0",
        "deaths": "0",
        "prop_dmg": "160k",
        "crop_dmg": "0",
        "begin": "02/12/2014",
        "county": "KOOTENAI CO.",
        "state": "ID"
      },
      {
        "type": "Flood",
        "time": "900",
        "inj": "0",
        "deaths": "0",
        "prop_dmg": "100k",
        "crop_dmg": "0",
        "begin": "03/05/2014",
        "county": "KOOTENAI CO.",
        "state": "ID"
      },
      {
        "type": "Flood",
        "time": "1645",
        "inj": "0",
        "deaths": "0",
        "prop_dmg": "30.0k",
        "crop_dmg": "0",
        "begin": "03/09/2014",
        "county": "KOOTENAI CO.",
        "state": "ID"
      }
    ],
    "Freezing_Fog": [],
    "Funnel_Cloud": [],
    "Hail": [],
    "Heat": [],
    "Heavy_Rain": [],
    "Heavy_Snow": [
      {
        "type": "Heavy+Snow",
        "time": "1400",
        "inj": "0",
        "deaths": "0",
        "prop_dmg": "6.00M",
        "crop_dmg": "0",
        "begin": "11/16/1996",
        "county": "COEUR D'ALENE AREA ",
        "state": "ID"
      }
    ],
    "High_Surf": [],
    "High_Wind": [],
    "Ice_Storm": [],
    "Lakeshore_Flood": [],
    "Landslide": [],
    "Lightning": [
      {
        "type": "Lightning",
        "time": "2000",
        "inj": "0",
        "deaths": "0",
        "prop_dmg": "10.0k",
        "crop_dmg": "0",
        "begin": "05/19/2006",
        "county": "KOOTENAI CO.",
        "state": "ID"
      },
      {
        "type": "Lightning",
        "time": "30",
        "inj": "0",
        "deaths": "0",
        "prop_dmg": "15.0k",
        "crop_dmg": "0",
        "begin": "07/05/2006",
        "county": "KOOTENAI CO.",
        "state": "ID"
      },
      {
        "type": "Lightning",
        "time": "2000",
        "inj": "0",
        "deaths": "0",
        "prop_dmg": "30.0k",
        "crop_dmg": "0",
        "begin": "06/04/2007",
        "county": "KOOTENAI CO.",
        "state": "ID"
      },
      {
        "type": "Lightning",
        "time": "1850",
        "inj": "0",
        "deaths": "0",
        "prop_dmg": "1.00k",
        "crop_dmg": "0",
        "begin": "07/16/2012",
        "county": "KOOTENAI CO.",
        "state": "ID"
      },
      {
        "type": "Lightning",
        "time": "510",
        "inj": "0",
        "deaths": "0",
        "prop_dmg": "2.50k",
        "crop_dmg": "0",
        "begin": "07/17/2012",
        "county": "KOOTENAI CO.",
        "state": "ID"
      },
      {
        "type": "Lightning",
        "time": "100",
        "inj": "0",
        "deaths": "0",
        "prop_dmg": "200k",
        "crop_dmg": "0",
        "begin": "08/10/2013",
        "county": "KOOTENAI CO.",
        "state": "ID"
      },
      {
        "type": "Lightning",
        "time": "1530",
        "inj": "0",
        "deaths": "0",
        "prop_dmg": "4.50k",
        "crop_dmg": "0",
        "begin": "07/23/2014",
        "county": "KOOTENAI CO.",
        "state": "ID"
      }
    ],
    "Rip_Current": [],
    "Seiche": [],
    "Sleet": [],
    "Storm_Surge__FTide": [],
    "Strong_Wind": [],
    "Thunderstorm_Wind": [],
    "Tornado": [
      {
        "type": "Tornado",
        "time": "1305",
        "inj": "0",
        "deaths": "0",
        "prop_dmg": "50.0k",
        "crop_dmg": "0",
        "begin": "05/31/1997",
        "county": "KOOTENAI CO.",
        "state": "ID"
      }
    ],
    "Tropical_Depression": [],
    "Tropical_Storm": [],
    "Tsunami": [],
    "Volcanic_Ashfall": [],
    "Waterspout": [],
    "Wildfire": [
      {
        "type": "Wildfire",
        "time": "1215",
        "inj": "0",
        "deaths": "0",
        "prop_dmg": "10.0k",
        "crop_dmg": "15.0k",
        "begin": "08/12/1998",
        "county": "KOOTENAI CO.",
        "state": "ID"
      },
      {
        "type": "Wildfire",
        "time": "300",
        "inj": "0",
        "deaths": "0",
        "prop_dmg": "20.0k",
        "crop_dmg": "0",
        "begin": "08/19/1998",
        "county": "KOOTENAI CO.",
        "state": "ID"
      },
      {
        "type": "Wildfire",
        "time": "1215",
        "inj": "0",
        "deaths": "0",
        "prop_dmg": "20.0k",
        "crop_dmg": "0",
        "begin": "09/14/1998",
        "county": "KOOTENAI CO.",
        "state": "ID"
      }
    ],
    "Winter_Storm": [],
    "Winter_Weather": []
  },
  "057": {
    "name": "Latah County",
    "fips": "ID",
    "pop10": "37244",
    "lat": 46.81892,
    "lon": -116.730974,
    "geoid": "16057",
    "deaths": 0,
    "prop_dmg": "1.58M",
    "crop_dmg": 0,
    "inj": 0,
    "all": 12,
    "eq": [],
    "Hurricane____Typhoon___": [],
    "Cold__FWind_Chill": [],
    "Coastal_Flood": [],
    "Avalanche": [],
    "Astronomical_Low_Tide": [],
    "Dense_Fog": [],
    "Drought": [],
    "Dust_Devil": [],
    "Dust_Storm": [],
    "Excessive_Heat": [],
    "Extreme_Cold__FWind_Chill": [],
    "Flash_Flood": [
      {
        "type": "Flash+Flood",
        "time": "100",
        "inj": "0",
        "deaths": "0",
        "prop_dmg": "1.00M",
        "crop_dmg": "0",
        "begin": "02/24/1999",
        "county": "LATAH CO.",
        "state": "ID"
      }
    ],
    "Flood": [
      {
        "type": "Flood",
        "time": "430",
        "inj": "0",
        "deaths": "0",
        "prop_dmg": "15.0k",
        "crop_dmg": "0",
        "begin": "02/02/2000",
        "county": "LATAH CO.",
        "state": "ID"
      },
      {
        "type": "Flood",
        "time": "0",
        "inj": "0",
        "deaths": "0",
        "prop_dmg": "10.0k",
        "crop_dmg": "0",
        "begin": "02/01/2003",
        "county": "IDAHO PALOUSE ",
        "state": "ID"
      },
      {
        "type": "Flood",
        "time": "1100",
        "inj": "0",
        "deaths": "0",
        "prop_dmg": "250k",
        "crop_dmg": "0",
        "begin": "01/08/2009",
        "county": "LATAH CO.",
        "state": "ID"
      },
      {
        "type": "Flood",
        "time": "1400",
        "inj": "0",
        "deaths": "0",
        "prop_dmg": "89.0k",
        "crop_dmg": "0",
        "begin": "01/05/2010",
        "county": "LATAH CO.",
        "state": "ID"
      },
      {
        "type": "Flood",
        "time": "600",
        "inj": "0",
        "deaths": "0",
        "prop_dmg": "50.0k",
        "crop_dmg": "0",
        "begin": "03/26/2012",
        "county": "LATAH CO.",
        "state": "ID"
      },
      {
        "type": "Flood",
        "time": "620",
        "inj": "0",
        "deaths": "0",
        "prop_dmg": "80.0k",
        "crop_dmg": "0",
        "begin": "03/26/2012",
        "county": "LATAH CO.",
        "state": "ID"
      },
      {
        "type": "Flood",
        "time": "700",
        "inj": "0",
        "deaths": "0",
        "prop_dmg": "10.0k",
        "crop_dmg": "0",
        "begin": "03/26/2012",
        "county": "LATAH CO.",
        "state": "ID"
      },
      {
        "type": "Flood",
        "time": "1300",
        "inj": "0",
        "deaths": "0",
        "prop_dmg": "10.0k",
        "crop_dmg": "0",
        "begin": "02/12/2014",
        "county": "LATAH CO.",
        "state": "ID"
      }
    ],
    "Freezing_Fog": [],
    "Funnel_Cloud": [],
    "Hail": [],
    "Heat": [],
    "Heavy_Rain": [
      {
        "type": "Heavy+Rain",
        "time": "1400",
        "inj": "0",
        "deaths": "0",
        "prop_dmg": "50.0k",
        "crop_dmg": "0",
        "begin": "01/31/2003",
        "county": "LATAH CO.",
        "state": "ID"
      },
      {
        "type": "Heavy+Rain",
        "time": "600",
        "inj": "0",
        "deaths": "0",
        "prop_dmg": "13.0k",
        "crop_dmg": "0",
        "begin": "03/26/2012",
        "county": "LATAH CO.",
        "state": "ID"
      }
    ],
    "Heavy_Snow": [
      {
        "type": "Heavy+Snow",
        "time": "600",
        "inj": "0",
        "deaths": "0",
        "prop_dmg": "1.00k",
        "crop_dmg": "0",
        "begin": "01/01/2009",
        "county": "IDAHO PALOUSE ",
        "state": "ID"
      }
    ],
    "High_Surf": [],
    "High_Wind": [],
    "Ice_Storm": [],
    "Lakeshore_Flood": [],
    "Landslide": [],
    "Lightning": [],
    "Rip_Current": [],
    "Seiche": [],
    "Sleet": [],
    "Storm_Surge__FTide": [],
    "Strong_Wind": [],
    "Thunderstorm_Wind": [],
    "Tornado": [],
    "Tropical_Depression": [],
    "Tropical_Storm": [],
    "Tsunami": [],
    "Volcanic_Ashfall": [],
    "Waterspout": [],
    "Wildfire": [],
    "Winter_Storm": [],
    "Winter_Weather": []
  },
  "059": {
    "name": "Lemhi County",
    "fips": "ID",
    "pop10": "7936",
    "lat": 44.928789,
    "lon": -113.887841,
    "geoid": "16059",
    "deaths": 2,
    "prop_dmg": "70.0k",
    "crop_dmg": 0,
    "inj": 2,
    "all": 4,
    "eq": [],
    "Hurricane____Typhoon___": [],
    "Cold__FWind_Chill": [],
    "Coastal_Flood": [],
    "Avalanche": [],
    "Astronomical_Low_Tide": [],
    "Dense_Fog": [],
    "Drought": [],
    "Dust_Devil": [],
    "Dust_Storm": [],
    "Excessive_Heat": [],
    "Extreme_Cold__FWind_Chill": [],
    "Flash_Flood": [],
    "Flood": [
      {
        "type": "Flood",
        "time": "712",
        "inj": "0",
        "deaths": "0",
        "prop_dmg": "50.0k",
        "crop_dmg": "0",
        "begin": "06/21/2009",
        "county": "LEMHI CO.",
        "state": "ID"
      },
      {
        "type": "Flood",
        "time": "1200",
        "inj": "0",
        "deaths": "0",
        "prop_dmg": "20.0k",
        "crop_dmg": "0",
        "begin": "01/08/2010",
        "county": "LEMHI CO.",
        "state": "ID"
      }
    ],
    "Freezing_Fog": [],
    "Funnel_Cloud": [],
    "Hail": [],
    "Heat": [],
    "Heavy_Rain": [],
    "Heavy_Snow": [],
    "High_Surf": [],
    "High_Wind": [],
    "Ice_Storm": [],
    "Lakeshore_Flood": [],
    "Landslide": [],
    "Lightning": [
      {
        "type": "Lightning",
        "time": "1700",
        "inj": "2",
        "deaths": "0",
        "prop_dmg": "0",
        "crop_dmg": "0",
        "begin": "06/25/1998",
        "county": "LEMHI CO.",
        "state": "ID"
      }
    ],
    "Rip_Current": [],
    "Seiche": [],
    "Sleet": [],
    "Storm_Surge__FTide": [],
    "Strong_Wind": [],
    "Thunderstorm_Wind": [],
    "Tornado": [],
    "Tropical_Depression": [],
    "Tropical_Storm": [],
    "Tsunami": [],
    "Volcanic_Ashfall": [],
    "Waterspout": [],
    "Wildfire": [
      {
        "type": "Wildfire",
        "time": "1600",
        "inj": "0",
        "deaths": "2",
        "prop_dmg": "0",
        "crop_dmg": "0",
        "begin": "07/22/2003",
        "county": "LEMHI CO.",
        "state": "ID"
      }
    ],
    "Winter_Storm": [],
    "Winter_Weather": []
  },
  "061": {
    "name": "Lewis County",
    "fips": "ID",
    "pop10": "3821",
    "lat": 46.236328,
    "lon": -116.42376,
    "geoid": "16061",
    "deaths": 0,
    "prop_dmg": "5.82M",
    "crop_dmg": 0,
    "inj": 0,
    "all": 6,
    "eq": [],
    "Hurricane____Typhoon___": [],
    "Cold__FWind_Chill": [],
    "Coastal_Flood": [],
    "Avalanche": [],
    "Astronomical_Low_Tide": [],
    "Dense_Fog": [],
    "Drought": [],
    "Dust_Devil": [],
    "Dust_Storm": [],
    "Excessive_Heat": [],
    "Extreme_Cold__FWind_Chill": [],
    "Flash_Flood": [],
    "Flood": [],
    "Freezing_Fog": [],
    "Funnel_Cloud": [],
    "Hail": [],
    "Heat": [],
    "Heavy_Rain": [
      {
        "type": "Heavy+Rain",
        "time": "0",
        "inj": "0",
        "deaths": "0",
        "prop_dmg": "17.0k",
        "crop_dmg": "0",
        "begin": "06/02/2010",
        "county": "LEWIS CO.",
        "state": "ID"
      },
      {
        "type": "Heavy+Rain",
        "time": "0",
        "inj": "0",
        "deaths": "0",
        "prop_dmg": "32.0k",
        "crop_dmg": "0",
        "begin": "06/02/2010",
        "county": "LEWIS CO.",
        "state": "ID"
      },
      {
        "type": "Heavy+Rain",
        "time": "0",
        "inj": "0",
        "deaths": "0",
        "prop_dmg": "5.00k",
        "crop_dmg": "0",
        "begin": "06/02/2010",
        "county": "LEWIS CO.",
        "state": "ID"
      },
      {
        "type": "Heavy+Rain",
        "time": "0",
        "inj": "0",
        "deaths": "0",
        "prop_dmg": "16.0k",
        "crop_dmg": "0",
        "begin": "06/02/2010",
        "county": "LEWIS CO.",
        "state": "ID"
      }
    ],
    "Heavy_Snow": [],
    "High_Surf": [],
    "High_Wind": [],
    "Ice_Storm": [],
    "Lakeshore_Flood": [],
    "Landslide": [],
    "Lightning": [],
    "Rip_Current": [],
    "Seiche": [],
    "Sleet": [],
    "Storm_Surge__FTide": [],
    "Strong_Wind": [],
    "Thunderstorm_Wind": [],
    "Tornado": [],
    "Tropical_Depression": [],
    "Tropical_Storm": [],
    "Tsunami": [],
    "Volcanic_Ashfall": [],
    "Waterspout": [],
    "Wildfire": [
      {
        "type": "Wildfire",
        "time": "1430",
        "inj": "0",
        "deaths": "0",
        "prop_dmg": "3.50M",
        "crop_dmg": "0",
        "begin": "09/02/2011",
        "county": "LEWIS AND SOUTHERN NEZ PERCE ",
        "state": "ID"
      },
      {
        "type": "Wildfire",
        "time": "2200",
        "inj": "0",
        "deaths": "0",
        "prop_dmg": "2.25M",
        "crop_dmg": "0",
        "begin": "08/02/2014",
        "county": "LEWIS AND SOUTHERN NEZ PERCE ",
        "state": "ID"
      }
    ],
    "Winter_Storm": [],
    "Winter_Weather": []
  },
  "063": {
    "name": "Lincoln County",
    "fips": "ID",
    "pop10": "5208",
    "lat": 42.986181,
    "lon": -114.153899,
    "geoid": "16063",
    "deaths": 0,
    "prop_dmg": "883k",
    "crop_dmg": "3.25M",
    "inj": 0,
    "all": 5,
    "eq": [],
    "Hurricane____Typhoon___": [],
    "Cold__FWind_Chill": [],
    "Coastal_Flood": [],
    "Avalanche": [],
    "Astronomical_Low_Tide": [],
    "Dense_Fog": [],
    "Drought": [],
    "Dust_Devil": [],
    "Dust_Storm": [
      {
        "type": "Dust+Storm",
        "time": "1600",
        "inj": "0",
        "deaths": "0",
        "prop_dmg": "85.0k",
        "crop_dmg": "0",
        "begin": "04/11/2012",
        "county": "EASTERN MAGIC VALLEY ",
        "state": "ID"
      }
    ],
    "Excessive_Heat": [],
    "Extreme_Cold__FWind_Chill": [],
    "Flash_Flood": [],
    "Flood": [
      {
        "type": "Flood",
        "time": "600",
        "inj": "0",
        "deaths": "0",
        "prop_dmg": "37.5k",
        "crop_dmg": "0",
        "begin": "01/21/2012",
        "county": "LINCOLN CO.",
        "state": "ID"
      }
    ],
    "Freezing_Fog": [],
    "Funnel_Cloud": [],
    "Hail": [],
    "Heat": [],
    "Heavy_Rain": [
      {
        "type": "Heavy+Rain",
        "time": "1",
        "inj": "0",
        "deaths": "0",
        "prop_dmg": "0",
        "crop_dmg": "3.00M",
        "begin": "08/01/2014",
        "county": "LINCOLN CO.",
        "state": "ID"
      }
    ],
    "Heavy_Snow": [],
    "High_Surf": [],
    "High_Wind": [],
    "Ice_Storm": [],
    "Lakeshore_Flood": [],
    "Landslide": [],
    "Lightning": [],
    "Rip_Current": [],
    "Seiche": [],
    "Sleet": [],
    "Storm_Surge__FTide": [],
    "Strong_Wind": [],
    "Thunderstorm_Wind": [],
    "Tornado": [],
    "Tropical_Depression": [],
    "Tropical_Storm": [],
    "Tsunami": [],
    "Volcanic_Ashfall": [],
    "Waterspout": [],
    "Wildfire": [
      {
        "type": "Wildfire",
        "time": "1800",
        "inj": "0",
        "deaths": "0",
        "prop_dmg": "750k",
        "crop_dmg": "250k",
        "begin": "08/10/2000",
        "county": "LINCOLN CO.",
        "state": "ID"
      },
      {
        "type": "Wildfire",
        "time": "1300",
        "inj": "0",
        "deaths": "0",
        "prop_dmg": "10.0k",
        "crop_dmg": "0",
        "begin": "07/06/2007",
        "county": "EASTERN MAGIC VALLEY ",
        "state": "ID"
      }
    ],
    "Winter_Storm": [],
    "Winter_Weather": []
  },
  "065": {
    "name": "Madison County",
    "fips": "ID",
    "pop10": "37536",
    "lat": 43.789709,
    "lon": -111.65655,
    "geoid": "16065",
    "deaths": 0,
    "prop_dmg": "404k",
    "crop_dmg": "2.00M",
    "inj": 0,
    "all": 5,
    "eq": [],
    "Hurricane____Typhoon___": [],
    "Cold__FWind_Chill": [],
    "Coastal_Flood": [],
    "Avalanche": [],
    "Astronomical_Low_Tide": [],
    "Dense_Fog": [],
    "Drought": [],
    "Dust_Devil": [],
    "Dust_Storm": [],
    "Excessive_Heat": [],
    "Extreme_Cold__FWind_Chill": [],
    "Flash_Flood": [
      {
        "type": "Flash+Flood",
        "time": "1100",
        "inj": "0",
        "deaths": "0",
        "prop_dmg": "357k",
        "crop_dmg": "0",
        "begin": "02/28/2006",
        "county": "MADISON CO.",
        "state": "ID"
      }
    ],
    "Flood": [
      {
        "type": "Flood",
        "time": "100",
        "inj": "0",
        "deaths": "0",
        "prop_dmg": "2.00k",
        "crop_dmg": "0",
        "begin": "06/01/2011",
        "county": "MADISON CO.",
        "state": "ID"
      }
    ],
    "Freezing_Fog": [],
    "Funnel_Cloud": [],
    "Hail": [],
    "Heat": [],
    "Heavy_Rain": [
      {
        "type": "Heavy+Rain",
        "time": "1",
        "inj": "0",
        "deaths": "0",
        "prop_dmg": "0",
        "crop_dmg": "2.00M",
        "begin": "08/01/2014",
        "county": "MADISON CO.",
        "state": "ID"
      }
    ],
    "Heavy_Snow": [],
    "High_Surf": [],
    "High_Wind": [],
    "Ice_Storm": [],
    "Lakeshore_Flood": [],
    "Landslide": [],
    "Lightning": [
      {
        "type": "Lightning",
        "time": "800",
        "inj": "0",
        "deaths": "0",
        "prop_dmg": "20.0k",
        "crop_dmg": "0",
        "begin": "08/18/2000",
        "county": "MADISON CO.",
        "state": "ID"
      }
    ],
    "Rip_Current": [],
    "Seiche": [],
    "Sleet": [],
    "Storm_Surge__FTide": [],
    "Strong_Wind": [],
    "Thunderstorm_Wind": [],
    "Tornado": [
      {
        "type": "Tornado",
        "time": "1800",
        "inj": "0",
        "deaths": "0",
        "prop_dmg": "25.0k",
        "crop_dmg": "0",
        "begin": "09/26/1959",
        "county": "MADISON CO.",
        "state": "ID"
      }
    ],
    "Tropical_Depression": [],
    "Tropical_Storm": [],
    "Tsunami": [],
    "Volcanic_Ashfall": [],
    "Waterspout": [],
    "Wildfire": [],
    "Winter_Storm": [],
    "Winter_Weather": []
  },
  "067": {
    "name": "Minidoka County",
    "fips": "ID",
    "pop10": "20069",
    "lat": 42.856937,
    "lon": -113.64001,
    "geoid": "16067",
    "deaths": 0,
    "prop_dmg": "250k",
    "crop_dmg": "4.00M",
    "inj": 0,
    "all": 2,
    "eq": [],
    "Hurricane____Typhoon___": [],
    "Cold__FWind_Chill": [],
    "Coastal_Flood": [],
    "Avalanche": [],
    "Astronomical_Low_Tide": [],
    "Dense_Fog": [],
    "Drought": [],
    "Dust_Devil": [],
    "Dust_Storm": [],
    "Excessive_Heat": [],
    "Extreme_Cold__FWind_Chill": [],
    "Flash_Flood": [],
    "Flood": [],
    "Freezing_Fog": [],
    "Funnel_Cloud": [],
    "Hail": [],
    "Heat": [],
    "Heavy_Rain": [
      {
        "type": "Heavy+Rain",
        "time": "1",
        "inj": "0",
        "deaths": "0",
        "prop_dmg": "0",
        "crop_dmg": "4.00M",
        "begin": "08/01/2014",
        "county": "MINIDOKA CO.",
        "state": "ID"
      }
    ],
    "Heavy_Snow": [],
    "High_Surf": [],
    "High_Wind": [],
    "Ice_Storm": [],
    "Lakeshore_Flood": [],
    "Landslide": [],
    "Lightning": [],
    "Rip_Current": [],
    "Seiche": [],
    "Sleet": [],
    "Storm_Surge__FTide": [],
    "Strong_Wind": [],
    "Thunderstorm_Wind": [],
    "Tornado": [
      {
        "type": "Tornado",
        "time": "1536",
        "inj": "0",
        "deaths": "0",
        "prop_dmg": "250k",
        "crop_dmg": "0",
        "begin": "05/18/1991",
        "county": "MINIDOKA CO.",
        "state": "ID"
      }
    ],
    "Tropical_Depression": [],
    "Tropical_Storm": [],
    "Tsunami": [],
    "Volcanic_Ashfall": [],
    "Waterspout": [],
    "Wildfire": [],
    "Winter_Storm": [],
    "Winter_Weather": []
  },
  "069": {
    "name": "Nez Perce County",
    "fips": "ID",
    "pop10": "39265",
    "lat": 46.333766,
    "lon": -116.760903,
    "geoid": "16069",
    "deaths": 0,
    "prop_dmg": "139k",
    "crop_dmg": 0,
    "inj": 0,
    "all": 5,
    "eq": [],
    "Hurricane____Typhoon___": [],
    "Cold__FWind_Chill": [],
    "Coastal_Flood": [],
    "Avalanche": [],
    "Astronomical_Low_Tide": [],
    "Dense_Fog": [
      {
        "type": "Dense+Fog",
        "time": "400",
        "inj": "0",
        "deaths": "0",
        "prop_dmg": "10.0k",
        "crop_dmg": "0",
        "begin": "01/02/1999",
        "county": "N NEZ PERCE COUNTY ",
        "state": "ID"
      }
    ],
    "Drought": [],
    "Dust_Devil": [],
    "Dust_Storm": [],
    "Excessive_Heat": [],
    "Extreme_Cold__FWind_Chill": [],
    "Flash_Flood": [
      {
        "type": "Flash+Flood",
        "time": "1447",
        "inj": "0",
        "deaths": "0",
        "prop_dmg": "3.00k",
        "crop_dmg": "0",
        "begin": "05/19/2006",
        "county": "NEZ PERCE CO.",
        "state": "ID"
      }
    ],
    "Flood": [],
    "Freezing_Fog": [],
    "Funnel_Cloud": [],
    "Hail": [],
    "Heat": [],
    "Heavy_Rain": [],
    "Heavy_Snow": [],
    "High_Surf": [],
    "High_Wind": [],
    "Ice_Storm": [],
    "Lakeshore_Flood": [],
    "Landslide": [],
    "Lightning": [
      {
        "type": "Lightning",
        "time": "1540",
        "inj": "0",
        "deaths": "0",
        "prop_dmg": "500",
        "crop_dmg": "0",
        "begin": "08/12/2014",
        "county": "NEZ PERCE CO.",
        "state": "ID"
      }
    ],
    "Rip_Current": [],
    "Seiche": [],
    "Sleet": [],
    "Storm_Surge__FTide": [],
    "Strong_Wind": [],
    "Thunderstorm_Wind": [],
    "Tornado": [
      {
        "type": "Tornado",
        "time": "1600",
        "inj": "0",
        "deaths": "0",
        "prop_dmg": "25.0k",
        "crop_dmg": "0",
        "begin": "05/08/1962",
        "county": "NEZ PERCE CO.",
        "state": "ID"
      }
    ],
    "Tropical_Depression": [],
    "Tropical_Storm": [],
    "Tsunami": [],
    "Volcanic_Ashfall": [],
    "Waterspout": [],
    "Wildfire": [
      {
        "type": "Wildfire",
        "time": "1400",
        "inj": "0",
        "deaths": "0",
        "prop_dmg": "100k",
        "crop_dmg": "0",
        "begin": "08/19/2013",
        "county": "LEWISTON AREA ",
        "state": "ID"
      }
    ],
    "Winter_Storm": [],
    "Winter_Weather": []
  },
  "071": {
    "name": "Oneida County",
    "fips": "ID",
    "pop10": "4286",
    "lat": 42.18389,
    "lon": -112.520465,
    "geoid": "16071",
    "deaths": 1,
    "prop_dmg": "18.0k",
    "crop_dmg": "3.00M",
    "inj": 0,
    "all": 5,
    "eq": [
      {
        "type": "earthquake",
        "begin": "3/28/1975",
        "inj": "",
        "prop_dmg": "",
        "crop_dmg": "",
        "county": "IDAHO:  POCATELLO VALLEY",
        "state": "ID",
        "deaths": ""
      }
    ],
    "Hurricane____Typhoon___": [],
    "Cold__FWind_Chill": [],
    "Coastal_Flood": [],
    "Avalanche": [],
    "Astronomical_Low_Tide": [],
    "Dense_Fog": [],
    "Drought": [],
    "Dust_Devil": [],
    "Dust_Storm": [],
    "Excessive_Heat": [],
    "Extreme_Cold__FWind_Chill": [],
    "Flash_Flood": [],
    "Flood": [
      {
        "type": "Flood",
        "time": "600",
        "inj": "0",
        "deaths": "0",
        "prop_dmg": "8.00k",
        "crop_dmg": "0",
        "begin": "01/21/2012",
        "county": "ONEIDA CO.",
        "state": "ID"
      },
      {
        "type": "Flood",
        "time": "1400",
        "inj": "0",
        "deaths": "0",
        "prop_dmg": "10.0k",
        "crop_dmg": "0",
        "begin": "02/22/2012",
        "county": "ONEIDA CO.",
        "state": "ID"
      }
    ],
    "Freezing_Fog": [],
    "Funnel_Cloud": [],
    "Hail": [],
    "Heat": [],
    "Heavy_Rain": [
      {
        "type": "Heavy+Rain",
        "time": "1738",
        "inj": "0",
        "deaths": "1",
        "prop_dmg": "0",
        "crop_dmg": "0",
        "begin": "08/12/1997",
        "county": "ONEIDA CO.",
        "state": "ID"
      },
      {
        "type": "Heavy+Rain",
        "time": "1",
        "inj": "0",
        "deaths": "0",
        "prop_dmg": "0",
        "crop_dmg": "3.00M",
        "begin": "08/01/2014",
        "county": "ONEIDA CO.",
        "state": "ID"
      }
    ],
    "Heavy_Snow": [],
    "High_Surf": [],
    "High_Wind": [],
    "Ice_Storm": [],
    "Lakeshore_Flood": [],
    "Landslide": [],
    "Lightning": [],
    "Rip_Current": [],
    "Seiche": [],
    "Sleet": [],
    "Storm_Surge__FTide": [],
    "Strong_Wind": [],
    "Thunderstorm_Wind": [],
    "Tornado": [],
    "Tropical_Depression": [],
    "Tropical_Storm": [],
    "Tsunami": [],
    "Volcanic_Ashfall": [],
    "Waterspout": [],
    "Wildfire": [],
    "Winter_Storm": [],
    "Winter_Weather": []
  },
  "073": {
    "name": "Owyhee County",
    "fips": "ID",
    "pop10": "11526",
    "lat": 42.593063,
    "lon": -116.142655,
    "geoid": "16073",
    "deaths": 1,
    "prop_dmg": "10.0k",
    "crop_dmg": 0,
    "inj": 0,
    "all": 2,
    "eq": [],
    "Hurricane____Typhoon___": [],
    "Cold__FWind_Chill": [],
    "Coastal_Flood": [],
    "Avalanche": [],
    "Astronomical_Low_Tide": [],
    "Dense_Fog": [],
    "Drought": [],
    "Dust_Devil": [],
    "Dust_Storm": [],
    "Excessive_Heat": [],
    "Extreme_Cold__FWind_Chill": [],
    "Flash_Flood": [
      {
        "type": "Flash+Flood",
        "time": "2000",
        "inj": "0",
        "deaths": "1",
        "prop_dmg": "0",
        "crop_dmg": "0",
        "begin": "06/06/2009",
        "county": "OWYHEE CO.",
        "state": "ID"
      }
    ],
    "Flood": [],
    "Freezing_Fog": [],
    "Funnel_Cloud": [],
    "Hail": [],
    "Heat": [],
    "Heavy_Rain": [
      {
        "type": "Heavy+Rain",
        "time": "1630",
        "inj": "0",
        "deaths": "0",
        "prop_dmg": "10.0k",
        "crop_dmg": "0",
        "begin": "07/30/1996",
        "county": "OWYHEE CO.",
        "state": "ID"
      }
    ],
    "Heavy_Snow": [],
    "High_Surf": [],
    "High_Wind": [],
    "Ice_Storm": [],
    "Lakeshore_Flood": [],
    "Landslide": [],
    "Lightning": [],
    "Rip_Current": [],
    "Seiche": [],
    "Sleet": [],
    "Storm_Surge__FTide": [],
    "Strong_Wind": [],
    "Thunderstorm_Wind": [],
    "Tornado": [],
    "Tropical_Depression": [],
    "Tropical_Storm": [],
    "Tsunami": [],
    "Volcanic_Ashfall": [],
    "Waterspout": [],
    "Wildfire": [],
    "Winter_Storm": [],
    "Winter_Weather": []
  },
  "075": {
    "name": "Payette County",
    "fips": "ID",
    "pop10": "22623",
    "lat": 44.00274,
    "lon": -116.748655,
    "geoid": "16075",
    "deaths": 0,
    "prop_dmg": "1.00M",
    "crop_dmg": 0,
    "inj": 0,
    "all": 1,
    "eq": [],
    "Hurricane____Typhoon___": [],
    "Cold__FWind_Chill": [],
    "Coastal_Flood": [],
    "Avalanche": [],
    "Astronomical_Low_Tide": [],
    "Dense_Fog": [],
    "Drought": [],
    "Dust_Devil": [],
    "Dust_Storm": [],
    "Excessive_Heat": [],
    "Extreme_Cold__FWind_Chill": [],
    "Flash_Flood": [],
    "Flood": [
      {
        "type": "Flood",
        "time": "1700",
        "inj": "0",
        "deaths": "0",
        "prop_dmg": "1.00M",
        "crop_dmg": "0",
        "begin": "06/05/2010",
        "county": "PAYETTE CO.",
        "state": "ID"
      }
    ],
    "Freezing_Fog": [],
    "Funnel_Cloud": [],
    "Hail": [],
    "Heat": [],
    "Heavy_Rain": [],
    "Heavy_Snow": [],
    "High_Surf": [],
    "High_Wind": [],
    "Ice_Storm": [],
    "Lakeshore_Flood": [],
    "Landslide": [],
    "Lightning": [],
    "Rip_Current": [],
    "Seiche": [],
    "Sleet": [],
    "Storm_Surge__FTide": [],
    "Strong_Wind": [],
    "Thunderstorm_Wind": [],
    "Tornado": [],
    "Tropical_Depression": [],
    "Tropical_Storm": [],
    "Tsunami": [],
    "Volcanic_Ashfall": [],
    "Waterspout": [],
    "Wildfire": [],
    "Winter_Storm": [],
    "Winter_Weather": []
  },
  "077": {
    "name": "Power County",
    "fips": "ID",
    "pop10": "7817",
    "lat": 42.694126,
    "lon": -112.844407,
    "geoid": "16077",
    "deaths": 0,
    "prop_dmg": "260k",
    "crop_dmg": "7.00M",
    "inj": 0,
    "all": 4,
    "eq": [],
    "Hurricane____Typhoon___": [],
    "Cold__FWind_Chill": [],
    "Coastal_Flood": [],
    "Avalanche": [],
    "Astronomical_Low_Tide": [],
    "Dense_Fog": [],
    "Drought": [],
    "Dust_Devil": [],
    "Dust_Storm": [],
    "Excessive_Heat": [],
    "Extreme_Cold__FWind_Chill": [],
    "Flash_Flood": [
      {
        "type": "Flash+Flood",
        "time": "1100",
        "inj": "0",
        "deaths": "0",
        "prop_dmg": "4.50k",
        "crop_dmg": "0",
        "begin": "02/28/2006",
        "county": "POWER CO.",
        "state": "ID"
      }
    ],
    "Flood": [
      {
        "type": "Flood",
        "time": "1300",
        "inj": "0",
        "deaths": "0",
        "prop_dmg": "5.00k",
        "crop_dmg": "0",
        "begin": "02/22/2012",
        "county": "POWER CO.",
        "state": "ID"
      }
    ],
    "Freezing_Fog": [],
    "Funnel_Cloud": [],
    "Hail": [],
    "Heat": [],
    "Heavy_Rain": [
      {
        "type": "Heavy+Rain",
        "time": "1",
        "inj": "0",
        "deaths": "0",
        "prop_dmg": "0",
        "crop_dmg": "7.00M",
        "begin": "08/01/2014",
        "county": "POWER CO.",
        "state": "ID"
      }
    ],
    "Heavy_Snow": [],
    "High_Surf": [],
    "High_Wind": [],
    "Ice_Storm": [],
    "Lakeshore_Flood": [],
    "Landslide": [],
    "Lightning": [],
    "Rip_Current": [],
    "Seiche": [],
    "Sleet": [],
    "Storm_Surge__FTide": [],
    "Strong_Wind": [],
    "Thunderstorm_Wind": [],
    "Tornado": [
      {
        "type": "Tornado",
        "time": "1325",
        "inj": "0",
        "deaths": "0",
        "prop_dmg": "250k",
        "crop_dmg": "0",
        "begin": "08/17/1990",
        "county": "POWER CO.",
        "state": "ID"
      }
    ],
    "Tropical_Depression": [],
    "Tropical_Storm": [],
    "Tsunami": [],
    "Volcanic_Ashfall": [],
    "Waterspout": [],
    "Wildfire": [],
    "Winter_Storm": [],
    "Winter_Weather": []
  },
  "079": {
    "name": "Shoshone County",
    "fips": "ID",
    "pop10": "12765",
    "lat": 47.347694,
    "lon": -115.885092,
    "geoid": "16079",
    "deaths": 2,
    "prop_dmg": "1.19M",
    "crop_dmg": 0,
    "inj": 2,
    "all": 11,
    "eq": [],
    "Hurricane____Typhoon___": [],
    "Cold__FWind_Chill": [],
    "Coastal_Flood": [],
    "Avalanche": [
      {
        "type": "Avalanche",
        "time": "2100",
        "inj": "0",
        "deaths": "0",
        "prop_dmg": "20.0k",
        "crop_dmg": "0",
        "begin": "02/25/1999",
        "county": "CENTRAL PANHANDLE MOUNTAINS ",
        "state": "ID"
      }
    ],
    "Astronomical_Low_Tide": [],
    "Dense_Fog": [],
    "Drought": [],
    "Dust_Devil": [],
    "Dust_Storm": [],
    "Excessive_Heat": [],
    "Extreme_Cold__FWind_Chill": [],
    "Flash_Flood": [
      {
        "type": "Flash+Flood",
        "time": "1400",
        "inj": "0",
        "deaths": "0",
        "prop_dmg": "12.0k",
        "crop_dmg": "0",
        "begin": "01/12/1999",
        "county": "SHOSHONE CO.",
        "state": "ID"
      }
    ],
    "Flood": [
      {
        "type": "Flood",
        "time": "900",
        "inj": "0",
        "deaths": "0",
        "prop_dmg": "40.0k",
        "crop_dmg": "0",
        "begin": "04/14/2000",
        "county": "CENTRAL PANHANDLE MOUNTAINS ",
        "state": "ID"
      },
      {
        "type": "Flood",
        "time": "1800",
        "inj": "0",
        "deaths": "0",
        "prop_dmg": "15.0k",
        "crop_dmg": "0",
        "begin": "08/21/2002",
        "county": "SHOSHONE CO.",
        "state": "ID"
      },
      {
        "type": "Flood",
        "time": "0",
        "inj": "0",
        "deaths": "0",
        "prop_dmg": "20.0k",
        "crop_dmg": "0",
        "begin": "02/01/2003",
        "county": "CENTRAL PANHANDLE MOUNTAINS ",
        "state": "ID"
      },
      {
        "type": "Flood",
        "time": "2300",
        "inj": "0",
        "deaths": "0",
        "prop_dmg": "1.00M",
        "crop_dmg": "0",
        "begin": "01/16/2011",
        "county": "SHOSHONE CO.",
        "state": "ID"
      },
      {
        "type": "Flood",
        "time": "1000",
        "inj": "0",
        "deaths": "0",
        "prop_dmg": "30.0k",
        "crop_dmg": "0",
        "begin": "01/17/2011",
        "county": "SHOSHONE CO.",
        "state": "ID"
      },
      {
        "type": "Flood",
        "time": "0",
        "inj": "0",
        "deaths": "0",
        "prop_dmg": "30.0k",
        "crop_dmg": "0",
        "begin": "03/28/2012",
        "county": "SHOSHONE CO.",
        "state": "ID"
      }
    ],
    "Freezing_Fog": [],
    "Funnel_Cloud": [],
    "Hail": [],
    "Heat": [],
    "Heavy_Rain": [],
    "Heavy_Snow": [
      {
        "type": "Heavy+Snow",
        "time": "800",
        "inj": "0",
        "deaths": "2",
        "prop_dmg": "0",
        "crop_dmg": "0",
        "begin": "01/15/2005",
        "county": "CENTRAL PANHANDLE MOUNTAINS ",
        "state": "ID"
      }
    ],
    "High_Surf": [],
    "High_Wind": [],
    "Ice_Storm": [],
    "Lakeshore_Flood": [],
    "Landslide": [],
    "Lightning": [],
    "Rip_Current": [],
    "Seiche": [],
    "Sleet": [],
    "Storm_Surge__FTide": [],
    "Strong_Wind": [],
    "Thunderstorm_Wind": [],
    "Tornado": [],
    "Tropical_Depression": [],
    "Tropical_Storm": [],
    "Tsunami": [],
    "Volcanic_Ashfall": [],
    "Waterspout": [],
    "Wildfire": [
      {
        "type": "Wildfire",
        "time": "1400",
        "inj": "0",
        "deaths": "0",
        "prop_dmg": "20.0k",
        "crop_dmg": "0",
        "begin": "09/14/1998",
        "county": "SHOSHONE CO.",
        "state": "ID"
      }
    ],
    "Winter_Storm": [],
    "Winter_Weather": [
      {
        "type": "Winter+Weather",
        "time": "1120",
        "inj": "2",
        "deaths": "0",
        "prop_dmg": "0",
        "crop_dmg": "0",
        "begin": "01/11/2008",
        "county": "CENTRAL PANHANDLE MOUNTAINS ",
        "state": "ID"
      }
    ]
  },
  "081": {
    "name": "Teton County",
    "fips": "ID",
    "pop10": "10170",
    "lat": 43.760994,
    "lon": -111.211765,
    "geoid": "16081",
    "deaths": 0,
    "prop_dmg": "43.0k",
    "crop_dmg": "2.00M",
    "inj": 0,
    "all": 4,
    "eq": [],
    "Hurricane____Typhoon___": [],
    "Cold__FWind_Chill": [],
    "Coastal_Flood": [],
    "Avalanche": [],
    "Astronomical_Low_Tide": [],
    "Dense_Fog": [],
    "Drought": [],
    "Dust_Devil": [],
    "Dust_Storm": [],
    "Excessive_Heat": [],
    "Extreme_Cold__FWind_Chill": [],
    "Flash_Flood": [
      {
        "type": "Flash+Flood",
        "time": "400",
        "inj": "0",
        "deaths": "0",
        "prop_dmg": "2.00k",
        "crop_dmg": "0",
        "begin": "06/07/2011",
        "county": "TETON CO.",
        "state": "ID"
      }
    ],
    "Flood": [],
    "Freezing_Fog": [],
    "Funnel_Cloud": [],
    "Hail": [],
    "Heat": [],
    "Heavy_Rain": [
      {
        "type": "Heavy+Rain",
        "time": "1",
        "inj": "0",
        "deaths": "0",
        "prop_dmg": "0",
        "crop_dmg": "2.00M",
        "begin": "08/01/2014",
        "county": "TETON CO.",
        "state": "ID"
      }
    ],
    "Heavy_Snow": [],
    "High_Surf": [],
    "High_Wind": [],
    "Ice_Storm": [],
    "Lakeshore_Flood": [],
    "Landslide": [],
    "Lightning": [
      {
        "type": "Lightning",
        "time": "1800",
        "inj": "0",
        "deaths": "0",
        "prop_dmg": "21.0k",
        "crop_dmg": "0",
        "begin": "07/18/1999",
        "county": "TETON CO.",
        "state": "ID"
      },
      {
        "type": "Lightning",
        "time": "1345",
        "inj": "0",
        "deaths": "0",
        "prop_dmg": "20.0k",
        "crop_dmg": "0",
        "begin": "10/13/2013",
        "county": "TETON CO.",
        "state": "ID"
      }
    ],
    "Rip_Current": [],
    "Seiche": [],
    "Sleet": [],
    "Storm_Surge__FTide": [],
    "Strong_Wind": [],
    "Thunderstorm_Wind": [],
    "Tornado": [],
    "Tropical_Depression": [],
    "Tropical_Storm": [],
    "Tsunami": [],
    "Volcanic_Ashfall": [],
    "Waterspout": [],
    "Wildfire": [],
    "Winter_Storm": [],
    "Winter_Weather": []
  },
  "083": {
    "name": "Twin Falls County",
    "fips": "ID",
    "pop10": "77230",
    "lat": 42.352309,
    "lon": -114.665639,
    "geoid": "16083",
    "deaths": 0,
    "prop_dmg": "5.00k",
    "crop_dmg": 0,
    "inj": 0,
    "all": 1,
    "eq": [],
    "Hurricane____Typhoon___": [],
    "Cold__FWind_Chill": [],
    "Coastal_Flood": [],
    "Avalanche": [],
    "Astronomical_Low_Tide": [],
    "Dense_Fog": [],
    "Drought": [],
    "Dust_Devil": [],
    "Dust_Storm": [],
    "Excessive_Heat": [],
    "Extreme_Cold__FWind_Chill": [],
    "Flash_Flood": [],
    "Flood": [],
    "Freezing_Fog": [],
    "Funnel_Cloud": [],
    "Hail": [],
    "Heat": [],
    "Heavy_Rain": [
      {
        "type": "Heavy+Rain",
        "time": "1010",
        "inj": "0",
        "deaths": "0",
        "prop_dmg": "5.00k",
        "crop_dmg": "0",
        "begin": "05/16/1996",
        "county": "TWIN FALLS CO.",
        "state": "ID"
      }
    ],
    "Heavy_Snow": [],
    "High_Surf": [],
    "High_Wind": [],
    "Ice_Storm": [],
    "Lakeshore_Flood": [],
    "Landslide": [],
    "Lightning": [],
    "Rip_Current": [],
    "Seiche": [],
    "Sleet": [],
    "Storm_Surge__FTide": [],
    "Strong_Wind": [],
    "Thunderstorm_Wind": [],
    "Tornado": [],
    "Tropical_Depression": [],
    "Tropical_Storm": [],
    "Tsunami": [],
    "Volcanic_Ashfall": [],
    "Waterspout": [],
    "Wildfire": [],
    "Winter_Storm": [],
    "Winter_Weather": []
  },
  "085": {
    "name": "Valley County",
    "fips": "ID",
    "pop10": "9862",
    "lat": 44.771532,
    "lon": -115.637875,
    "geoid": "16085",
    "deaths": 1,
    "prop_dmg": "10.0k",
    "crop_dmg": 0,
    "inj": 3,
    "all": 3,
    "eq": [],
    "Hurricane____Typhoon___": [],
    "Cold__FWind_Chill": [],
    "Coastal_Flood": [],
    "Avalanche": [],
    "Astronomical_Low_Tide": [],
    "Dense_Fog": [],
    "Drought": [],
    "Dust_Devil": [],
    "Dust_Storm": [],
    "Excessive_Heat": [],
    "Extreme_Cold__FWind_Chill": [],
    "Flash_Flood": [
      {
        "type": "Flash+Flood",
        "time": "1400",
        "inj": "0",
        "deaths": "0",
        "prop_dmg": "10.0k",
        "crop_dmg": "0",
        "begin": "06/04/2010",
        "county": "VALLEY CO.",
        "state": "ID"
      }
    ],
    "Flood": [],
    "Freezing_Fog": [],
    "Funnel_Cloud": [],
    "Hail": [],
    "Heat": [],
    "Heavy_Rain": [],
    "Heavy_Snow": [],
    "High_Surf": [],
    "High_Wind": [],
    "Ice_Storm": [],
    "Lakeshore_Flood": [],
    "Landslide": [],
    "Lightning": [
      {
        "type": "Lightning",
        "time": "1830",
        "inj": "2",
        "deaths": "0",
        "prop_dmg": "0",
        "crop_dmg": "0",
        "begin": "07/03/1998",
        "county": "VALLEY CO.",
        "state": "ID"
      }
    ],
    "Rip_Current": [],
    "Seiche": [],
    "Sleet": [],
    "Storm_Surge__FTide": [],
    "Strong_Wind": [],
    "Thunderstorm_Wind": [],
    "Tornado": [],
    "Tropical_Depression": [],
    "Tropical_Storm": [],
    "Tsunami": [],
    "Volcanic_Ashfall": [],
    "Waterspout": [],
    "Wildfire": [],
    "Winter_Storm": [],
    "Winter_Weather": [
      {
        "type": "Winter+Weather",
        "time": "2000",
        "inj": "1",
        "deaths": "1",
        "prop_dmg": "0",
        "crop_dmg": "0",
        "begin": "10/29/2009",
        "county": "WEST CENTRAL MOUNTAINS ",
        "state": "ID"
      }
    ]
  },
  "087": {
    "name": "Washington County",
    "fips": "ID",
    "pop10": "10198",
    "lat": 44.448213,
    "lon": -116.79783,
    "geoid": "16087",
    "deaths": 0,
    "prop_dmg": "1.14M",
    "crop_dmg": 0,
    "inj": 0,
    "all": 2,
    "eq": [],
    "Hurricane____Typhoon___": [],
    "Cold__FWind_Chill": [],
    "Coastal_Flood": [],
    "Avalanche": [],
    "Astronomical_Low_Tide": [],
    "Dense_Fog": [],
    "Drought": [],
    "Dust_Devil": [],
    "Dust_Storm": [],
    "Excessive_Heat": [],
    "Extreme_Cold__FWind_Chill": [],
    "Flash_Flood": [
      {
        "type": "Flash+Flood",
        "time": "1300",
        "inj": "0",
        "deaths": "0",
        "prop_dmg": "140k",
        "crop_dmg": "0",
        "begin": "06/04/2010",
        "county": "WASHINGTON CO.",
        "state": "ID"
      }
    ],
    "Flood": [
      {
        "type": "Flood",
        "time": "1600",
        "inj": "0",
        "deaths": "0",
        "prop_dmg": "1.00M",
        "crop_dmg": "0",
        "begin": "06/04/2010",
        "county": "WASHINGTON CO.",
        "state": "ID"
      }
    ],
    "Freezing_Fog": [],
    "Funnel_Cloud": [],
    "Hail": [],
    "Heat": [],
    "Heavy_Rain": [],
    "Heavy_Snow": [],
    "High_Surf": [],
    "High_Wind": [],
    "Ice_Storm": [],
    "Lakeshore_Flood": [],
    "Landslide": [],
    "Lightning": [],
    "Rip_Current": [],
    "Seiche": [],
    "Sleet": [],
    "Storm_Surge__FTide": [],
    "Strong_Wind": [],
    "Thunderstorm_Wind": [],
    "Tornado": [],
    "Tropical_Depression": [],
    "Tropical_Storm": [],
    "Tsunami": [],
    "Volcanic_Ashfall": [],
    "Waterspout": [],
    "Wildfire": [],
    "Winter_Storm": [],
    "Winter_Weather": []
  }
}