{
  "001": {
    "name": "Bernalillo County",
    "fips": "NM",
    "pop10": "662564",
    "lat": 35.054002,
    "lon": -106.669064,
    "geoid": "35001",
    "deaths": 2,
    "prop_dmg": "3.25M",
    "crop_dmg": 0,
    "inj": 10,
    "all": 19,
    "eq": [],
    "Hurricane____Typhoon___": [],
    "Cold__FWind_Chill": [],
    "Coastal_Flood": [],
    "Avalanche": [],
    "Astronomical_Low_Tide": [],
    "Dense_Fog": [],
    "Drought": [],
    "Dust_Devil": [],
    "Dust_Storm": [],
    "Excessive_Heat": [],
    "Extreme_Cold__FWind_Chill": [],
    "Flash_Flood": [
      {
        "type": "Flash+Flood",
        "time": "1800",
        "inj": "0",
        "deaths": "0",
        "prop_dmg": "1.20M",
        "crop_dmg": "0",
        "begin": "06/16/1999",
        "county": "BERNALILLO CO.",
        "state": "NM"
      },
      {
        "type": "Flash+Flood",
        "time": "1700",
        "inj": "0",
        "deaths": "0",
        "prop_dmg": "2.00k",
        "crop_dmg": "0",
        "begin": "07/24/2012",
        "county": "BERNALILLO CO.",
        "state": "NM"
      }
    ],
    "Flood": [],
    "Freezing_Fog": [],
    "Funnel_Cloud": [],
    "Hail": [],
    "Heat": [
      {
        "type": "Heat",
        "time": "800",
        "inj": "0",
        "deaths": "1",
        "prop_dmg": "0",
        "crop_dmg": "0",
        "begin": "07/14/2010",
        "county": "ALBUQUERQUE METRO AREA ",
        "state": "NM"
      }
    ],
    "Heavy_Rain": [
      {
        "type": "Heavy+Rain",
        "time": "1830",
        "inj": "1",
        "deaths": "0",
        "prop_dmg": "0",
        "crop_dmg": "0",
        "begin": "07/10/1997",
        "county": "BERNALILLO CO.",
        "state": "NM"
      },
      {
        "type": "Heavy+Rain",
        "time": "1830",
        "inj": "0",
        "deaths": "0",
        "prop_dmg": "50.0k",
        "crop_dmg": "0",
        "begin": "08/25/1998",
        "county": "BERNALILLO CO.",
        "state": "NM"
      },
      {
        "type": "Heavy+Rain",
        "time": "2200",
        "inj": "0",
        "deaths": "0",
        "prop_dmg": "1.00M",
        "crop_dmg": "0",
        "begin": "10/04/2004",
        "county": "BERNALILLO CO.",
        "state": "NM"
      },
      {
        "type": "Heavy+Rain",
        "time": "1740",
        "inj": "1",
        "deaths": "0",
        "prop_dmg": "0",
        "crop_dmg": "0",
        "begin": "08/18/2006",
        "county": "BERNALILLO CO.",
        "state": "NM"
      },
      {
        "type": "Heavy+Rain",
        "time": "1400",
        "inj": "0",
        "deaths": "0",
        "prop_dmg": "4.00k",
        "crop_dmg": "0",
        "begin": "07/26/2010",
        "county": "BERNALILLO CO.",
        "state": "NM"
      },
      {
        "type": "Heavy+Rain",
        "time": "1500",
        "inj": "0",
        "deaths": "0",
        "prop_dmg": "20.0k",
        "crop_dmg": "0",
        "begin": "07/19/2013",
        "county": "BERNALILLO CO.",
        "state": "NM"
      },
      {
        "type": "Heavy+Rain",
        "time": "0",
        "inj": "0",
        "deaths": "0",
        "prop_dmg": "250k",
        "crop_dmg": "0",
        "begin": "07/26/2013",
        "county": "BERNALILLO CO.",
        "state": "NM"
      }
    ],
    "Heavy_Snow": [],
    "High_Surf": [],
    "High_Wind": [],
    "Ice_Storm": [],
    "Lakeshore_Flood": [],
    "Landslide": [],
    "Lightning": [
      {
        "type": "Lightning",
        "time": "1630",
        "inj": "0",
        "deaths": "1",
        "prop_dmg": "0",
        "crop_dmg": "0",
        "begin": "08/14/1996",
        "county": "BERNALILLO CO.",
        "state": "NM"
      },
      {
        "type": "Lightning",
        "time": "1515",
        "inj": "3",
        "deaths": "0",
        "prop_dmg": "0",
        "crop_dmg": "0",
        "begin": "07/29/1997",
        "county": "BERNALILLO CO.",
        "state": "NM"
      },
      {
        "type": "Lightning",
        "time": "1515",
        "inj": "1",
        "deaths": "0",
        "prop_dmg": "0",
        "crop_dmg": "0",
        "begin": "07/26/2001",
        "county": "BERNALILLO CO.",
        "state": "NM"
      },
      {
        "type": "Lightning",
        "time": "1830",
        "inj": "1",
        "deaths": "0",
        "prop_dmg": "0",
        "crop_dmg": "0",
        "begin": "07/18/2006",
        "county": "BERNALILLO CO.",
        "state": "NM"
      },
      {
        "type": "Lightning",
        "time": "1700",
        "inj": "0",
        "deaths": "0",
        "prop_dmg": "10.0k",
        "crop_dmg": "0",
        "begin": "07/24/2012",
        "county": "BERNALILLO CO.",
        "state": "NM"
      },
      {
        "type": "Lightning",
        "time": "2000",
        "inj": "3",
        "deaths": "0",
        "prop_dmg": "0",
        "crop_dmg": "0",
        "begin": "07/04/2013",
        "county": "BERNALILLO CO.",
        "state": "NM"
      }
    ],
    "Rip_Current": [],
    "Seiche": [],
    "Sleet": [],
    "Storm_Surge__FTide": [],
    "Strong_Wind": [],
    "Thunderstorm_Wind": [],
    "Tornado": [],
    "Tropical_Depression": [],
    "Tropical_Storm": [],
    "Tsunami": [],
    "Volcanic_Ashfall": [],
    "Waterspout": [],
    "Wildfire": [
      {
        "type": "Wildfire",
        "time": "1300",
        "inj": "0",
        "deaths": "0",
        "prop_dmg": "700k",
        "crop_dmg": "0",
        "begin": "06/26/2011",
        "county": "ALBUQUERQUE METRO AREA ",
        "state": "NM"
      },
      {
        "type": "Wildfire",
        "time": "1440",
        "inj": "0",
        "deaths": "0",
        "prop_dmg": "5.00k",
        "crop_dmg": "0",
        "begin": "01/04/2014",
        "county": "ALBUQUERQUE METRO AREA ",
        "state": "NM"
      },
      {
        "type": "Wildfire",
        "time": "1300",
        "inj": "0",
        "deaths": "0",
        "prop_dmg": "5.00k",
        "crop_dmg": "0",
        "begin": "02/19/2014",
        "county": "ALBUQUERQUE METRO AREA ",
        "state": "NM"
      }
    ],
    "Winter_Storm": [],
    "Winter_Weather": []
  },
  "003": {
    "name": "Catron County",
    "fips": "NM",
    "pop10": "3725",
    "lat": 33.901813,
    "lon": -108.392097,
    "geoid": "35003",
    "deaths": 0,
    "prop_dmg": "7.19M",
    "crop_dmg": "500",
    "inj": 18,
    "all": 7,
    "eq": [],
    "Hurricane____Typhoon___": [],
    "Cold__FWind_Chill": [],
    "Coastal_Flood": [],
    "Avalanche": [],
    "Astronomical_Low_Tide": [],
    "Dense_Fog": [],
    "Drought": [],
    "Dust_Devil": [],
    "Dust_Storm": [],
    "Excessive_Heat": [],
    "Extreme_Cold__FWind_Chill": [],
    "Flash_Flood": [
      {
        "type": "Flash+Flood",
        "time": "2100",
        "inj": "0",
        "deaths": "0",
        "prop_dmg": "10.0k",
        "crop_dmg": "500",
        "begin": "01/27/2008",
        "county": "CATRON CO.",
        "state": "NM"
      }
    ],
    "Flood": [
      {
        "type": "Flood",
        "time": "1800",
        "inj": "0",
        "deaths": "0",
        "prop_dmg": "25.0k",
        "crop_dmg": "0",
        "begin": "01/27/2008",
        "county": "CATRON CO.",
        "state": "NM"
      },
      {
        "type": "Flood",
        "time": "0",
        "inj": "0",
        "deaths": "0",
        "prop_dmg": "5.00k",
        "crop_dmg": "0",
        "begin": "01/22/2010",
        "county": "CATRON CO.",
        "state": "NM"
      }
    ],
    "Freezing_Fog": [],
    "Funnel_Cloud": [],
    "Hail": [],
    "Heat": [],
    "Heavy_Rain": [],
    "Heavy_Snow": [],
    "High_Surf": [],
    "High_Wind": [],
    "Ice_Storm": [],
    "Lakeshore_Flood": [],
    "Landslide": [],
    "Lightning": [],
    "Rip_Current": [],
    "Seiche": [],
    "Sleet": [],
    "Storm_Surge__FTide": [],
    "Strong_Wind": [],
    "Thunderstorm_Wind": [],
    "Tornado": [],
    "Tropical_Depression": [],
    "Tropical_Storm": [],
    "Tsunami": [],
    "Volcanic_Ashfall": [],
    "Waterspout": [],
    "Wildfire": [
      {
        "type": "Wildfire",
        "time": "0",
        "inj": "13",
        "deaths": "0",
        "prop_dmg": "150k",
        "crop_dmg": "0",
        "begin": "05/01/2011",
        "county": "SOUTHWEST MOUNTAINS ",
        "state": "NM"
      },
      {
        "type": "Wildfire",
        "time": "1500",
        "inj": "5",
        "deaths": "0",
        "prop_dmg": "2.50M",
        "crop_dmg": "0",
        "begin": "05/09/2012",
        "county": "SOUTHWEST MOUNTAINS ",
        "state": "NM"
      },
      {
        "type": "Wildfire",
        "time": "0",
        "inj": "0",
        "deaths": "0",
        "prop_dmg": "2.25M",
        "crop_dmg": "0",
        "begin": "06/01/2012",
        "county": "SOUTHWEST MOUNTAINS ",
        "state": "NM"
      },
      {
        "type": "Wildfire",
        "time": "0",
        "inj": "0",
        "deaths": "0",
        "prop_dmg": "2.25M",
        "crop_dmg": "0",
        "begin": "06/01/2012",
        "county": "SOUTHWEST MOUNTAINS ",
        "state": "NM"
      }
    ],
    "Winter_Storm": [],
    "Winter_Weather": []
  },
  "005": {
    "name": "Chaves County",
    "fips": "NM",
    "pop10": "65645",
    "lat": 33.361604,
    "lon": -104.469837,
    "geoid": "35005",
    "deaths": 1,
    "prop_dmg": "49.5k",
    "crop_dmg": "1.00k",
    "inj": 2,
    "all": 5,
    "eq": [],
    "Hurricane____Typhoon___": [],
    "Cold__FWind_Chill": [],
    "Coastal_Flood": [],
    "Avalanche": [],
    "Astronomical_Low_Tide": [],
    "Dense_Fog": [],
    "Drought": [],
    "Dust_Devil": [],
    "Dust_Storm": [],
    "Excessive_Heat": [],
    "Extreme_Cold__FWind_Chill": [],
    "Flash_Flood": [],
    "Flood": [
      {
        "type": "Flood",
        "time": "2000",
        "inj": "0",
        "deaths": "0",
        "prop_dmg": "0",
        "crop_dmg": "1.00k",
        "begin": "07/09/2008",
        "county": "CHAVES CO.",
        "state": "NM"
      }
    ],
    "Freezing_Fog": [],
    "Funnel_Cloud": [],
    "Hail": [],
    "Heat": [],
    "Heavy_Rain": [
      {
        "type": "Heavy+Rain",
        "time": "1400",
        "inj": "0",
        "deaths": "0",
        "prop_dmg": "2.00k",
        "crop_dmg": "0",
        "begin": "08/01/1998",
        "county": "CHAVES CO.",
        "state": "NM"
      }
    ],
    "Heavy_Snow": [],
    "High_Surf": [],
    "High_Wind": [],
    "Ice_Storm": [],
    "Lakeshore_Flood": [],
    "Landslide": [],
    "Lightning": [],
    "Rip_Current": [],
    "Seiche": [],
    "Sleet": [],
    "Storm_Surge__FTide": [],
    "Strong_Wind": [],
    "Thunderstorm_Wind": [],
    "Tornado": [
      {
        "type": "Tornado",
        "time": "1600",
        "inj": "0",
        "deaths": "0",
        "prop_dmg": "2.50k",
        "crop_dmg": "0",
        "begin": "06/12/1962",
        "county": "CHAVES CO.",
        "state": "NM"
      },
      {
        "type": "Tornado",
        "time": "1500",
        "inj": "0",
        "deaths": "0",
        "prop_dmg": "25.0k",
        "crop_dmg": "0",
        "begin": "08/11/1974",
        "county": "CHAVES CO.",
        "state": "NM"
      }
    ],
    "Tropical_Depression": [],
    "Tropical_Storm": [],
    "Tsunami": [],
    "Volcanic_Ashfall": [],
    "Waterspout": [],
    "Wildfire": [],
    "Winter_Storm": [],
    "Winter_Weather": [
      {
        "type": "Winter+Weather",
        "time": "0",
        "inj": "2",
        "deaths": "1",
        "prop_dmg": "20.0k",
        "crop_dmg": "0",
        "begin": "11/22/2013",
        "county": "CHAVES COUNTY PLAINS ",
        "state": "NM"
      }
    ]
  },
  "006": {
    "name": "Cibola County",
    "fips": "NM",
    "pop10": "27213",
    "lat": 34.93205,
    "lon": -108.000255,
    "geoid": "35006",
    "deaths": 0,
    "prop_dmg": "100k",
    "crop_dmg": 0,
    "inj": 0,
    "all": 1,
    "eq": [],
    "Hurricane____Typhoon___": [],
    "Cold__FWind_Chill": [],
    "Coastal_Flood": [],
    "Avalanche": [],
    "Astronomical_Low_Tide": [],
    "Dense_Fog": [],
    "Drought": [],
    "Dust_Devil": [],
    "Dust_Storm": [],
    "Excessive_Heat": [],
    "Extreme_Cold__FWind_Chill": [],
    "Flash_Flood": [],
    "Flood": [],
    "Freezing_Fog": [],
    "Funnel_Cloud": [],
    "Hail": [],
    "Heat": [],
    "Heavy_Rain": [
      {
        "type": "Heavy+Rain",
        "time": "1300",
        "inj": "0",
        "deaths": "0",
        "prop_dmg": "100k",
        "crop_dmg": "0",
        "begin": "09/20/1997",
        "county": "CIBOLA (C) CO.",
        "state": "NM"
      }
    ],
    "Heavy_Snow": [],
    "High_Surf": [],
    "High_Wind": [],
    "Ice_Storm": [],
    "Lakeshore_Flood": [],
    "Landslide": [],
    "Lightning": [],
    "Rip_Current": [],
    "Seiche": [],
    "Sleet": [],
    "Storm_Surge__FTide": [],
    "Strong_Wind": [],
    "Thunderstorm_Wind": [],
    "Tornado": [],
    "Tropical_Depression": [],
    "Tropical_Storm": [],
    "Tsunami": [],
    "Volcanic_Ashfall": [],
    "Waterspout": [],
    "Wildfire": [],
    "Winter_Storm": [],
    "Winter_Weather": []
  },
  "007": {
    "name": "Colfax County",
    "fips": "NM",
    "pop10": "13750",
    "lat": 36.612962,
    "lon": -104.640126,
    "geoid": "35007",
    "deaths": 3,
    "prop_dmg": "4.43M",
    "crop_dmg": 0,
    "inj": 17,
    "all": 7,
    "eq": [],
    "Hurricane____Typhoon___": [],
    "Cold__FWind_Chill": [],
    "Coastal_Flood": [],
    "Avalanche": [],
    "Astronomical_Low_Tide": [],
    "Dense_Fog": [],
    "Drought": [],
    "Dust_Devil": [],
    "Dust_Storm": [],
    "Excessive_Heat": [],
    "Extreme_Cold__FWind_Chill": [],
    "Flash_Flood": [],
    "Flood": [],
    "Freezing_Fog": [],
    "Funnel_Cloud": [],
    "Hail": [],
    "Heat": [],
    "Heavy_Rain": [],
    "Heavy_Snow": [],
    "High_Surf": [],
    "High_Wind": [],
    "Ice_Storm": [],
    "Lakeshore_Flood": [],
    "Landslide": [],
    "Lightning": [
      {
        "type": "Lightning",
        "time": "1145",
        "inj": "1",
        "deaths": "0",
        "prop_dmg": "0",
        "crop_dmg": "0",
        "begin": "07/07/1998",
        "county": "COLFAX CO.",
        "state": "NM"
      },
      {
        "type": "Lightning",
        "time": "1400",
        "inj": "1",
        "deaths": "0",
        "prop_dmg": "0",
        "crop_dmg": "0",
        "begin": "08/17/2006",
        "county": "COLFAX CO.",
        "state": "NM"
      },
      {
        "type": "Lightning",
        "time": "1219",
        "inj": "1",
        "deaths": "1",
        "prop_dmg": "0",
        "crop_dmg": "0",
        "begin": "05/22/2014",
        "county": "COLFAX CO.",
        "state": "NM"
      },
      {
        "type": "Lightning",
        "time": "1240",
        "inj": "1",
        "deaths": "1",
        "prop_dmg": "0",
        "crop_dmg": "0",
        "begin": "05/23/2014",
        "county": "COLFAX CO.",
        "state": "NM"
      }
    ],
    "Rip_Current": [],
    "Seiche": [],
    "Sleet": [],
    "Storm_Surge__FTide": [],
    "Strong_Wind": [],
    "Thunderstorm_Wind": [],
    "Tornado": [
      {
        "type": "Tornado",
        "time": "1303",
        "inj": "8",
        "deaths": "1",
        "prop_dmg": "250k",
        "crop_dmg": "0",
        "begin": "05/29/1964",
        "county": "COLFAX CO.",
        "state": "NM"
      },
      {
        "type": "Tornado",
        "time": "1425",
        "inj": "5",
        "deaths": "0",
        "prop_dmg": "1.68M",
        "crop_dmg": "0",
        "begin": "07/25/1996",
        "county": "COLFAX CO.",
        "state": "NM"
      }
    ],
    "Tropical_Depression": [],
    "Tropical_Storm": [],
    "Tsunami": [],
    "Volcanic_Ashfall": [],
    "Waterspout": [],
    "Wildfire": [
      {
        "type": "Wildfire",
        "time": "1300",
        "inj": "0",
        "deaths": "0",
        "prop_dmg": "2.50M",
        "crop_dmg": "0",
        "begin": "06/12/2011",
        "county": "RATON RIDGE/JOHNSON MESA ",
        "state": "NM"
      }
    ],
    "Winter_Storm": [],
    "Winter_Weather": []
  },
  "009": {
    "name": "Curry County",
    "fips": "NM",
    "pop10": "48376",
    "lat": 34.572984,
    "lon": -103.346055,
    "geoid": "35009",
    "deaths": 2,
    "prop_dmg": "17.2M",
    "crop_dmg": 0,
    "inj": 36,
    "all": 9,
    "eq": [],
    "Hurricane____Typhoon___": [],
    "Cold__FWind_Chill": [],
    "Coastal_Flood": [],
    "Avalanche": [],
    "Astronomical_Low_Tide": [],
    "Dense_Fog": [],
    "Drought": [],
    "Dust_Devil": [],
    "Dust_Storm": [],
    "Excessive_Heat": [],
    "Extreme_Cold__FWind_Chill": [],
    "Flash_Flood": [
      {
        "type": "Flash+Flood",
        "time": "2059",
        "inj": "0",
        "deaths": "0",
        "prop_dmg": "1.00k",
        "crop_dmg": "0",
        "begin": "06/12/2010",
        "county": "CURRY CO.",
        "state": "NM"
      }
    ],
    "Flood": [],
    "Freezing_Fog": [],
    "Funnel_Cloud": [],
    "Hail": [],
    "Heat": [],
    "Heavy_Rain": [],
    "Heavy_Snow": [],
    "High_Surf": [],
    "High_Wind": [],
    "Ice_Storm": [],
    "Lakeshore_Flood": [],
    "Landslide": [],
    "Lightning": [
      {
        "type": "Lightning",
        "time": "2000",
        "inj": "0",
        "deaths": "0",
        "prop_dmg": "30.0k",
        "crop_dmg": "0",
        "begin": "07/08/1999",
        "county": "CURRY CO.",
        "state": "NM"
      },
      {
        "type": "Lightning",
        "time": "1830",
        "inj": "0",
        "deaths": "0",
        "prop_dmg": "30.0k",
        "crop_dmg": "0",
        "begin": "06/06/2000",
        "county": "CURRY CO.",
        "state": "NM"
      },
      {
        "type": "Lightning",
        "time": "2000",
        "inj": "0",
        "deaths": "0",
        "prop_dmg": "40.0k",
        "crop_dmg": "0",
        "begin": "06/02/2002",
        "county": "CURRY CO.",
        "state": "NM"
      }
    ],
    "Rip_Current": [],
    "Seiche": [],
    "Sleet": [],
    "Storm_Surge__FTide": [],
    "Strong_Wind": [],
    "Thunderstorm_Wind": [],
    "Tornado": [
      {
        "type": "Tornado",
        "time": "500",
        "inj": "0",
        "deaths": "0",
        "prop_dmg": "250k",
        "crop_dmg": "0",
        "begin": "05/24/1957",
        "county": "CURRY CO.",
        "state": "NM"
      },
      {
        "type": "Tornado",
        "time": "1630",
        "inj": "0",
        "deaths": "0",
        "prop_dmg": "25.0k",
        "crop_dmg": "0",
        "begin": "06/11/1964",
        "county": "CURRY CO.",
        "state": "NM"
      },
      {
        "type": "Tornado",
        "time": "1842",
        "inj": "33",
        "deaths": "2",
        "prop_dmg": "16.5M",
        "crop_dmg": "0",
        "begin": "03/23/2007",
        "county": "CURRY CO.",
        "state": "NM"
      }
    ],
    "Tropical_Depression": [],
    "Tropical_Storm": [],
    "Tsunami": [],
    "Volcanic_Ashfall": [],
    "Waterspout": [],
    "Wildfire": [
      {
        "type": "Wildfire",
        "time": "1030",
        "inj": "3",
        "deaths": "0",
        "prop_dmg": "300k",
        "crop_dmg": "0",
        "begin": "04/17/2011",
        "county": "CURRY COUNTY ",
        "state": "NM"
      },
      {
        "type": "Wildfire",
        "time": "1100",
        "inj": "0",
        "deaths": "0",
        "prop_dmg": "50.0k",
        "crop_dmg": "0",
        "begin": "02/28/2011",
        "county": "CURRY COUNTY ",
        "state": "NM"
      }
    ],
    "Winter_Storm": [],
    "Winter_Weather": []
  },
  "011": {
    "name": "De Baca County",
    "fips": "NM",
    "pop10": "2022",
    "lat": 34.351429,
    "lon": -104.401527,
    "geoid": "35011",
    "deaths": 0,
    "prop_dmg": 0,
    "crop_dmg": 0,
    "inj": 0,
    "all": 0,
    "eq": [],
    "Hurricane____Typhoon___": [],
    "Cold__FWind_Chill": [],
    "Coastal_Flood": [],
    "Avalanche": [],
    "Astronomical_Low_Tide": [],
    "Dense_Fog": [],
    "Drought": [],
    "Dust_Devil": [],
    "Dust_Storm": [],
    "Excessive_Heat": [],
    "Extreme_Cold__FWind_Chill": [],
    "Flash_Flood": [],
    "Flood": [],
    "Freezing_Fog": [],
    "Funnel_Cloud": [],
    "Hail": [],
    "Heat": [],
    "Heavy_Rain": [],
    "Heavy_Snow": [],
    "High_Surf": [],
    "High_Wind": [],
    "Ice_Storm": [],
    "Lakeshore_Flood": [],
    "Landslide": [],
    "Lightning": [],
    "Rip_Current": [],
    "Seiche": [],
    "Sleet": [],
    "Storm_Surge__FTide": [],
    "Strong_Wind": [],
    "Thunderstorm_Wind": [],
    "Tornado": [],
    "Tropical_Depression": [],
    "Tropical_Storm": [],
    "Tsunami": [],
    "Volcanic_Ashfall": [],
    "Waterspout": [],
    "Wildfire": [],
    "Winter_Storm": [],
    "Winter_Weather": []
  },
  "013": {
    "name": "Doï¿½a Ana County",
    "fips": "NM",
    "pop10": "209233",
    "lat": 32.350912,
    "lon": -106.832182,
    "geoid": "35013",
    "deaths": 0,
    "prop_dmg": "400k",
    "crop_dmg": 0,
    "inj": 6,
    "all": 5,
    "eq": [],
    "Hurricane____Typhoon___": [],
    "Cold__FWind_Chill": [],
    "Coastal_Flood": [],
    "Avalanche": [],
    "Astronomical_Low_Tide": [],
    "Dense_Fog": [],
    "Drought": [],
    "Dust_Devil": [],
    "Dust_Storm": [],
    "Excessive_Heat": [],
    "Extreme_Cold__FWind_Chill": [],
    "Flash_Flood": [
      {
        "type": "Flash+Flood",
        "time": "300",
        "inj": "0",
        "deaths": "0",
        "prop_dmg": "300k",
        "crop_dmg": "0",
        "begin": "06/17/1999",
        "county": "DONA ANA CO.",
        "state": "NM"
      }
    ],
    "Flood": [
      {
        "type": "Flood",
        "time": "1730",
        "inj": "0",
        "deaths": "0",
        "prop_dmg": "30.0k",
        "crop_dmg": "0",
        "begin": "08/08/2002",
        "county": "DONA ANA CO.",
        "state": "NM"
      },
      {
        "type": "Flood",
        "time": "200",
        "inj": "0",
        "deaths": "0",
        "prop_dmg": "20.0k",
        "crop_dmg": "0",
        "begin": "08/29/2006",
        "county": "DONA ANA CO.",
        "state": "NM"
      },
      {
        "type": "Flood",
        "time": "800",
        "inj": "0",
        "deaths": "0",
        "prop_dmg": "50.0k",
        "crop_dmg": "0",
        "begin": "09/04/2006",
        "county": "DONA ANA CO.",
        "state": "NM"
      }
    ],
    "Freezing_Fog": [],
    "Funnel_Cloud": [],
    "Hail": [],
    "Heat": [],
    "Heavy_Rain": [],
    "Heavy_Snow": [],
    "High_Surf": [],
    "High_Wind": [],
    "Ice_Storm": [],
    "Lakeshore_Flood": [],
    "Landslide": [],
    "Lightning": [
      {
        "type": "Lightning",
        "time": "1600",
        "inj": "6",
        "deaths": "0",
        "prop_dmg": "0",
        "crop_dmg": "0",
        "begin": "08/19/2014",
        "county": "DONA ANA CO.",
        "state": "NM"
      }
    ],
    "Rip_Current": [],
    "Seiche": [],
    "Sleet": [],
    "Storm_Surge__FTide": [],
    "Strong_Wind": [],
    "Thunderstorm_Wind": [],
    "Tornado": [],
    "Tropical_Depression": [],
    "Tropical_Storm": [],
    "Tsunami": [],
    "Volcanic_Ashfall": [],
    "Waterspout": [],
    "Wildfire": [],
    "Winter_Storm": [],
    "Winter_Weather": []
  },
  "015": {
    "name": "Eddy County",
    "fips": "NM",
    "pop10": "53829",
    "lat": 32.457858,
    "lon": -104.306471,
    "geoid": "35015",
    "deaths": 0,
    "prop_dmg": "5.06M",
    "crop_dmg": "2.50M",
    "inj": 30,
    "all": 15,
    "eq": [],
    "Hurricane____Typhoon___": [],
    "Cold__FWind_Chill": [],
    "Coastal_Flood": [],
    "Avalanche": [],
    "Astronomical_Low_Tide": [],
    "Dense_Fog": [
      {
        "type": "Dense+Fog",
        "time": "2041",
        "inj": "0",
        "deaths": "0",
        "prop_dmg": "5.00k",
        "crop_dmg": "0",
        "begin": "11/27/2006",
        "county": "EDDY COUNTY PLAINS ",
        "state": "NM"
      }
    ],
    "Drought": [
      {
        "type": "Drought",
        "time": "0",
        "inj": "0",
        "deaths": "0",
        "prop_dmg": "0",
        "crop_dmg": "2.40M",
        "begin": "08/01/1996",
        "county": "EDDY COUNTY PLAINS ",
        "state": "NM"
      }
    ],
    "Dust_Devil": [],
    "Dust_Storm": [
      {
        "type": "Dust+Storm",
        "time": "1945",
        "inj": "0",
        "deaths": "0",
        "prop_dmg": "15.0k",
        "crop_dmg": "0",
        "begin": "06/01/2003",
        "county": "EDDY COUNTY PLAINS ",
        "state": "NM"
      },
      {
        "type": "Dust+Storm",
        "time": "1945",
        "inj": "0",
        "deaths": "0",
        "prop_dmg": "15.0k",
        "crop_dmg": "0",
        "begin": "06/01/2003",
        "county": "EDDY COUNTY PLAINS ",
        "state": "NM"
      }
    ],
    "Excessive_Heat": [],
    "Extreme_Cold__FWind_Chill": [],
    "Flash_Flood": [
      {
        "type": "Flash+Flood",
        "time": "2200",
        "inj": "0",
        "deaths": "0",
        "prop_dmg": "20.0k",
        "crop_dmg": "0",
        "begin": "06/20/1999",
        "county": "EDDY CO.",
        "state": "NM"
      },
      {
        "type": "Flash+Flood",
        "time": "1940",
        "inj": "0",
        "deaths": "0",
        "prop_dmg": "2.00M",
        "crop_dmg": "100k",
        "begin": "04/03/2004",
        "county": "EDDY CO.",
        "state": "NM"
      },
      {
        "type": "Flash+Flood",
        "time": "1544",
        "inj": "0",
        "deaths": "0",
        "prop_dmg": "50.0k",
        "crop_dmg": "0",
        "begin": "06/16/2005",
        "county": "EDDY CO.",
        "state": "NM"
      },
      {
        "type": "Flash+Flood",
        "time": "800",
        "inj": "0",
        "deaths": "0",
        "prop_dmg": "1.00k",
        "crop_dmg": "0",
        "begin": "07/11/2012",
        "county": "EDDY CO.",
        "state": "NM"
      },
      {
        "type": "Flash+Flood",
        "time": "1430",
        "inj": "0",
        "deaths": "0",
        "prop_dmg": "8.00k",
        "crop_dmg": "0",
        "begin": "06/17/2013",
        "county": "EDDY CO.",
        "state": "NM"
      },
      {
        "type": "Flash+Flood",
        "time": "1700",
        "inj": "0",
        "deaths": "0",
        "prop_dmg": "160k",
        "crop_dmg": "0",
        "begin": "06/20/2013",
        "county": "EDDY CO.",
        "state": "NM"
      }
    ],
    "Flood": [],
    "Freezing_Fog": [],
    "Funnel_Cloud": [],
    "Hail": [],
    "Heat": [],
    "Heavy_Rain": [],
    "Heavy_Snow": [],
    "High_Surf": [],
    "High_Wind": [],
    "Ice_Storm": [],
    "Lakeshore_Flood": [],
    "Landslide": [],
    "Lightning": [
      {
        "type": "Lightning",
        "time": "1700",
        "inj": "0",
        "deaths": "0",
        "prop_dmg": "15.0k",
        "crop_dmg": "0",
        "begin": "07/22/1999",
        "county": "EDDY CO.",
        "state": "NM"
      },
      {
        "type": "Lightning",
        "time": "2200",
        "inj": "1",
        "deaths": "0",
        "prop_dmg": "0",
        "crop_dmg": "0",
        "begin": "08/12/2004",
        "county": "EDDY CO.",
        "state": "NM"
      }
    ],
    "Rip_Current": [],
    "Seiche": [],
    "Sleet": [],
    "Storm_Surge__FTide": [],
    "Strong_Wind": [],
    "Thunderstorm_Wind": [],
    "Tornado": [
      {
        "type": "Tornado",
        "time": "1930",
        "inj": "2",
        "deaths": "0",
        "prop_dmg": "25.0k",
        "crop_dmg": "0",
        "begin": "04/30/1976",
        "county": "EDDY CO.",
        "state": "NM"
      },
      {
        "type": "Tornado",
        "time": "2042",
        "inj": "21",
        "deaths": "0",
        "prop_dmg": "2.50M",
        "crop_dmg": "0",
        "begin": "05/31/1991",
        "county": "EDDY CO.",
        "state": "NM"
      },
      {
        "type": "Tornado",
        "time": "2010",
        "inj": "6",
        "deaths": "0",
        "prop_dmg": "250k",
        "crop_dmg": "0",
        "begin": "06/07/1992",
        "county": "EDDY CO.",
        "state": "NM"
      }
    ],
    "Tropical_Depression": [],
    "Tropical_Storm": [],
    "Tsunami": [],
    "Volcanic_Ashfall": [],
    "Waterspout": [],
    "Wildfire": [],
    "Winter_Storm": [],
    "Winter_Weather": []
  },
  "017": {
    "name": "Grant County",
    "fips": "NM",
    "pop10": "29514",
    "lat": 32.732087,
    "lon": -108.381504,
    "geoid": "35017",
    "deaths": 0,
    "prop_dmg": "300k",
    "crop_dmg": 0,
    "inj": 0,
    "all": 2,
    "eq": [],
    "Hurricane____Typhoon___": [],
    "Cold__FWind_Chill": [],
    "Coastal_Flood": [],
    "Avalanche": [],
    "Astronomical_Low_Tide": [],
    "Dense_Fog": [],
    "Drought": [],
    "Dust_Devil": [],
    "Dust_Storm": [],
    "Excessive_Heat": [],
    "Extreme_Cold__FWind_Chill": [],
    "Flash_Flood": [],
    "Flood": [
      {
        "type": "Flood",
        "time": "700",
        "inj": "0",
        "deaths": "0",
        "prop_dmg": "50.0k",
        "crop_dmg": "0",
        "begin": "01/28/2008",
        "county": "GRANT CO.",
        "state": "NM"
      }
    ],
    "Freezing_Fog": [],
    "Funnel_Cloud": [],
    "Hail": [],
    "Heat": [],
    "Heavy_Rain": [],
    "Heavy_Snow": [],
    "High_Surf": [],
    "High_Wind": [],
    "Ice_Storm": [],
    "Lakeshore_Flood": [],
    "Landslide": [],
    "Lightning": [],
    "Rip_Current": [],
    "Seiche": [],
    "Sleet": [],
    "Storm_Surge__FTide": [],
    "Strong_Wind": [],
    "Thunderstorm_Wind": [],
    "Tornado": [
      {
        "type": "Tornado",
        "time": "500",
        "inj": "0",
        "deaths": "0",
        "prop_dmg": "250k",
        "crop_dmg": "0",
        "begin": "10/12/1957",
        "county": "GRANT CO.",
        "state": "NM"
      }
    ],
    "Tropical_Depression": [],
    "Tropical_Storm": [],
    "Tsunami": [],
    "Volcanic_Ashfall": [],
    "Waterspout": [],
    "Wildfire": [],
    "Winter_Storm": [],
    "Winter_Weather": []
  },
  "019": {
    "name": "Guadalupe County",
    "fips": "NM",
    "pop10": "4687",
    "lat": 34.869782,
    "lon": -104.784968,
    "geoid": "35019",
    "deaths": 0,
    "prop_dmg": "43.0k",
    "crop_dmg": 0,
    "inj": 0,
    "all": 4,
    "eq": [],
    "Hurricane____Typhoon___": [],
    "Cold__FWind_Chill": [],
    "Coastal_Flood": [],
    "Avalanche": [],
    "Astronomical_Low_Tide": [],
    "Dense_Fog": [],
    "Drought": [],
    "Dust_Devil": [],
    "Dust_Storm": [],
    "Excessive_Heat": [],
    "Extreme_Cold__FWind_Chill": [],
    "Flash_Flood": [],
    "Flood": [],
    "Freezing_Fog": [],
    "Funnel_Cloud": [],
    "Hail": [],
    "Heat": [],
    "Heavy_Rain": [],
    "Heavy_Snow": [],
    "High_Surf": [],
    "High_Wind": [],
    "Ice_Storm": [],
    "Lakeshore_Flood": [],
    "Landslide": [],
    "Lightning": [
      {
        "type": "Lightning",
        "time": "4",
        "inj": "0",
        "deaths": "0",
        "prop_dmg": "30.0k",
        "crop_dmg": "0",
        "begin": "07/16/2014",
        "county": "GUADALUPE CO.",
        "state": "NM"
      }
    ],
    "Rip_Current": [],
    "Seiche": [],
    "Sleet": [],
    "Storm_Surge__FTide": [],
    "Strong_Wind": [],
    "Thunderstorm_Wind": [],
    "Tornado": [
      {
        "type": "Tornado",
        "time": "1500",
        "inj": "0",
        "deaths": "0",
        "prop_dmg": "30.0",
        "crop_dmg": "0",
        "begin": "06/04/1978",
        "county": "GUADALUPE CO.",
        "state": "NM"
      }
    ],
    "Tropical_Depression": [],
    "Tropical_Storm": [],
    "Tsunami": [],
    "Volcanic_Ashfall": [],
    "Waterspout": [],
    "Wildfire": [
      {
        "type": "Wildfire",
        "time": "1300",
        "inj": "0",
        "deaths": "0",
        "prop_dmg": "5.00k",
        "crop_dmg": "0",
        "begin": "05/07/2011",
        "county": "GUADALUPE COUNTY ",
        "state": "NM"
      },
      {
        "type": "Wildfire",
        "time": "1300",
        "inj": "0",
        "deaths": "0",
        "prop_dmg": "8.00k",
        "crop_dmg": "0",
        "begin": "03/01/2012",
        "county": "GUADALUPE COUNTY ",
        "state": "NM"
      }
    ],
    "Winter_Storm": [],
    "Winter_Weather": []
  },
  "021": {
    "name": "Harding County",
    "fips": "NM",
    "pop10": "695",
    "lat": 35.863152,
    "lon": -103.829931,
    "geoid": "35021",
    "deaths": 0,
    "prop_dmg": "50.0k",
    "crop_dmg": 0,
    "inj": 3,
    "all": 2,
    "eq": [],
    "Hurricane____Typhoon___": [],
    "Cold__FWind_Chill": [],
    "Coastal_Flood": [],
    "Avalanche": [],
    "Astronomical_Low_Tide": [],
    "Dense_Fog": [],
    "Drought": [],
    "Dust_Devil": [],
    "Dust_Storm": [],
    "Excessive_Heat": [],
    "Extreme_Cold__FWind_Chill": [],
    "Flash_Flood": [],
    "Flood": [],
    "Freezing_Fog": [],
    "Funnel_Cloud": [],
    "Hail": [],
    "Heat": [],
    "Heavy_Rain": [],
    "Heavy_Snow": [],
    "High_Surf": [],
    "High_Wind": [],
    "Ice_Storm": [],
    "Lakeshore_Flood": [],
    "Landslide": [],
    "Lightning": [],
    "Rip_Current": [],
    "Seiche": [],
    "Sleet": [],
    "Storm_Surge__FTide": [],
    "Strong_Wind": [],
    "Thunderstorm_Wind": [],
    "Tornado": [
      {
        "type": "Tornado",
        "time": "1900",
        "inj": "1",
        "deaths": "0",
        "prop_dmg": "25.0k",
        "crop_dmg": "0",
        "begin": "05/17/1962",
        "county": "HARDING CO.",
        "state": "NM"
      },
      {
        "type": "Tornado",
        "time": "130",
        "inj": "2",
        "deaths": "0",
        "prop_dmg": "25.0k",
        "crop_dmg": "0",
        "begin": "05/14/1977",
        "county": "HARDING CO.",
        "state": "NM"
      }
    ],
    "Tropical_Depression": [],
    "Tropical_Storm": [],
    "Tsunami": [],
    "Volcanic_Ashfall": [],
    "Waterspout": [],
    "Wildfire": [],
    "Winter_Storm": [],
    "Winter_Weather": []
  },
  "023": {
    "name": "Hidalgo County",
    "fips": "NM",
    "pop10": "4894",
    "lat": 31.899658,
    "lon": -108.745729,
    "geoid": "35023",
    "deaths": 0,
    "prop_dmg": 0,
    "crop_dmg": 0,
    "inj": 0,
    "all": 0,
    "eq": [],
    "Hurricane____Typhoon___": [],
    "Cold__FWind_Chill": [],
    "Coastal_Flood": [],
    "Avalanche": [],
    "Astronomical_Low_Tide": [],
    "Dense_Fog": [],
    "Drought": [],
    "Dust_Devil": [],
    "Dust_Storm": [],
    "Excessive_Heat": [],
    "Extreme_Cold__FWind_Chill": [],
    "Flash_Flood": [],
    "Flood": [],
    "Freezing_Fog": [],
    "Funnel_Cloud": [],
    "Hail": [],
    "Heat": [],
    "Heavy_Rain": [],
    "Heavy_Snow": [],
    "High_Surf": [],
    "High_Wind": [],
    "Ice_Storm": [],
    "Lakeshore_Flood": [],
    "Landslide": [],
    "Lightning": [],
    "Rip_Current": [],
    "Seiche": [],
    "Sleet": [],
    "Storm_Surge__FTide": [],
    "Strong_Wind": [],
    "Thunderstorm_Wind": [],
    "Tornado": [],
    "Tropical_Depression": [],
    "Tropical_Storm": [],
    "Tsunami": [],
    "Volcanic_Ashfall": [],
    "Waterspout": [],
    "Wildfire": [],
    "Winter_Storm": [],
    "Winter_Weather": []
  },
  "025": {
    "name": "Lea County",
    "fips": "NM",
    "pop10": "64727",
    "lat": 32.795687,
    "lon": -103.413271,
    "geoid": "35025",
    "deaths": 2,
    "prop_dmg": "27.1M",
    "crop_dmg": "12.0k",
    "inj": 9,
    "all": 19,
    "eq": [],
    "Hurricane____Typhoon___": [],
    "Cold__FWind_Chill": [],
    "Coastal_Flood": [],
    "Avalanche": [],
    "Astronomical_Low_Tide": [],
    "Dense_Fog": [],
    "Drought": [],
    "Dust_Devil": [],
    "Dust_Storm": [],
    "Excessive_Heat": [],
    "Extreme_Cold__FWind_Chill": [],
    "Flash_Flood": [
      {
        "type": "Flash+Flood",
        "time": "1715",
        "inj": "0",
        "deaths": "0",
        "prop_dmg": "1.00k",
        "crop_dmg": "2.00k",
        "begin": "06/17/2013",
        "county": "LEA CO.",
        "state": "NM"
      },
      {
        "type": "Flash+Flood",
        "time": "1730",
        "inj": "0",
        "deaths": "0",
        "prop_dmg": "2.00k",
        "crop_dmg": "0",
        "begin": "06/17/2013",
        "county": "LEA CO.",
        "state": "NM"
      },
      {
        "type": "Flash+Flood",
        "time": "1734",
        "inj": "0",
        "deaths": "0",
        "prop_dmg": "5.00k",
        "crop_dmg": "0",
        "begin": "06/17/2013",
        "county": "LEA CO.",
        "state": "NM"
      },
      {
        "type": "Flash+Flood",
        "time": "1754",
        "inj": "0",
        "deaths": "0",
        "prop_dmg": "500",
        "crop_dmg": "0",
        "begin": "06/17/2013",
        "county": "LEA CO.",
        "state": "NM"
      }
    ],
    "Flood": [
      {
        "type": "Flood",
        "time": "1836",
        "inj": "0",
        "deaths": "0",
        "prop_dmg": "4.00k",
        "crop_dmg": "0",
        "begin": "08/09/2009",
        "county": "LEA CO.",
        "state": "NM"
      }
    ],
    "Freezing_Fog": [],
    "Funnel_Cloud": [],
    "Hail": [],
    "Heat": [],
    "Heavy_Rain": [],
    "Heavy_Snow": [],
    "High_Surf": [],
    "High_Wind": [],
    "Ice_Storm": [],
    "Lakeshore_Flood": [],
    "Landslide": [],
    "Lightning": [
      {
        "type": "Lightning",
        "time": "1645",
        "inj": "0",
        "deaths": "2",
        "prop_dmg": "0",
        "crop_dmg": "0",
        "begin": "08/08/1996",
        "county": "LEA CO.",
        "state": "NM"
      },
      {
        "type": "Lightning",
        "time": "1930",
        "inj": "0",
        "deaths": "0",
        "prop_dmg": "3.00k",
        "crop_dmg": "0",
        "begin": "08/12/1997",
        "county": "LEA CO.",
        "state": "NM"
      },
      {
        "type": "Lightning",
        "time": "1745",
        "inj": "0",
        "deaths": "0",
        "prop_dmg": "2.00k",
        "crop_dmg": "0",
        "begin": "05/25/2013",
        "county": "LEA CO.",
        "state": "NM"
      }
    ],
    "Rip_Current": [],
    "Seiche": [],
    "Sleet": [],
    "Storm_Surge__FTide": [],
    "Strong_Wind": [],
    "Thunderstorm_Wind": [],
    "Tornado": [
      {
        "type": "Tornado",
        "time": "2000",
        "inj": "0",
        "deaths": "0",
        "prop_dmg": "30.0",
        "crop_dmg": "0",
        "begin": "05/17/1954",
        "county": "LEA CO.",
        "state": "NM"
      },
      {
        "type": "Tornado",
        "time": "1500",
        "inj": "0",
        "deaths": "0",
        "prop_dmg": "25.0k",
        "crop_dmg": "0",
        "begin": "07/24/1960",
        "county": "LEA CO.",
        "state": "NM"
      },
      {
        "type": "Tornado",
        "time": "2200",
        "inj": "0",
        "deaths": "0",
        "prop_dmg": "250",
        "crop_dmg": "0",
        "begin": "06/14/1972",
        "county": "LEA CO.",
        "state": "NM"
      },
      {
        "type": "Tornado",
        "time": "1713",
        "inj": "0",
        "deaths": "0",
        "prop_dmg": "25.0M",
        "crop_dmg": "0",
        "begin": "05/27/1982",
        "county": "LEA CO.",
        "state": "NM"
      },
      {
        "type": "Tornado",
        "time": "1715",
        "inj": "0",
        "deaths": "0",
        "prop_dmg": "250k",
        "crop_dmg": "0",
        "begin": "06/06/1991",
        "county": "LEA CO.",
        "state": "NM"
      },
      {
        "type": "Tornado",
        "time": "1715",
        "inj": "0",
        "deaths": "0",
        "prop_dmg": "250k",
        "crop_dmg": "0",
        "begin": "06/06/1991",
        "county": "LEA CO.",
        "state": "NM"
      },
      {
        "type": "Tornado",
        "time": "1715",
        "inj": "5",
        "deaths": "0",
        "prop_dmg": "250k",
        "crop_dmg": "0",
        "begin": "06/06/1991",
        "county": "LEA CO.",
        "state": "NM"
      },
      {
        "type": "Tornado",
        "time": "1715",
        "inj": "0",
        "deaths": "0",
        "prop_dmg": "250k",
        "crop_dmg": "0",
        "begin": "06/06/1991",
        "county": "LEA CO.",
        "state": "NM"
      },
      {
        "type": "Tornado",
        "time": "1607",
        "inj": "0",
        "deaths": "0",
        "prop_dmg": "28.0k",
        "crop_dmg": "0",
        "begin": "03/23/2007",
        "county": "LEA CO.",
        "state": "NM"
      }
    ],
    "Tropical_Depression": [],
    "Tropical_Storm": [],
    "Tsunami": [],
    "Volcanic_Ashfall": [],
    "Waterspout": [],
    "Wildfire": [
      {
        "type": "Wildfire",
        "time": "900",
        "inj": "3",
        "deaths": "0",
        "prop_dmg": "700k",
        "crop_dmg": "10.0k",
        "begin": "01/01/2006",
        "county": "CENTRAL LEA COUNTY ",
        "state": "NM"
      },
      {
        "type": "Wildfire",
        "time": "1100",
        "inj": "1",
        "deaths": "0",
        "prop_dmg": "300k",
        "crop_dmg": "0",
        "begin": "03/12/2006",
        "county": "CENTRAL LEA COUNTY ",
        "state": "NM"
      }
    ],
    "Winter_Storm": [],
    "Winter_Weather": []
  },
  "027": {
    "name": "Lincoln County",
    "fips": "NM",
    "pop10": "20497",
    "lat": 33.740941,
    "lon": -105.449083,
    "geoid": "35027",
    "deaths": 0,
    "prop_dmg": "38.1M",
    "crop_dmg": 0,
    "inj": 2,
    "all": 10,
    "eq": [],
    "Hurricane____Typhoon___": [],
    "Cold__FWind_Chill": [],
    "Coastal_Flood": [],
    "Avalanche": [],
    "Astronomical_Low_Tide": [],
    "Dense_Fog": [],
    "Drought": [],
    "Dust_Devil": [],
    "Dust_Storm": [],
    "Excessive_Heat": [],
    "Extreme_Cold__FWind_Chill": [],
    "Flash_Flood": [
      {
        "type": "Flash+Flood",
        "time": "1347",
        "inj": "0",
        "deaths": "0",
        "prop_dmg": "50.0k",
        "crop_dmg": "0",
        "begin": "06/22/2012",
        "county": "LINCOLN CO.",
        "state": "NM"
      },
      {
        "type": "Flash+Flood",
        "time": "1350",
        "inj": "0",
        "deaths": "0",
        "prop_dmg": "25.0k",
        "crop_dmg": "0",
        "begin": "07/07/2012",
        "county": "LINCOLN CO.",
        "state": "NM"
      }
    ],
    "Flood": [],
    "Freezing_Fog": [],
    "Funnel_Cloud": [],
    "Hail": [],
    "Heat": [],
    "Heavy_Rain": [],
    "Heavy_Snow": [],
    "High_Surf": [],
    "High_Wind": [],
    "Ice_Storm": [],
    "Lakeshore_Flood": [],
    "Landslide": [],
    "Lightning": [
      {
        "type": "Lightning",
        "time": "1220",
        "inj": "2",
        "deaths": "0",
        "prop_dmg": "0",
        "crop_dmg": "0",
        "begin": "07/25/1997",
        "county": "LINCOLN CO.",
        "state": "NM"
      },
      {
        "type": "Lightning",
        "time": "1600",
        "inj": "0",
        "deaths": "0",
        "prop_dmg": "25.0k",
        "crop_dmg": "0",
        "begin": "05/20/2009",
        "county": "LINCOLN CO.",
        "state": "NM"
      }
    ],
    "Rip_Current": [],
    "Seiche": [],
    "Sleet": [],
    "Storm_Surge__FTide": [],
    "Strong_Wind": [],
    "Thunderstorm_Wind": [],
    "Tornado": [],
    "Tropical_Depression": [],
    "Tropical_Storm": [],
    "Tsunami": [],
    "Volcanic_Ashfall": [],
    "Waterspout": [],
    "Wildfire": [
      {
        "type": "Wildfire",
        "time": "1500",
        "inj": "0",
        "deaths": "0",
        "prop_dmg": "2.00M",
        "crop_dmg": "0",
        "begin": "05/07/2000",
        "county": "LINCOLN CO.",
        "state": "NM"
      },
      {
        "type": "Wildfire",
        "time": "1330",
        "inj": "0",
        "deaths": "0",
        "prop_dmg": "5.00M",
        "crop_dmg": "0",
        "begin": "03/24/2002",
        "county": "LINCOLN CO.",
        "state": "NM"
      },
      {
        "type": "Wildfire",
        "time": "1300",
        "inj": "0",
        "deaths": "0",
        "prop_dmg": "1.50M",
        "crop_dmg": "0",
        "begin": "04/03/2011",
        "county": "SOUTH CENTRAL MOUNTAINS ",
        "state": "NM"
      },
      {
        "type": "Wildfire",
        "time": "1330",
        "inj": "0",
        "deaths": "0",
        "prop_dmg": "3.50M",
        "crop_dmg": "0",
        "begin": "06/16/2011",
        "county": "SOUTH CENTRAL MOUNTAINS ",
        "state": "NM"
      },
      {
        "type": "Wildfire",
        "time": "1330",
        "inj": "0",
        "deaths": "0",
        "prop_dmg": "25.0k",
        "crop_dmg": "0",
        "begin": "08/07/2011",
        "county": "EASTERN LINCOLN COUNTY ",
        "state": "NM"
      },
      {
        "type": "Wildfire",
        "time": "2100",
        "inj": "0",
        "deaths": "0",
        "prop_dmg": "26.0M",
        "crop_dmg": "0",
        "begin": "06/04/2012",
        "county": "SOUTH CENTRAL MOUNTAINS ",
        "state": "NM"
      }
    ],
    "Winter_Storm": [],
    "Winter_Weather": []
  },
  "028": {
    "name": "Los Alamos County",
    "fips": "NM",
    "pop10": "17950",
    "lat": 35.870047,
    "lon": -106.307968,
    "geoid": "35028",
    "deaths": 0,
    "prop_dmg": "1.50G",
    "crop_dmg": 0,
    "inj": 0,
    "all": 3,
    "eq": [],
    "Hurricane____Typhoon___": [],
    "Cold__FWind_Chill": [],
    "Coastal_Flood": [],
    "Avalanche": [],
    "Astronomical_Low_Tide": [],
    "Dense_Fog": [],
    "Drought": [],
    "Dust_Devil": [
      {
        "type": "Dust+Devil",
        "time": "1208",
        "inj": "0",
        "deaths": "0",
        "prop_dmg": "30.0k",
        "crop_dmg": "0",
        "begin": "05/22/2013",
        "county": "LOS ALAMOS CO.",
        "state": "NM"
      },
      {
        "type": "Dust+Devil",
        "time": "1208",
        "inj": "0",
        "deaths": "0",
        "prop_dmg": "30.0k",
        "crop_dmg": "0",
        "begin": "05/22/2013",
        "county": "LOS ALAMOS CO.",
        "state": "NM"
      }
    ],
    "Dust_Storm": [],
    "Excessive_Heat": [],
    "Extreme_Cold__FWind_Chill": [],
    "Flash_Flood": [],
    "Flood": [],
    "Freezing_Fog": [],
    "Funnel_Cloud": [],
    "Hail": [],
    "Heat": [],
    "Heavy_Rain": [],
    "Heavy_Snow": [],
    "High_Surf": [],
    "High_Wind": [],
    "Ice_Storm": [],
    "Lakeshore_Flood": [],
    "Landslide": [],
    "Lightning": [],
    "Rip_Current": [],
    "Seiche": [],
    "Sleet": [],
    "Storm_Surge__FTide": [],
    "Strong_Wind": [],
    "Thunderstorm_Wind": [],
    "Tornado": [],
    "Tropical_Depression": [],
    "Tropical_Storm": [],
    "Tsunami": [],
    "Volcanic_Ashfall": [],
    "Waterspout": [],
    "Wildfire": [
      {
        "type": "Wildfire",
        "time": "2300",
        "inj": "0",
        "deaths": "0",
        "prop_dmg": "1.50G",
        "crop_dmg": "0",
        "begin": "05/04/2000",
        "county": "LOS ALAMOS CO.",
        "state": "NM"
      }
    ],
    "Winter_Storm": [],
    "Winter_Weather": []
  },
  "029": {
    "name": "Luna County",
    "fips": "NM",
    "pop10": "25095",
    "lat": 32.184482,
    "lon": -107.746639,
    "geoid": "35029",
    "deaths": 0,
    "prop_dmg": "50.0k",
    "crop_dmg": 0,
    "inj": 0,
    "all": 1,
    "eq": [],
    "Hurricane____Typhoon___": [],
    "Cold__FWind_Chill": [],
    "Coastal_Flood": [],
    "Avalanche": [],
    "Astronomical_Low_Tide": [],
    "Dense_Fog": [],
    "Drought": [],
    "Dust_Devil": [],
    "Dust_Storm": [],
    "Excessive_Heat": [],
    "Extreme_Cold__FWind_Chill": [],
    "Flash_Flood": [],
    "Flood": [
      {
        "type": "Flood",
        "time": "200",
        "inj": "0",
        "deaths": "0",
        "prop_dmg": "50.0k",
        "crop_dmg": "0",
        "begin": "08/29/2006",
        "county": "LUNA CO.",
        "state": "NM"
      }
    ],
    "Freezing_Fog": [],
    "Funnel_Cloud": [],
    "Hail": [],
    "Heat": [],
    "Heavy_Rain": [],
    "Heavy_Snow": [],
    "High_Surf": [],
    "High_Wind": [],
    "Ice_Storm": [],
    "Lakeshore_Flood": [],
    "Landslide": [],
    "Lightning": [],
    "Rip_Current": [],
    "Seiche": [],
    "Sleet": [],
    "Storm_Surge__FTide": [],
    "Strong_Wind": [],
    "Thunderstorm_Wind": [],
    "Tornado": [],
    "Tropical_Depression": [],
    "Tropical_Storm": [],
    "Tsunami": [],
    "Volcanic_Ashfall": [],
    "Waterspout": [],
    "Wildfire": [],
    "Winter_Storm": [],
    "Winter_Weather": []
  },
  "031": {
    "name": "McKinley County",
    "fips": "NM",
    "pop10": "71492",
    "lat": 35.573732,
    "lon": -108.255307,
    "geoid": "35031",
    "deaths": 1,
    "prop_dmg": "15.0k",
    "crop_dmg": 0,
    "inj": 0,
    "all": 2,
    "eq": [],
    "Hurricane____Typhoon___": [],
    "Cold__FWind_Chill": [
      {
        "type": "Cold%2FWind+Chill",
        "time": "0",
        "inj": "0",
        "deaths": "1",
        "prop_dmg": "0",
        "crop_dmg": "0",
        "begin": "02/09/2011",
        "county": "WEST CENTRAL PLATEAU ",
        "state": "NM"
      }
    ],
    "Coastal_Flood": [],
    "Avalanche": [],
    "Astronomical_Low_Tide": [],
    "Dense_Fog": [],
    "Drought": [],
    "Dust_Devil": [],
    "Dust_Storm": [],
    "Excessive_Heat": [],
    "Extreme_Cold__FWind_Chill": [],
    "Flash_Flood": [],
    "Flood": [],
    "Freezing_Fog": [],
    "Funnel_Cloud": [],
    "Hail": [],
    "Heat": [],
    "Heavy_Rain": [
      {
        "type": "Heavy+Rain",
        "time": "1430",
        "inj": "0",
        "deaths": "0",
        "prop_dmg": "15.0k",
        "crop_dmg": "0",
        "begin": "08/11/2005",
        "county": "MCKINLEY CO.",
        "state": "NM"
      }
    ],
    "Heavy_Snow": [],
    "High_Surf": [],
    "High_Wind": [],
    "Ice_Storm": [],
    "Lakeshore_Flood": [],
    "Landslide": [],
    "Lightning": [],
    "Rip_Current": [],
    "Seiche": [],
    "Sleet": [],
    "Storm_Surge__FTide": [],
    "Strong_Wind": [],
    "Thunderstorm_Wind": [],
    "Tornado": [],
    "Tropical_Depression": [],
    "Tropical_Storm": [],
    "Tsunami": [],
    "Volcanic_Ashfall": [],
    "Waterspout": [],
    "Wildfire": [],
    "Winter_Storm": [],
    "Winter_Weather": []
  },
  "033": {
    "name": "Mora County",
    "fips": "NM",
    "pop10": "4881",
    "lat": 35.982841,
    "lon": -104.921898,
    "geoid": "35033",
    "deaths": 0,
    "prop_dmg": "12.0k",
    "crop_dmg": 0,
    "inj": 0,
    "all": 1,
    "eq": [],
    "Hurricane____Typhoon___": [],
    "Cold__FWind_Chill": [],
    "Coastal_Flood": [],
    "Avalanche": [],
    "Astronomical_Low_Tide": [],
    "Dense_Fog": [],
    "Drought": [],
    "Dust_Devil": [],
    "Dust_Storm": [],
    "Excessive_Heat": [],
    "Extreme_Cold__FWind_Chill": [],
    "Flash_Flood": [],
    "Flood": [],
    "Freezing_Fog": [],
    "Funnel_Cloud": [],
    "Hail": [],
    "Heat": [],
    "Heavy_Rain": [],
    "Heavy_Snow": [],
    "High_Surf": [],
    "High_Wind": [],
    "Ice_Storm": [],
    "Lakeshore_Flood": [],
    "Landslide": [],
    "Lightning": [],
    "Rip_Current": [],
    "Seiche": [],
    "Sleet": [],
    "Storm_Surge__FTide": [],
    "Strong_Wind": [],
    "Thunderstorm_Wind": [],
    "Tornado": [],
    "Tropical_Depression": [],
    "Tropical_Storm": [],
    "Tsunami": [],
    "Volcanic_Ashfall": [],
    "Waterspout": [],
    "Wildfire": [
      {
        "type": "Wildfire",
        "time": "0",
        "inj": "0",
        "deaths": "0",
        "prop_dmg": "12.0k",
        "crop_dmg": "0",
        "begin": "07/01/2011",
        "county": "SOUTHERN SANGRE DE CRISTO MOUNTAINS ABOVE 9500 FEET ",
        "state": "NM"
      }
    ],
    "Winter_Storm": [],
    "Winter_Weather": []
  },
  "035": {
    "name": "Otero County",
    "fips": "NM",
    "pop10": "63797",
    "lat": 32.588776,
    "lon": -105.781079,
    "geoid": "35035",
    "deaths": 0,
    "prop_dmg": "1.83M",
    "crop_dmg": 0,
    "inj": 0,
    "all": 5,
    "eq": [],
    "Hurricane____Typhoon___": [],
    "Cold__FWind_Chill": [],
    "Coastal_Flood": [],
    "Avalanche": [],
    "Astronomical_Low_Tide": [],
    "Dense_Fog": [],
    "Drought": [],
    "Dust_Devil": [],
    "Dust_Storm": [],
    "Excessive_Heat": [],
    "Extreme_Cold__FWind_Chill": [],
    "Flash_Flood": [
      {
        "type": "Flash+Flood",
        "time": "1000",
        "inj": "0",
        "deaths": "0",
        "prop_dmg": "50.0k",
        "crop_dmg": "0",
        "begin": "06/01/2000",
        "county": "OTERO CO.",
        "state": "NM"
      },
      {
        "type": "Flash+Flood",
        "time": "1545",
        "inj": "0",
        "deaths": "0",
        "prop_dmg": "1.30M",
        "crop_dmg": "0",
        "begin": "06/22/2006",
        "county": "OTERO CO.",
        "state": "NM"
      },
      {
        "type": "Flash+Flood",
        "time": "1105",
        "inj": "0",
        "deaths": "0",
        "prop_dmg": "200k",
        "crop_dmg": "0",
        "begin": "06/23/2009",
        "county": "OTERO CO.",
        "state": "NM"
      }
    ],
    "Flood": [
      {
        "type": "Flood",
        "time": "1805",
        "inj": "0",
        "deaths": "0",
        "prop_dmg": "25.0k",
        "crop_dmg": "0",
        "begin": "07/05/2009",
        "county": "OTERO CO.",
        "state": "NM"
      }
    ],
    "Freezing_Fog": [],
    "Funnel_Cloud": [],
    "Hail": [],
    "Heat": [],
    "Heavy_Rain": [],
    "Heavy_Snow": [],
    "High_Surf": [],
    "High_Wind": [],
    "Ice_Storm": [],
    "Lakeshore_Flood": [],
    "Landslide": [],
    "Lightning": [],
    "Rip_Current": [],
    "Seiche": [],
    "Sleet": [],
    "Storm_Surge__FTide": [],
    "Strong_Wind": [],
    "Thunderstorm_Wind": [],
    "Tornado": [
      {
        "type": "Tornado",
        "time": "1615",
        "inj": "0",
        "deaths": "0",
        "prop_dmg": "250k",
        "crop_dmg": "0",
        "begin": "05/27/1982",
        "county": "OTERO CO.",
        "state": "NM"
      }
    ],
    "Tropical_Depression": [],
    "Tropical_Storm": [],
    "Tsunami": [],
    "Volcanic_Ashfall": [],
    "Waterspout": [],
    "Wildfire": [],
    "Winter_Storm": [],
    "Winter_Weather": []
  },
  "037": {
    "name": "Quay County",
    "fips": "NM",
    "pop10": "9041",
    "lat": 35.107018,
    "lon": -103.548071,
    "geoid": "35037",
    "deaths": 0,
    "prop_dmg": "453k",
    "crop_dmg": 0,
    "inj": 1,
    "all": 5,
    "eq": [],
    "Hurricane____Typhoon___": [],
    "Cold__FWind_Chill": [],
    "Coastal_Flood": [],
    "Avalanche": [],
    "Astronomical_Low_Tide": [],
    "Dense_Fog": [],
    "Drought": [],
    "Dust_Devil": [],
    "Dust_Storm": [],
    "Excessive_Heat": [],
    "Extreme_Cold__FWind_Chill": [],
    "Flash_Flood": [],
    "Flood": [],
    "Freezing_Fog": [],
    "Funnel_Cloud": [],
    "Hail": [],
    "Heat": [],
    "Heavy_Rain": [],
    "Heavy_Snow": [],
    "High_Surf": [],
    "High_Wind": [],
    "Ice_Storm": [],
    "Lakeshore_Flood": [],
    "Landslide": [],
    "Lightning": [],
    "Rip_Current": [],
    "Seiche": [],
    "Sleet": [],
    "Storm_Surge__FTide": [],
    "Strong_Wind": [],
    "Thunderstorm_Wind": [],
    "Tornado": [
      {
        "type": "Tornado",
        "time": "1730",
        "inj": "1",
        "deaths": "0",
        "prop_dmg": "25.0k",
        "crop_dmg": "0",
        "begin": "06/03/1961",
        "county": "QUAY CO.",
        "state": "NM"
      },
      {
        "type": "Tornado",
        "time": "1400",
        "inj": "0",
        "deaths": "0",
        "prop_dmg": "25.0k",
        "crop_dmg": "0",
        "begin": "07/12/1963",
        "county": "QUAY CO.",
        "state": "NM"
      },
      {
        "type": "Tornado",
        "time": "1320",
        "inj": "0",
        "deaths": "0",
        "prop_dmg": "2.50k",
        "crop_dmg": "0",
        "begin": "06/11/1964",
        "county": "QUAY CO.",
        "state": "NM"
      },
      {
        "type": "Tornado",
        "time": "2000",
        "inj": "0",
        "deaths": "0",
        "prop_dmg": "250k",
        "crop_dmg": "0",
        "begin": "04/17/1970",
        "county": "QUAY CO.",
        "state": "NM"
      }
    ],
    "Tropical_Depression": [],
    "Tropical_Storm": [],
    "Tsunami": [],
    "Volcanic_Ashfall": [],
    "Waterspout": [],
    "Wildfire": [
      {
        "type": "Wildfire",
        "time": "1300",
        "inj": "0",
        "deaths": "0",
        "prop_dmg": "150k",
        "crop_dmg": "0",
        "begin": "06/18/2011",
        "county": "QUAY COUNTY ",
        "state": "NM"
      }
    ],
    "Winter_Storm": [],
    "Winter_Weather": []
  },
  "039": {
    "name": "Rio Arriba County",
    "fips": "NM",
    "pop10": "40246",
    "lat": 36.509669,
    "lon": -106.693983,
    "geoid": "35039",
    "deaths": 1,
    "prop_dmg": "1.36M",
    "crop_dmg": 0,
    "inj": 2,
    "all": 8,
    "eq": [],
    "Hurricane____Typhoon___": [],
    "Cold__FWind_Chill": [],
    "Coastal_Flood": [],
    "Avalanche": [],
    "Astronomical_Low_Tide": [],
    "Dense_Fog": [],
    "Drought": [],
    "Dust_Devil": [],
    "Dust_Storm": [],
    "Excessive_Heat": [],
    "Extreme_Cold__FWind_Chill": [],
    "Flash_Flood": [
      {
        "type": "Flash+Flood",
        "time": "1630",
        "inj": "0",
        "deaths": "0",
        "prop_dmg": "2.50k",
        "crop_dmg": "0",
        "begin": "07/21/2012",
        "county": "RIO ARRIBA CO.",
        "state": "NM"
      }
    ],
    "Flood": [],
    "Freezing_Fog": [],
    "Funnel_Cloud": [],
    "Hail": [],
    "Heat": [],
    "Heavy_Rain": [],
    "Heavy_Snow": [],
    "High_Surf": [],
    "High_Wind": [],
    "Ice_Storm": [],
    "Lakeshore_Flood": [],
    "Landslide": [],
    "Lightning": [
      {
        "type": "Lightning",
        "time": "1200",
        "inj": "0",
        "deaths": "1",
        "prop_dmg": "0",
        "crop_dmg": "0",
        "begin": "05/20/1997",
        "county": "RIO ARRIBA CO.",
        "state": "NM"
      },
      {
        "type": "Lightning",
        "time": "2000",
        "inj": "1",
        "deaths": "0",
        "prop_dmg": "0",
        "crop_dmg": "0",
        "begin": "04/29/1999",
        "county": "RIO ARRIBA CO.",
        "state": "NM"
      },
      {
        "type": "Lightning",
        "time": "1500",
        "inj": "0",
        "deaths": "0",
        "prop_dmg": "50.0k",
        "crop_dmg": "0",
        "begin": "06/27/2000",
        "county": "RIO ARRIBA CO.",
        "state": "NM"
      },
      {
        "type": "Lightning",
        "time": "1730",
        "inj": "1",
        "deaths": "0",
        "prop_dmg": "0",
        "crop_dmg": "0",
        "begin": "08/16/2000",
        "county": "RIO ARRIBA CO.",
        "state": "NM"
      }
    ],
    "Rip_Current": [],
    "Seiche": [],
    "Sleet": [],
    "Storm_Surge__FTide": [],
    "Strong_Wind": [],
    "Thunderstorm_Wind": [],
    "Tornado": [],
    "Tropical_Depression": [],
    "Tropical_Storm": [],
    "Tsunami": [],
    "Volcanic_Ashfall": [],
    "Waterspout": [],
    "Wildfire": [
      {
        "type": "Wildfire",
        "time": "1400",
        "inj": "0",
        "deaths": "0",
        "prop_dmg": "8.00k",
        "crop_dmg": "0",
        "begin": "04/17/2011",
        "county": "LOWER CHAMA RIVER VALLEY ",
        "state": "NM"
      },
      {
        "type": "Wildfire",
        "time": "2200",
        "inj": "0",
        "deaths": "0",
        "prop_dmg": "1.00M",
        "crop_dmg": "0",
        "begin": "06/23/2010",
        "county": "SAN JUAN MOUNTAINS ",
        "state": "NM"
      },
      {
        "type": "Wildfire",
        "time": "1530",
        "inj": "0",
        "deaths": "0",
        "prop_dmg": "300k",
        "crop_dmg": "0",
        "begin": "03/25/2012",
        "county": "LOWER CHAMA RIVER VALLEY ",
        "state": "NM"
      }
    ],
    "Winter_Storm": [],
    "Winter_Weather": []
  },
  "041": {
    "name": "Roosevelt County",
    "fips": "NM",
    "pop10": "19846",
    "lat": 34.021457,
    "lon": -103.482725,
    "geoid": "35041",
    "deaths": 0,
    "prop_dmg": "2.53M",
    "crop_dmg": "250k",
    "inj": 2,
    "all": 4,
    "eq": [],
    "Hurricane____Typhoon___": [],
    "Cold__FWind_Chill": [],
    "Coastal_Flood": [],
    "Avalanche": [],
    "Astronomical_Low_Tide": [],
    "Dense_Fog": [],
    "Drought": [],
    "Dust_Devil": [],
    "Dust_Storm": [],
    "Excessive_Heat": [],
    "Extreme_Cold__FWind_Chill": [],
    "Flash_Flood": [],
    "Flood": [],
    "Freezing_Fog": [],
    "Funnel_Cloud": [],
    "Hail": [],
    "Heat": [],
    "Heavy_Rain": [],
    "Heavy_Snow": [],
    "High_Surf": [],
    "High_Wind": [],
    "Ice_Storm": [],
    "Lakeshore_Flood": [],
    "Landslide": [],
    "Lightning": [
      {
        "type": "Lightning",
        "time": "2130",
        "inj": "2",
        "deaths": "0",
        "prop_dmg": "0",
        "crop_dmg": "0",
        "begin": "07/20/2004",
        "county": "ROOSEVELT CO.",
        "state": "NM"
      }
    ],
    "Rip_Current": [],
    "Seiche": [],
    "Sleet": [],
    "Storm_Surge__FTide": [],
    "Strong_Wind": [],
    "Thunderstorm_Wind": [],
    "Tornado": [
      {
        "type": "Tornado",
        "time": "1600",
        "inj": "0",
        "deaths": "0",
        "prop_dmg": "25.0k",
        "crop_dmg": "0",
        "begin": "04/21/1957",
        "county": "ROOSEVELT CO.",
        "state": "NM"
      },
      {
        "type": "Tornado",
        "time": "1958",
        "inj": "0",
        "deaths": "0",
        "prop_dmg": "2.50k",
        "crop_dmg": "0",
        "begin": "05/07/1972",
        "county": "ROOSEVELT CO.",
        "state": "NM"
      },
      {
        "type": "Tornado",
        "time": "1830",
        "inj": "0",
        "deaths": "0",
        "prop_dmg": "2.50M",
        "crop_dmg": "250k",
        "begin": "03/23/2007",
        "county": "ROOSEVELT CO.",
        "state": "NM"
      }
    ],
    "Tropical_Depression": [],
    "Tropical_Storm": [],
    "Tsunami": [],
    "Volcanic_Ashfall": [],
    "Waterspout": [],
    "Wildfire": [],
    "Winter_Storm": [],
    "Winter_Weather": []
  },
  "043": {
    "name": "Sandoval County",
    "fips": "NM",
    "pop10": "131561",
    "lat": 35.685073,
    "lon": -106.882618,
    "geoid": "35043",
    "deaths": 1,
    "prop_dmg": "17.1M",
    "crop_dmg": 0,
    "inj": 7,
    "all": 6,
    "eq": [],
    "Hurricane____Typhoon___": [],
    "Cold__FWind_Chill": [],
    "Coastal_Flood": [],
    "Avalanche": [],
    "Astronomical_Low_Tide": [],
    "Dense_Fog": [],
    "Drought": [],
    "Dust_Devil": [],
    "Dust_Storm": [],
    "Excessive_Heat": [],
    "Extreme_Cold__FWind_Chill": [],
    "Flash_Flood": [
      {
        "type": "Flash+Flood",
        "time": "1213",
        "inj": "0",
        "deaths": "0",
        "prop_dmg": "10.0k",
        "crop_dmg": "0",
        "begin": "07/16/2012",
        "county": "SANDOVAL CO.",
        "state": "NM"
      }
    ],
    "Flood": [],
    "Freezing_Fog": [],
    "Funnel_Cloud": [],
    "Hail": [],
    "Heat": [],
    "Heavy_Rain": [],
    "Heavy_Snow": [],
    "High_Surf": [],
    "High_Wind": [],
    "Ice_Storm": [],
    "Lakeshore_Flood": [],
    "Landslide": [],
    "Lightning": [
      {
        "type": "Lightning",
        "time": "1430",
        "inj": "1",
        "deaths": "0",
        "prop_dmg": "0",
        "crop_dmg": "0",
        "begin": "07/11/1997",
        "county": "SANDOVAL CO.",
        "state": "NM"
      },
      {
        "type": "Lightning",
        "time": "1600",
        "inj": "0",
        "deaths": "0",
        "prop_dmg": "100k",
        "crop_dmg": "0",
        "begin": "08/03/2001",
        "county": "SANDOVAL CO.",
        "state": "NM"
      },
      {
        "type": "Lightning",
        "time": "1815",
        "inj": "6",
        "deaths": "1",
        "prop_dmg": "0",
        "crop_dmg": "0",
        "begin": "07/04/2009",
        "county": "SANDOVAL CO.",
        "state": "NM"
      }
    ],
    "Rip_Current": [],
    "Seiche": [],
    "Sleet": [],
    "Storm_Surge__FTide": [],
    "Strong_Wind": [],
    "Thunderstorm_Wind": [],
    "Tornado": [],
    "Tropical_Depression": [],
    "Tropical_Storm": [],
    "Tsunami": [],
    "Volcanic_Ashfall": [],
    "Waterspout": [],
    "Wildfire": [
      {
        "type": "Wildfire",
        "time": "0",
        "inj": "0",
        "deaths": "0",
        "prop_dmg": "17.0M",
        "crop_dmg": "0",
        "begin": "07/01/2011",
        "county": "JEMEZ MOUNTAINS ",
        "state": "NM"
      },
      {
        "type": "Wildfire",
        "time": "1330",
        "inj": "0",
        "deaths": "0",
        "prop_dmg": "5.00k",
        "crop_dmg": "0",
        "begin": "05/31/2013",
        "county": "JEMEZ MOUNTAINS ",
        "state": "NM"
      }
    ],
    "Winter_Storm": [],
    "Winter_Weather": []
  },
  "045": {
    "name": "San Juan County",
    "fips": "NM",
    "pop10": "130044",
    "lat": 36.511624,
    "lon": -108.324578,
    "geoid": "35045",
    "deaths": 6,
    "prop_dmg": "2.00M",
    "crop_dmg": 0,
    "inj": 11,
    "all": 15,
    "eq": [],
    "Hurricane____Typhoon___": [],
    "Cold__FWind_Chill": [
      {
        "type": "Cold%2FWind+Chill",
        "time": "0",
        "inj": "0",
        "deaths": "1",
        "prop_dmg": "0",
        "crop_dmg": "0",
        "begin": "01/11/2011",
        "county": "NORTHWEST PLATEAU ",
        "state": "NM"
      },
      {
        "type": "Cold%2FWind+Chill",
        "time": "0",
        "inj": "0",
        "deaths": "1",
        "prop_dmg": "0",
        "crop_dmg": "0",
        "begin": "01/31/2011",
        "county": "NORTHWEST PLATEAU ",
        "state": "NM"
      }
    ],
    "Coastal_Flood": [],
    "Avalanche": [],
    "Astronomical_Low_Tide": [],
    "Dense_Fog": [],
    "Drought": [],
    "Dust_Devil": [],
    "Dust_Storm": [],
    "Excessive_Heat": [],
    "Extreme_Cold__FWind_Chill": [],
    "Flash_Flood": [],
    "Flood": [],
    "Freezing_Fog": [
      {
        "type": "Freezing+Fog",
        "time": "0",
        "inj": "1",
        "deaths": "1",
        "prop_dmg": "50.0k",
        "crop_dmg": "0",
        "begin": "11/30/2013",
        "county": "NORTHWEST PLATEAU ",
        "state": "NM"
      }
    ],
    "Funnel_Cloud": [],
    "Hail": [],
    "Heat": [],
    "Heavy_Rain": [
      {
        "type": "Heavy+Rain",
        "time": "1845",
        "inj": "4",
        "deaths": "1",
        "prop_dmg": "0",
        "crop_dmg": "0",
        "begin": "07/31/1999",
        "county": "SAN JUAN CO.",
        "state": "NM"
      },
      {
        "type": "Heavy+Rain",
        "time": "1700",
        "inj": "0",
        "deaths": "0",
        "prop_dmg": "100k",
        "crop_dmg": "0",
        "begin": "07/14/2001",
        "county": "SAN JUAN CO.",
        "state": "NM"
      },
      {
        "type": "Heavy+Rain",
        "time": "2130",
        "inj": "1",
        "deaths": "0",
        "prop_dmg": "0",
        "crop_dmg": "0",
        "begin": "08/13/2003",
        "county": "SAN JUAN CO.",
        "state": "NM"
      }
    ],
    "Heavy_Snow": [],
    "High_Surf": [],
    "High_Wind": [],
    "Ice_Storm": [],
    "Lakeshore_Flood": [],
    "Landslide": [],
    "Lightning": [
      {
        "type": "Lightning",
        "time": "1600",
        "inj": "0",
        "deaths": "0",
        "prop_dmg": "10.0k",
        "crop_dmg": "0",
        "begin": "06/30/2000",
        "county": "SAN JUAN CO.",
        "state": "NM"
      },
      {
        "type": "Lightning",
        "time": "1500",
        "inj": "0",
        "deaths": "0",
        "prop_dmg": "30.0k",
        "crop_dmg": "0",
        "begin": "07/10/2001",
        "county": "SAN JUAN CO.",
        "state": "NM"
      },
      {
        "type": "Lightning",
        "time": "1350",
        "inj": "1",
        "deaths": "1",
        "prop_dmg": "0",
        "crop_dmg": "0",
        "begin": "08/02/2003",
        "county": "SAN JUAN CO.",
        "state": "NM"
      },
      {
        "type": "Lightning",
        "time": "1630",
        "inj": "0",
        "deaths": "0",
        "prop_dmg": "30.0k",
        "crop_dmg": "0",
        "begin": "08/13/2003",
        "county": "SAN JUAN CO.",
        "state": "NM"
      },
      {
        "type": "Lightning",
        "time": "1607",
        "inj": "1",
        "deaths": "0",
        "prop_dmg": "0",
        "crop_dmg": "0",
        "begin": "08/24/2009",
        "county": "SAN JUAN CO.",
        "state": "NM"
      }
    ],
    "Rip_Current": [],
    "Seiche": [],
    "Sleet": [],
    "Storm_Surge__FTide": [],
    "Strong_Wind": [],
    "Thunderstorm_Wind": [],
    "Tornado": [
      {
        "type": "Tornado",
        "time": "1920",
        "inj": "0",
        "deaths": "1",
        "prop_dmg": "25.0k",
        "crop_dmg": "0",
        "begin": "05/10/1957",
        "county": "SAN JUAN CO.",
        "state": "NM"
      },
      {
        "type": "Tornado",
        "time": "2045",
        "inj": "3",
        "deaths": "0",
        "prop_dmg": "250k",
        "crop_dmg": "0",
        "begin": "06/18/1968",
        "county": "SAN JUAN CO.",
        "state": "NM"
      }
    ],
    "Tropical_Depression": [],
    "Tropical_Storm": [],
    "Tsunami": [],
    "Volcanic_Ashfall": [],
    "Waterspout": [],
    "Wildfire": [
      {
        "type": "Wildfire",
        "time": "0",
        "inj": "0",
        "deaths": "0",
        "prop_dmg": "500k",
        "crop_dmg": "0",
        "begin": "06/15/2014",
        "county": "NORTHWEST PLATEAU ",
        "state": "NM"
      },
      {
        "type": "Wildfire",
        "time": "1330",
        "inj": "0",
        "deaths": "0",
        "prop_dmg": "1.00M",
        "crop_dmg": "0",
        "begin": "06/18/2012",
        "county": "NORTHWEST PLATEAU ",
        "state": "NM"
      }
    ],
    "Winter_Storm": [],
    "Winter_Weather": []
  },
  "047": {
    "name": "San Miguel County",
    "fips": "NM",
    "pop10": "29393",
    "lat": 35.476876,
    "lon": -104.803515,
    "geoid": "35047",
    "deaths": 0,
    "prop_dmg": "1.32M",
    "crop_dmg": 0,
    "inj": 0,
    "all": 4,
    "eq": [],
    "Hurricane____Typhoon___": [],
    "Cold__FWind_Chill": [],
    "Coastal_Flood": [],
    "Avalanche": [],
    "Astronomical_Low_Tide": [],
    "Dense_Fog": [],
    "Drought": [],
    "Dust_Devil": [],
    "Dust_Storm": [],
    "Excessive_Heat": [],
    "Extreme_Cold__FWind_Chill": [],
    "Flash_Flood": [
      {
        "type": "Flash+Flood",
        "time": "0",
        "inj": "0",
        "deaths": "0",
        "prop_dmg": "80.0k",
        "crop_dmg": "0",
        "begin": "06/07/1997",
        "county": "SAN MIGUEL CO.",
        "state": "NM"
      },
      {
        "type": "Flash+Flood",
        "time": "100",
        "inj": "0",
        "deaths": "0",
        "prop_dmg": "10.0k",
        "crop_dmg": "0",
        "begin": "06/05/2000",
        "county": "SAN MIGUEL CO.",
        "state": "NM"
      }
    ],
    "Flood": [],
    "Freezing_Fog": [],
    "Funnel_Cloud": [],
    "Hail": [],
    "Heat": [],
    "Heavy_Rain": [],
    "Heavy_Snow": [],
    "High_Surf": [],
    "High_Wind": [],
    "Ice_Storm": [],
    "Lakeshore_Flood": [],
    "Landslide": [],
    "Lightning": [],
    "Rip_Current": [],
    "Seiche": [],
    "Sleet": [],
    "Storm_Surge__FTide": [],
    "Strong_Wind": [],
    "Thunderstorm_Wind": [],
    "Tornado": [
      {
        "type": "Tornado",
        "time": "1330",
        "inj": "0",
        "deaths": "0",
        "prop_dmg": "25.0k",
        "crop_dmg": "0",
        "begin": "06/27/1992",
        "county": "SAN MIGUEL CO.",
        "state": "NM"
      }
    ],
    "Tropical_Depression": [],
    "Tropical_Storm": [],
    "Tsunami": [],
    "Volcanic_Ashfall": [],
    "Waterspout": [],
    "Wildfire": [
      {
        "type": "Wildfire",
        "time": "1700",
        "inj": "0",
        "deaths": "0",
        "prop_dmg": "1.20M",
        "crop_dmg": "0",
        "begin": "05/30/2000",
        "county": "SAN MIGUEL CO.",
        "state": "NM"
      }
    ],
    "Winter_Storm": [],
    "Winter_Weather": []
  },
  "049": {
    "name": "Santa Fe County",
    "fips": "NM",
    "pop10": "144170",
    "lat": 35.513722,
    "lon": -105.966441,
    "geoid": "35049",
    "deaths": 1,
    "prop_dmg": "518k",
    "crop_dmg": 0,
    "inj": 4,
    "all": 10,
    "eq": [],
    "Hurricane____Typhoon___": [],
    "Cold__FWind_Chill": [],
    "Coastal_Flood": [],
    "Avalanche": [],
    "Astronomical_Low_Tide": [],
    "Dense_Fog": [],
    "Drought": [],
    "Dust_Devil": [
      {
        "type": "Dust+Devil",
        "time": "1430",
        "inj": "0",
        "deaths": "0",
        "prop_dmg": "20.0k",
        "crop_dmg": "0",
        "begin": "04/28/2003",
        "county": "SANTA FE CO.",
        "state": "NM"
      },
      {
        "type": "Dust+Devil",
        "time": "1430",
        "inj": "0",
        "deaths": "0",
        "prop_dmg": "20.0k",
        "crop_dmg": "0",
        "begin": "04/28/2003",
        "county": "SANTA FE CO.",
        "state": "NM"
      }
    ],
    "Dust_Storm": [],
    "Excessive_Heat": [],
    "Extreme_Cold__FWind_Chill": [],
    "Flash_Flood": [
      {
        "type": "Flash+Flood",
        "time": "1500",
        "inj": "0",
        "deaths": "0",
        "prop_dmg": "200k",
        "crop_dmg": "0",
        "begin": "06/07/1997",
        "county": "SANTA FE CO.",
        "state": "NM"
      }
    ],
    "Flood": [],
    "Freezing_Fog": [],
    "Funnel_Cloud": [],
    "Hail": [],
    "Heat": [],
    "Heavy_Rain": [],
    "Heavy_Snow": [],
    "High_Surf": [],
    "High_Wind": [],
    "Ice_Storm": [],
    "Lakeshore_Flood": [],
    "Landslide": [],
    "Lightning": [
      {
        "type": "Lightning",
        "time": "2030",
        "inj": "0",
        "deaths": "0",
        "prop_dmg": "60.0k",
        "crop_dmg": "0",
        "begin": "07/09/1996",
        "county": "SANTA FE CO.",
        "state": "NM"
      },
      {
        "type": "Lightning",
        "time": "1130",
        "inj": "2",
        "deaths": "1",
        "prop_dmg": "0",
        "crop_dmg": "0",
        "begin": "08/03/1997",
        "county": "SANTA FE CO.",
        "state": "NM"
      },
      {
        "type": "Lightning",
        "time": "1400",
        "inj": "2",
        "deaths": "0",
        "prop_dmg": "0",
        "crop_dmg": "0",
        "begin": "08/17/2006",
        "county": "SANTA FE CO.",
        "state": "NM"
      },
      {
        "type": "Lightning",
        "time": "1755",
        "inj": "0",
        "deaths": "0",
        "prop_dmg": "2.00k",
        "crop_dmg": "0",
        "begin": "07/24/2007",
        "county": "SANTA FE CO.",
        "state": "NM"
      },
      {
        "type": "Lightning",
        "time": "2100",
        "inj": "0",
        "deaths": "0",
        "prop_dmg": "15.0k",
        "crop_dmg": "0",
        "begin": "07/02/2010",
        "county": "SANTA FE CO.",
        "state": "NM"
      },
      {
        "type": "Lightning",
        "time": "1630",
        "inj": "0",
        "deaths": "0",
        "prop_dmg": "1.00k",
        "crop_dmg": "0",
        "begin": "08/04/2014",
        "county": "SANTA FE CO.",
        "state": "NM"
      }
    ],
    "Rip_Current": [],
    "Seiche": [],
    "Sleet": [],
    "Storm_Surge__FTide": [],
    "Strong_Wind": [],
    "Thunderstorm_Wind": [],
    "Tornado": [],
    "Tropical_Depression": [],
    "Tropical_Storm": [],
    "Tsunami": [],
    "Volcanic_Ashfall": [],
    "Waterspout": [],
    "Wildfire": [
      {
        "type": "Wildfire",
        "time": "1700",
        "inj": "0",
        "deaths": "0",
        "prop_dmg": "200k",
        "crop_dmg": "0",
        "begin": "05/08/2011",
        "county": "SANTA FE METRO AREA ",
        "state": "NM"
      }
    ],
    "Winter_Storm": [],
    "Winter_Weather": []
  },
  "051": {
    "name": "Sierra County",
    "fips": "NM",
    "pop10": "11988",
    "lat": 33.119479,
    "lon": -107.188161,
    "geoid": "35051",
    "deaths": 0,
    "prop_dmg": "1.00M",
    "crop_dmg": 0,
    "inj": 0,
    "all": 1,
    "eq": [],
    "Hurricane____Typhoon___": [],
    "Cold__FWind_Chill": [],
    "Coastal_Flood": [],
    "Avalanche": [],
    "Astronomical_Low_Tide": [],
    "Dense_Fog": [],
    "Drought": [],
    "Dust_Devil": [],
    "Dust_Storm": [],
    "Excessive_Heat": [],
    "Extreme_Cold__FWind_Chill": [],
    "Flash_Flood": [
      {
        "type": "Flash+Flood",
        "time": "200",
        "inj": "0",
        "deaths": "0",
        "prop_dmg": "1.00M",
        "crop_dmg": "0",
        "begin": "06/29/1996",
        "county": "SIERRA CO.",
        "state": "NM"
      }
    ],
    "Flood": [],
    "Freezing_Fog": [],
    "Funnel_Cloud": [],
    "Hail": [],
    "Heat": [],
    "Heavy_Rain": [],
    "Heavy_Snow": [],
    "High_Surf": [],
    "High_Wind": [],
    "Ice_Storm": [],
    "Lakeshore_Flood": [],
    "Landslide": [],
    "Lightning": [],
    "Rip_Current": [],
    "Seiche": [],
    "Sleet": [],
    "Storm_Surge__FTide": [],
    "Strong_Wind": [],
    "Thunderstorm_Wind": [],
    "Tornado": [],
    "Tropical_Depression": [],
    "Tropical_Storm": [],
    "Tsunami": [],
    "Volcanic_Ashfall": [],
    "Waterspout": [],
    "Wildfire": [],
    "Winter_Storm": [],
    "Winter_Weather": []
  },
  "053": {
    "name": "Socorro County",
    "fips": "NM",
    "pop10": "17866",
    "lat": 33.991614,
    "lon": -106.939003,
    "geoid": "35053",
    "deaths": 0,
    "prop_dmg": "215k",
    "crop_dmg": 0,
    "inj": 0,
    "all": 3,
    "eq": [],
    "Hurricane____Typhoon___": [],
    "Cold__FWind_Chill": [],
    "Coastal_Flood": [],
    "Avalanche": [],
    "Astronomical_Low_Tide": [],
    "Dense_Fog": [],
    "Drought": [],
    "Dust_Devil": [],
    "Dust_Storm": [],
    "Excessive_Heat": [],
    "Extreme_Cold__FWind_Chill": [],
    "Flash_Flood": [
      {
        "type": "Flash+Flood",
        "time": "1720",
        "inj": "0",
        "deaths": "0",
        "prop_dmg": "10.0k",
        "crop_dmg": "0",
        "begin": "07/05/2012",
        "county": "SOCORRO CO.",
        "state": "NM"
      }
    ],
    "Flood": [],
    "Freezing_Fog": [],
    "Funnel_Cloud": [],
    "Hail": [],
    "Heat": [],
    "Heavy_Rain": [
      {
        "type": "Heavy+Rain",
        "time": "1300",
        "inj": "0",
        "deaths": "0",
        "prop_dmg": "200k",
        "crop_dmg": "0",
        "begin": "09/20/1997",
        "county": "SOCORRO CO.",
        "state": "NM"
      },
      {
        "type": "Heavy+Rain",
        "time": "1930",
        "inj": "0",
        "deaths": "0",
        "prop_dmg": "5.00k",
        "crop_dmg": "0",
        "begin": "08/04/1998",
        "county": "SOCORRO CO.",
        "state": "NM"
      }
    ],
    "Heavy_Snow": [],
    "High_Surf": [],
    "High_Wind": [],
    "Ice_Storm": [],
    "Lakeshore_Flood": [],
    "Landslide": [],
    "Lightning": [],
    "Rip_Current": [],
    "Seiche": [],
    "Sleet": [],
    "Storm_Surge__FTide": [],
    "Strong_Wind": [],
    "Thunderstorm_Wind": [],
    "Tornado": [],
    "Tropical_Depression": [],
    "Tropical_Storm": [],
    "Tsunami": [],
    "Volcanic_Ashfall": [],
    "Waterspout": [],
    "Wildfire": [],
    "Winter_Storm": [],
    "Winter_Weather": []
  },
  "055": {
    "name": "Taos County",
    "fips": "NM",
    "pop10": "32937",
    "lat": 36.576529,
    "lon": -105.637986,
    "geoid": "35055",
    "deaths": 0,
    "prop_dmg": "3.51M",
    "crop_dmg": 0,
    "inj": 0,
    "all": 4,
    "eq": [],
    "Hurricane____Typhoon___": [],
    "Cold__FWind_Chill": [],
    "Coastal_Flood": [],
    "Avalanche": [],
    "Astronomical_Low_Tide": [],
    "Dense_Fog": [],
    "Drought": [],
    "Dust_Devil": [],
    "Dust_Storm": [],
    "Excessive_Heat": [],
    "Extreme_Cold__FWind_Chill": [],
    "Flash_Flood": [],
    "Flood": [],
    "Freezing_Fog": [],
    "Funnel_Cloud": [],
    "Hail": [],
    "Heat": [],
    "Heavy_Rain": [],
    "Heavy_Snow": [],
    "High_Surf": [],
    "High_Wind": [],
    "Ice_Storm": [],
    "Lakeshore_Flood": [],
    "Landslide": [],
    "Lightning": [],
    "Rip_Current": [],
    "Seiche": [],
    "Sleet": [],
    "Storm_Surge__FTide": [],
    "Strong_Wind": [],
    "Thunderstorm_Wind": [],
    "Tornado": [],
    "Tropical_Depression": [],
    "Tropical_Storm": [],
    "Tsunami": [],
    "Volcanic_Ashfall": [],
    "Waterspout": [],
    "Wildfire": [
      {
        "type": "Wildfire",
        "time": "1200",
        "inj": "0",
        "deaths": "0",
        "prop_dmg": "1.50M",
        "crop_dmg": "0",
        "begin": "05/06/1996",
        "county": "TAOS CO.",
        "state": "NM"
      },
      {
        "type": "Wildfire",
        "time": "1200",
        "inj": "0",
        "deaths": "0",
        "prop_dmg": "5.00k",
        "crop_dmg": "0",
        "begin": "05/30/2013",
        "county": "WEST SLOPES OF THE SANGRE DE CRISTO MOUNTAINS ",
        "state": "NM"
      },
      {
        "type": "Wildfire",
        "time": "0",
        "inj": "0",
        "deaths": "0",
        "prop_dmg": "1.00M",
        "crop_dmg": "0",
        "begin": "06/01/2013",
        "county": "WEST SLOPES OF THE SANGRE DE CRISTO MOUNTAINS ",
        "state": "NM"
      },
      {
        "type": "Wildfire",
        "time": "0",
        "inj": "0",
        "deaths": "0",
        "prop_dmg": "1.00M",
        "crop_dmg": "0",
        "begin": "06/01/2013",
        "county": "WEST SLOPES OF THE SANGRE DE CRISTO MOUNTAINS ",
        "state": "NM"
      }
    ],
    "Winter_Storm": [],
    "Winter_Weather": []
  },
  "057": {
    "name": "Torrance County",
    "fips": "NM",
    "pop10": "16383",
    "lat": 34.634644,
    "lon": -105.846836,
    "geoid": "35057",
    "deaths": 0,
    "prop_dmg": "25.0k",
    "crop_dmg": 0,
    "inj": 3,
    "all": 5,
    "eq": [],
    "Hurricane____Typhoon___": [],
    "Cold__FWind_Chill": [],
    "Coastal_Flood": [],
    "Avalanche": [],
    "Astronomical_Low_Tide": [],
    "Dense_Fog": [],
    "Drought": [],
    "Dust_Devil": [
      {
        "type": "Dust+Devil",
        "time": "1355",
        "inj": "0",
        "deaths": "0",
        "prop_dmg": "5.00k",
        "crop_dmg": "0",
        "begin": "07/17/2009",
        "county": "TORRANCE CO.",
        "state": "NM"
      },
      {
        "type": "Dust+Devil",
        "time": "1355",
        "inj": "0",
        "deaths": "0",
        "prop_dmg": "5.00k",
        "crop_dmg": "0",
        "begin": "07/17/2009",
        "county": "TORRANCE CO.",
        "state": "NM"
      }
    ],
    "Dust_Storm": [],
    "Excessive_Heat": [],
    "Extreme_Cold__FWind_Chill": [],
    "Flash_Flood": [],
    "Flood": [],
    "Freezing_Fog": [],
    "Funnel_Cloud": [],
    "Hail": [],
    "Heat": [],
    "Heavy_Rain": [],
    "Heavy_Snow": [
      {
        "type": "Heavy+Snow",
        "time": "1200",
        "inj": "0",
        "deaths": "0",
        "prop_dmg": "5.00k",
        "crop_dmg": "0",
        "begin": "11/23/2013",
        "county": "CENTRAL HIGHLANDS ",
        "state": "NM"
      }
    ],
    "High_Surf": [],
    "High_Wind": [],
    "Ice_Storm": [],
    "Lakeshore_Flood": [],
    "Landslide": [],
    "Lightning": [
      {
        "type": "Lightning",
        "time": "1445",
        "inj": "2",
        "deaths": "0",
        "prop_dmg": "10.0k",
        "crop_dmg": "0",
        "begin": "07/24/2013",
        "county": "TORRANCE CO.",
        "state": "NM"
      },
      {
        "type": "Lightning",
        "time": "1600",
        "inj": "1",
        "deaths": "0",
        "prop_dmg": "0",
        "crop_dmg": "0",
        "begin": "04/05/2014",
        "county": "TORRANCE CO.",
        "state": "NM"
      }
    ],
    "Rip_Current": [],
    "Seiche": [],
    "Sleet": [],
    "Storm_Surge__FTide": [],
    "Strong_Wind": [],
    "Thunderstorm_Wind": [],
    "Tornado": [],
    "Tropical_Depression": [],
    "Tropical_Storm": [],
    "Tsunami": [],
    "Volcanic_Ashfall": [],
    "Waterspout": [],
    "Wildfire": [],
    "Winter_Storm": [],
    "Winter_Weather": []
  },
  "059": {
    "name": "Union County",
    "fips": "NM",
    "pop10": "4549",
    "lat": 36.488085,
    "lon": -103.475723,
    "geoid": "35059",
    "deaths": 0,
    "prop_dmg": "627k",
    "crop_dmg": 0,
    "inj": 0,
    "all": 5,
    "eq": [],
    "Hurricane____Typhoon___": [],
    "Cold__FWind_Chill": [],
    "Coastal_Flood": [],
    "Avalanche": [],
    "Astronomical_Low_Tide": [],
    "Dense_Fog": [],
    "Drought": [],
    "Dust_Devil": [],
    "Dust_Storm": [],
    "Excessive_Heat": [],
    "Extreme_Cold__FWind_Chill": [],
    "Flash_Flood": [
      {
        "type": "Flash+Flood",
        "time": "1600",
        "inj": "0",
        "deaths": "0",
        "prop_dmg": "2.00k",
        "crop_dmg": "0",
        "begin": "07/02/2011",
        "county": "UNION CO.",
        "state": "NM"
      }
    ],
    "Flood": [],
    "Freezing_Fog": [],
    "Funnel_Cloud": [],
    "Hail": [],
    "Heat": [],
    "Heavy_Rain": [],
    "Heavy_Snow": [],
    "High_Surf": [],
    "High_Wind": [],
    "Ice_Storm": [],
    "Lakeshore_Flood": [],
    "Landslide": [],
    "Lightning": [],
    "Rip_Current": [],
    "Seiche": [],
    "Sleet": [],
    "Storm_Surge__FTide": [],
    "Strong_Wind": [],
    "Thunderstorm_Wind": [],
    "Tornado": [
      {
        "type": "Tornado",
        "time": "1900",
        "inj": "0",
        "deaths": "0",
        "prop_dmg": "25.0k",
        "crop_dmg": "0",
        "begin": "09/18/1965",
        "county": "UNION CO.",
        "state": "NM"
      },
      {
        "type": "Tornado",
        "time": "1520",
        "inj": "0",
        "deaths": "0",
        "prop_dmg": "25.0k",
        "crop_dmg": "0",
        "begin": "05/10/1972",
        "county": "UNION CO.",
        "state": "NM"
      },
      {
        "type": "Tornado",
        "time": "1852",
        "inj": "0",
        "deaths": "0",
        "prop_dmg": "250k",
        "crop_dmg": "0",
        "begin": "05/23/2010",
        "county": "UNION CO.",
        "state": "NM"
      },
      {
        "type": "Tornado",
        "time": "1912",
        "inj": "0",
        "deaths": "0",
        "prop_dmg": "325k",
        "crop_dmg": "0",
        "begin": "05/23/2010",
        "county": "UNION CO.",
        "state": "NM"
      }
    ],
    "Tropical_Depression": [],
    "Tropical_Storm": [],
    "Tsunami": [],
    "Volcanic_Ashfall": [],
    "Waterspout": [],
    "Wildfire": [],
    "Winter_Storm": [],
    "Winter_Weather": []
  },
  "061": {
    "name": "Valencia County",
    "fips": "NM",
    "pop10": "76569",
    "lat": 34.71684,
    "lon": -106.806582,
    "geoid": "35061",
    "deaths": 1,
    "prop_dmg": "305k",
    "crop_dmg": "500",
    "inj": 8,
    "all": 5,
    "eq": [],
    "Hurricane____Typhoon___": [],
    "Cold__FWind_Chill": [],
    "Coastal_Flood": [],
    "Avalanche": [],
    "Astronomical_Low_Tide": [],
    "Dense_Fog": [],
    "Drought": [],
    "Dust_Devil": [
      {
        "type": "Dust+Devil",
        "time": "1400",
        "inj": "0",
        "deaths": "0",
        "prop_dmg": "15.0k",
        "crop_dmg": "0",
        "begin": "06/02/2003",
        "county": "VALENCIA CO.",
        "state": "NM"
      },
      {
        "type": "Dust+Devil",
        "time": "1400",
        "inj": "0",
        "deaths": "0",
        "prop_dmg": "15.0k",
        "crop_dmg": "0",
        "begin": "06/02/2003",
        "county": "VALENCIA CO.",
        "state": "NM"
      }
    ],
    "Dust_Storm": [],
    "Excessive_Heat": [],
    "Extreme_Cold__FWind_Chill": [],
    "Flash_Flood": [],
    "Flood": [],
    "Freezing_Fog": [],
    "Funnel_Cloud": [],
    "Hail": [],
    "Heat": [],
    "Heavy_Rain": [],
    "Heavy_Snow": [],
    "High_Surf": [],
    "High_Wind": [],
    "Ice_Storm": [],
    "Lakeshore_Flood": [],
    "Landslide": [],
    "Lightning": [
      {
        "type": "Lightning",
        "time": "1420",
        "inj": "0",
        "deaths": "0",
        "prop_dmg": "0",
        "crop_dmg": "500",
        "begin": "07/24/2013",
        "county": "VALENCIA CO.",
        "state": "NM"
      }
    ],
    "Rip_Current": [],
    "Seiche": [],
    "Sleet": [],
    "Storm_Surge__FTide": [],
    "Strong_Wind": [],
    "Thunderstorm_Wind": [],
    "Tornado": [
      {
        "type": "Tornado",
        "time": "1500",
        "inj": "8",
        "deaths": "1",
        "prop_dmg": "250k",
        "crop_dmg": "0",
        "begin": "10/10/1974",
        "county": "VALENCIA CO.",
        "state": "NM"
      },
      {
        "type": "Tornado",
        "time": "1315",
        "inj": "0",
        "deaths": "0",
        "prop_dmg": "25.0k",
        "crop_dmg": "0",
        "begin": "05/27/1975",
        "county": "VALENCIA CO.",
        "state": "NM"
      }
    ],
    "Tropical_Depression": [],
    "Tropical_Storm": [],
    "Tsunami": [],
    "Volcanic_Ashfall": [],
    "Waterspout": [],
    "Wildfire": [],
    "Winter_Storm": [],
    "Winter_Weather": []
  }
}