{
  "510": {
    "name": "Carson City",
    "fips": "NV",
    "pop10": "55274",
    "lat": 39.153447,
    "lon": -119.743442,
    "geoid": "32510",
    "deaths": 0,
    "prop_dmg": "1.21M",
    "crop_dmg": 0,
    "inj": 0,
    "all": 3,
    "eq": [],
    "Hurricane____Typhoon___": [],
    "Cold__FWind_Chill": [],
    "Coastal_Flood": [],
    "Avalanche": [],
    "Astronomical_Low_Tide": [],
    "Dense_Fog": [],
    "Drought": [],
    "Dust_Devil": [
      {
        "type": "Dust+Devil",
        "time": "1340",
        "inj": "0",
        "deaths": "0",
        "prop_dmg": "5.00k",
        "crop_dmg": "0",
        "begin": "02/25/2009",
        "county": "CARSON CITY (C) CO.",
        "state": "NV"
      },
      {
        "type": "Dust+Devil",
        "time": "1340",
        "inj": "0",
        "deaths": "0",
        "prop_dmg": "5.00k",
        "crop_dmg": "0",
        "begin": "02/25/2009",
        "county": "CARSON CITY (C) CO.",
        "state": "NV"
      }
    ],
    "Dust_Storm": [],
    "Excessive_Heat": [],
    "Extreme_Cold__FWind_Chill": [],
    "Flash_Flood": [],
    "Flood": [
      {
        "type": "Flood",
        "time": "0",
        "inj": "0",
        "deaths": "0",
        "prop_dmg": "1.20M",
        "crop_dmg": "0",
        "begin": "01/01/2006",
        "county": "CARSON CITY (C) CO.",
        "state": "NV"
      }
    ],
    "Freezing_Fog": [],
    "Funnel_Cloud": [],
    "Hail": [],
    "Heat": [],
    "Heavy_Rain": [],
    "Heavy_Snow": [],
    "High_Surf": [],
    "High_Wind": [],
    "Ice_Storm": [],
    "Lakeshore_Flood": [],
    "Landslide": [],
    "Lightning": [],
    "Rip_Current": [],
    "Seiche": [],
    "Sleet": [],
    "Storm_Surge__FTide": [],
    "Strong_Wind": [],
    "Thunderstorm_Wind": [],
    "Tornado": [],
    "Tropical_Depression": [],
    "Tropical_Storm": [],
    "Tsunami": [],
    "Volcanic_Ashfall": [],
    "Waterspout": [],
    "Wildfire": [],
    "Winter_Storm": [],
    "Winter_Weather": []
  },
  "001": {
    "name": "Churchill County",
    "fips": "NV",
    "pop10": "24877",
    "lat": 39.525701,
    "lon": -118.270419,
    "geoid": "32001",
    "deaths": 0,
    "prop_dmg": 0,
    "crop_dmg": 0,
    "inj": 0,
    "all": 3,
    "eq": [
      {
        "type": "earthquake",
        "begin": "12/16/1954",
        "inj": "",
        "prop_dmg": "",
        "crop_dmg": "",
        "county": "NEVADA:  DIXIE VALLEY",
        "state": "NV",
        "deaths": ""
      },
      {
        "type": "earthquake",
        "begin": "7/6/1954",
        "inj": "",
        "prop_dmg": "",
        "crop_dmg": "",
        "county": "NEVADA:  FALLON",
        "state": "NV",
        "deaths": ""
      },
      {
        "type": "earthquake",
        "begin": "8/23/1954",
        "inj": "",
        "prop_dmg": "",
        "crop_dmg": "",
        "county": "NEVADA:  STILLWATER RANGE",
        "state": "NV",
        "deaths": ""
      }
    ],
    "Hurricane____Typhoon___": [],
    "Cold__FWind_Chill": [],
    "Coastal_Flood": [],
    "Avalanche": [],
    "Astronomical_Low_Tide": [],
    "Dense_Fog": [],
    "Drought": [],
    "Dust_Devil": [],
    "Dust_Storm": [],
    "Excessive_Heat": [],
    "Extreme_Cold__FWind_Chill": [],
    "Flash_Flood": [],
    "Flood": [],
    "Freezing_Fog": [],
    "Funnel_Cloud": [],
    "Hail": [],
    "Heat": [],
    "Heavy_Rain": [],
    "Heavy_Snow": [],
    "High_Surf": [],
    "High_Wind": [],
    "Ice_Storm": [],
    "Lakeshore_Flood": [],
    "Landslide": [],
    "Lightning": [],
    "Rip_Current": [],
    "Seiche": [],
    "Sleet": [],
    "Storm_Surge__FTide": [],
    "Strong_Wind": [],
    "Thunderstorm_Wind": [],
    "Tornado": [],
    "Tropical_Depression": [],
    "Tropical_Storm": [],
    "Tsunami": [],
    "Volcanic_Ashfall": [],
    "Waterspout": [],
    "Wildfire": [],
    "Winter_Storm": [],
    "Winter_Weather": []
  },
  "003": {
    "name": "Clark County",
    "fips": "NV",
    "pop10": "1951269",
    "lat": 36.214236,
    "lon": -115.013819,
    "geoid": "32003",
    "deaths": 114,
    "prop_dmg": "18.6M",
    "crop_dmg": 0,
    "inj": 577,
    "all": 125,
    "eq": [],
    "Hurricane____Typhoon___": [],
    "Cold__FWind_Chill": [
      {
        "type": "Cold%2FWind+Chill",
        "time": "0",
        "inj": "0",
        "deaths": "1",
        "prop_dmg": "0",
        "crop_dmg": "0",
        "begin": "01/12/2007",
        "county": "LAS VEGAS VALLEY ",
        "state": "NV"
      },
      {
        "type": "Cold%2FWind+Chill",
        "time": "1200",
        "inj": "0",
        "deaths": "1",
        "prop_dmg": "0",
        "crop_dmg": "0",
        "begin": "01/08/2011",
        "county": "LAS VEGAS VALLEY ",
        "state": "NV"
      },
      {
        "type": "Cold%2FWind+Chill",
        "time": "600",
        "inj": "0",
        "deaths": "1",
        "prop_dmg": "0",
        "crop_dmg": "0",
        "begin": "01/07/2012",
        "county": "LAS VEGAS VALLEY ",
        "state": "NV"
      }
    ],
    "Coastal_Flood": [],
    "Avalanche": [],
    "Astronomical_Low_Tide": [],
    "Dense_Fog": [],
    "Drought": [],
    "Dust_Devil": [
      {
        "type": "Dust+Devil",
        "time": "1230",
        "inj": "0",
        "deaths": "1",
        "prop_dmg": "0",
        "crop_dmg": "0",
        "begin": "06/01/1996",
        "county": "CLARK CO.",
        "state": "NV"
      },
      {
        "type": "Dust+Devil",
        "time": "1230",
        "inj": "0",
        "deaths": "1",
        "prop_dmg": "0",
        "crop_dmg": "0",
        "begin": "06/01/1996",
        "county": "CLARK CO.",
        "state": "NV"
      },
      {
        "type": "Dust+Devil",
        "time": "1400",
        "inj": "0",
        "deaths": "0",
        "prop_dmg": "5.00k",
        "crop_dmg": "0",
        "begin": "06/25/1996",
        "county": "CLARK CO.",
        "state": "NV"
      },
      {
        "type": "Dust+Devil",
        "time": "1350",
        "inj": "0",
        "deaths": "0",
        "prop_dmg": "60.0k",
        "crop_dmg": "0",
        "begin": "05/11/2009",
        "county": "CLARK CO.",
        "state": "NV"
      },
      {
        "type": "Dust+Devil",
        "time": "1410",
        "inj": "0",
        "deaths": "0",
        "prop_dmg": "75.0k",
        "crop_dmg": "0",
        "begin": "06/02/2009",
        "county": "CLARK CO.",
        "state": "NV"
      },
      {
        "type": "Dust+Devil",
        "time": "1418",
        "inj": "0",
        "deaths": "0",
        "prop_dmg": "60.0k",
        "crop_dmg": "0",
        "begin": "07/29/2009",
        "county": "CLARK CO.",
        "state": "NV"
      },
      {
        "type": "Dust+Devil",
        "time": "1325",
        "inj": "0",
        "deaths": "0",
        "prop_dmg": "15.0k",
        "crop_dmg": "0",
        "begin": "08/06/2009",
        "county": "CLARK CO.",
        "state": "NV"
      },
      {
        "type": "Dust+Devil",
        "time": "800",
        "inj": "0",
        "deaths": "0",
        "prop_dmg": "50.0k",
        "crop_dmg": "0",
        "begin": "05/23/2010",
        "county": "CLARK CO.",
        "state": "NV"
      },
      {
        "type": "Dust+Devil",
        "time": "1237",
        "inj": "0",
        "deaths": "0",
        "prop_dmg": "40.0k",
        "crop_dmg": "0",
        "begin": "05/07/2012",
        "county": "CLARK CO.",
        "state": "NV"
      },
      {
        "type": "Dust+Devil",
        "time": "1525",
        "inj": "0",
        "deaths": "0",
        "prop_dmg": "10.0k",
        "crop_dmg": "0",
        "begin": "05/07/2012",
        "county": "CLARK CO.",
        "state": "NV"
      },
      {
        "type": "Dust+Devil",
        "time": "1530",
        "inj": "0",
        "deaths": "0",
        "prop_dmg": "50.0k",
        "crop_dmg": "0",
        "begin": "05/07/2012",
        "county": "CLARK CO.",
        "state": "NV"
      },
      {
        "type": "Dust+Devil",
        "time": "1230",
        "inj": "0",
        "deaths": "1",
        "prop_dmg": "0",
        "crop_dmg": "0",
        "begin": "06/01/1996",
        "county": "CLARK CO.",
        "state": "NV"
      },
      {
        "type": "Dust+Devil",
        "time": "1230",
        "inj": "0",
        "deaths": "1",
        "prop_dmg": "0",
        "crop_dmg": "0",
        "begin": "06/01/1996",
        "county": "CLARK CO.",
        "state": "NV"
      },
      {
        "type": "Dust+Devil",
        "time": "1400",
        "inj": "0",
        "deaths": "0",
        "prop_dmg": "5.00k",
        "crop_dmg": "0",
        "begin": "06/25/1996",
        "county": "CLARK CO.",
        "state": "NV"
      },
      {
        "type": "Dust+Devil",
        "time": "1350",
        "inj": "0",
        "deaths": "0",
        "prop_dmg": "60.0k",
        "crop_dmg": "0",
        "begin": "05/11/2009",
        "county": "CLARK CO.",
        "state": "NV"
      },
      {
        "type": "Dust+Devil",
        "time": "1410",
        "inj": "0",
        "deaths": "0",
        "prop_dmg": "75.0k",
        "crop_dmg": "0",
        "begin": "06/02/2009",
        "county": "CLARK CO.",
        "state": "NV"
      },
      {
        "type": "Dust+Devil",
        "time": "1418",
        "inj": "0",
        "deaths": "0",
        "prop_dmg": "60.0k",
        "crop_dmg": "0",
        "begin": "07/29/2009",
        "county": "CLARK CO.",
        "state": "NV"
      },
      {
        "type": "Dust+Devil",
        "time": "1325",
        "inj": "0",
        "deaths": "0",
        "prop_dmg": "15.0k",
        "crop_dmg": "0",
        "begin": "08/06/2009",
        "county": "CLARK CO.",
        "state": "NV"
      },
      {
        "type": "Dust+Devil",
        "time": "800",
        "inj": "0",
        "deaths": "0",
        "prop_dmg": "50.0k",
        "crop_dmg": "0",
        "begin": "05/23/2010",
        "county": "CLARK CO.",
        "state": "NV"
      },
      {
        "type": "Dust+Devil",
        "time": "1237",
        "inj": "0",
        "deaths": "0",
        "prop_dmg": "40.0k",
        "crop_dmg": "0",
        "begin": "05/07/2012",
        "county": "CLARK CO.",
        "state": "NV"
      },
      {
        "type": "Dust+Devil",
        "time": "1525",
        "inj": "0",
        "deaths": "0",
        "prop_dmg": "10.0k",
        "crop_dmg": "0",
        "begin": "05/07/2012",
        "county": "CLARK CO.",
        "state": "NV"
      },
      {
        "type": "Dust+Devil",
        "time": "1530",
        "inj": "0",
        "deaths": "0",
        "prop_dmg": "50.0k",
        "crop_dmg": "0",
        "begin": "05/07/2012",
        "county": "CLARK CO.",
        "state": "NV"
      },
      {
        "type": "Dust+Devil",
        "time": "1243",
        "inj": "0",
        "deaths": "0",
        "prop_dmg": "1.00k",
        "crop_dmg": "0",
        "begin": "07/03/2012",
        "county": "CLARK CO.",
        "state": "NV"
      },
      {
        "type": "Dust+Devil",
        "time": "1348",
        "inj": "0",
        "deaths": "0",
        "prop_dmg": "1.00k",
        "crop_dmg": "0",
        "begin": "08/08/2012",
        "county": "CLARK CO.",
        "state": "NV"
      },
      {
        "type": "Dust+Devil",
        "time": "1243",
        "inj": "0",
        "deaths": "0",
        "prop_dmg": "1.00k",
        "crop_dmg": "0",
        "begin": "07/03/2012",
        "county": "CLARK CO.",
        "state": "NV"
      },
      {
        "type": "Dust+Devil",
        "time": "1348",
        "inj": "0",
        "deaths": "0",
        "prop_dmg": "1.00k",
        "crop_dmg": "0",
        "begin": "08/08/2012",
        "county": "CLARK CO.",
        "state": "NV"
      }
    ],
    "Dust_Storm": [],
    "Excessive_Heat": [
      {
        "type": "Excessive+Heat",
        "time": "1200",
        "inj": "0",
        "deaths": "1",
        "prop_dmg": "0",
        "crop_dmg": "0",
        "begin": "08/10/2007",
        "county": "LAS VEGAS VALLEY ",
        "state": "NV"
      },
      {
        "type": "Excessive+Heat",
        "time": "1500",
        "inj": "0",
        "deaths": "1",
        "prop_dmg": "0",
        "crop_dmg": "0",
        "begin": "06/05/2010",
        "county": "LAS VEGAS VALLEY ",
        "state": "NV"
      },
      {
        "type": "Excessive+Heat",
        "time": "1500",
        "inj": "0",
        "deaths": "6",
        "prop_dmg": "0",
        "crop_dmg": "0",
        "begin": "07/15/2010",
        "county": "LAS VEGAS VALLEY ",
        "state": "NV"
      },
      {
        "type": "Excessive+Heat",
        "time": "1200",
        "inj": "3",
        "deaths": "1",
        "prop_dmg": "0",
        "crop_dmg": "0",
        "begin": "06/06/2013",
        "county": "LAS VEGAS VALLEY ",
        "state": "NV"
      },
      {
        "type": "Excessive+Heat",
        "time": "1200",
        "inj": "353",
        "deaths": "2",
        "prop_dmg": "25.0k",
        "crop_dmg": "0",
        "begin": "06/28/2013",
        "county": "LAS VEGAS VALLEY ",
        "state": "NV"
      },
      {
        "type": "Excessive+Heat",
        "time": "0",
        "inj": "213",
        "deaths": "27",
        "prop_dmg": "0",
        "crop_dmg": "0",
        "begin": "07/01/2013",
        "county": "LAS VEGAS VALLEY ",
        "state": "NV"
      },
      {
        "type": "Excessive+Heat",
        "time": "1200",
        "inj": "0",
        "deaths": "3",
        "prop_dmg": "0",
        "crop_dmg": "0",
        "begin": "07/01/2014",
        "county": "LAS VEGAS VALLEY ",
        "state": "NV"
      }
    ],
    "Extreme_Cold__FWind_Chill": [],
    "Flash_Flood": [
      {
        "type": "Flash+Flood",
        "time": "1600",
        "inj": "0",
        "deaths": "0",
        "prop_dmg": "25.0k",
        "crop_dmg": "0",
        "begin": "02/21/2005",
        "county": "CLARK CO.",
        "state": "NV"
      },
      {
        "type": "Flash+Flood",
        "time": "400",
        "inj": "0",
        "deaths": "0",
        "prop_dmg": "1.00k",
        "crop_dmg": "0",
        "begin": "01/21/2012",
        "county": "CLARK CO.",
        "state": "NV"
      },
      {
        "type": "Flash+Flood",
        "time": "1749",
        "inj": "0",
        "deaths": "0",
        "prop_dmg": "1.00k",
        "crop_dmg": "0",
        "begin": "07/13/2012",
        "county": "CLARK CO.",
        "state": "NV"
      },
      {
        "type": "Flash+Flood",
        "time": "2030",
        "inj": "0",
        "deaths": "0",
        "prop_dmg": "1.00k",
        "crop_dmg": "0",
        "begin": "07/14/2012",
        "county": "CLARK CO.",
        "state": "NV"
      },
      {
        "type": "Flash+Flood",
        "time": "2030",
        "inj": "0",
        "deaths": "0",
        "prop_dmg": "1.00k",
        "crop_dmg": "0",
        "begin": "07/14/2012",
        "county": "CLARK CO.",
        "state": "NV"
      },
      {
        "type": "Flash+Flood",
        "time": "2030",
        "inj": "0",
        "deaths": "0",
        "prop_dmg": "3.00k",
        "crop_dmg": "0",
        "begin": "07/14/2012",
        "county": "CLARK CO.",
        "state": "NV"
      },
      {
        "type": "Flash+Flood",
        "time": "1200",
        "inj": "0",
        "deaths": "0",
        "prop_dmg": "5.00k",
        "crop_dmg": "0",
        "begin": "07/15/2012",
        "county": "CLARK CO.",
        "state": "NV"
      }
    ],
    "Flood": [
      {
        "type": "Flood",
        "time": "2130",
        "inj": "0",
        "deaths": "0",
        "prop_dmg": "10.0k",
        "crop_dmg": "0",
        "begin": "02/06/1998",
        "county": "CLARK CO.",
        "state": "NV"
      },
      {
        "type": "Flood",
        "time": "2130",
        "inj": "0",
        "deaths": "0",
        "prop_dmg": "5.00k",
        "crop_dmg": "0",
        "begin": "02/06/1998",
        "county": "CLARK CO.",
        "state": "NV"
      }
    ],
    "Freezing_Fog": [],
    "Funnel_Cloud": [],
    "Hail": [],
    "Heat": [
      {
        "type": "Heat",
        "time": "1300",
        "inj": "0",
        "deaths": "1",
        "prop_dmg": "0",
        "crop_dmg": "0",
        "begin": "06/29/2001",
        "county": "C CLARK ",
        "state": "NV"
      },
      {
        "type": "Heat",
        "time": "1500",
        "inj": "0",
        "deaths": "1",
        "prop_dmg": "0",
        "crop_dmg": "0",
        "begin": "07/29/2003",
        "county": "C CLARK ",
        "state": "NV"
      },
      {
        "type": "Heat",
        "time": "1200",
        "inj": "0",
        "deaths": "1",
        "prop_dmg": "0",
        "crop_dmg": "0",
        "begin": "06/26/2007",
        "county": "LAS VEGAS VALLEY ",
        "state": "NV"
      },
      {
        "type": "Heat",
        "time": "1200",
        "inj": "0",
        "deaths": "1",
        "prop_dmg": "0",
        "crop_dmg": "0",
        "begin": "07/05/2007",
        "county": "LAS VEGAS VALLEY ",
        "state": "NV"
      },
      {
        "type": "Heat",
        "time": "1200",
        "inj": "0",
        "deaths": "1",
        "prop_dmg": "0",
        "crop_dmg": "0",
        "begin": "07/03/2007",
        "county": "LAS VEGAS VALLEY ",
        "state": "NV"
      },
      {
        "type": "Heat",
        "time": "1200",
        "inj": "0",
        "deaths": "1",
        "prop_dmg": "0",
        "crop_dmg": "0",
        "begin": "07/07/2007",
        "county": "LAS VEGAS VALLEY ",
        "state": "NV"
      },
      {
        "type": "Heat",
        "time": "1200",
        "inj": "0",
        "deaths": "1",
        "prop_dmg": "0",
        "crop_dmg": "0",
        "begin": "07/10/2007",
        "county": "LAS VEGAS VALLEY ",
        "state": "NV"
      },
      {
        "type": "Heat",
        "time": "1200",
        "inj": "0",
        "deaths": "1",
        "prop_dmg": "0",
        "crop_dmg": "0",
        "begin": "07/12/2007",
        "county": "LAS VEGAS VALLEY ",
        "state": "NV"
      },
      {
        "type": "Heat",
        "time": "1200",
        "inj": "0",
        "deaths": "1",
        "prop_dmg": "0",
        "crop_dmg": "0",
        "begin": "07/15/2007",
        "county": "LAS VEGAS VALLEY ",
        "state": "NV"
      },
      {
        "type": "Heat",
        "time": "1200",
        "inj": "0",
        "deaths": "1",
        "prop_dmg": "0",
        "crop_dmg": "0",
        "begin": "07/17/2007",
        "county": "LAS VEGAS VALLEY ",
        "state": "NV"
      },
      {
        "type": "Heat",
        "time": "0",
        "inj": "0",
        "deaths": "1",
        "prop_dmg": "0",
        "crop_dmg": "0",
        "begin": "08/02/2007",
        "county": "LAS VEGAS VALLEY ",
        "state": "NV"
      },
      {
        "type": "Heat",
        "time": "1200",
        "inj": "0",
        "deaths": "1",
        "prop_dmg": "0",
        "crop_dmg": "0",
        "begin": "08/16/2007",
        "county": "LAS VEGAS VALLEY ",
        "state": "NV"
      },
      {
        "type": "Heat",
        "time": "1600",
        "inj": "0",
        "deaths": "1",
        "prop_dmg": "0",
        "crop_dmg": "0",
        "begin": "06/08/2008",
        "county": "LAS VEGAS VALLEY ",
        "state": "NV"
      },
      {
        "type": "Heat",
        "time": "1200",
        "inj": "0",
        "deaths": "3",
        "prop_dmg": "0",
        "crop_dmg": "0",
        "begin": "06/23/2008",
        "county": "LAS VEGAS VALLEY ",
        "state": "NV"
      },
      {
        "type": "Heat",
        "time": "800",
        "inj": "0",
        "deaths": "2",
        "prop_dmg": "0",
        "crop_dmg": "0",
        "begin": "07/11/2008",
        "county": "LAS VEGAS VALLEY ",
        "state": "NV"
      },
      {
        "type": "Heat",
        "time": "800",
        "inj": "0",
        "deaths": "2",
        "prop_dmg": "0",
        "crop_dmg": "0",
        "begin": "07/14/2008",
        "county": "LAS VEGAS VALLEY ",
        "state": "NV"
      },
      {
        "type": "Heat",
        "time": "1200",
        "inj": "0",
        "deaths": "1",
        "prop_dmg": "0",
        "crop_dmg": "0",
        "begin": "07/26/2008",
        "county": "LAS VEGAS VALLEY ",
        "state": "NV"
      },
      {
        "type": "Heat",
        "time": "1300",
        "inj": "0",
        "deaths": "2",
        "prop_dmg": "0",
        "crop_dmg": "0",
        "begin": "08/01/2008",
        "county": "LAS VEGAS VALLEY ",
        "state": "NV"
      },
      {
        "type": "Heat",
        "time": "1200",
        "inj": "0",
        "deaths": "2",
        "prop_dmg": "0",
        "crop_dmg": "0",
        "begin": "08/06/2008",
        "county": "LAS VEGAS VALLEY ",
        "state": "NV"
      },
      {
        "type": "Heat",
        "time": "1200",
        "inj": "0",
        "deaths": "2",
        "prop_dmg": "0",
        "crop_dmg": "0",
        "begin": "08/10/2008",
        "county": "LAS VEGAS VALLEY ",
        "state": "NV"
      },
      {
        "type": "Heat",
        "time": "1200",
        "inj": "0",
        "deaths": "1",
        "prop_dmg": "0",
        "crop_dmg": "0",
        "begin": "08/20/2008",
        "county": "LAS VEGAS VALLEY ",
        "state": "NV"
      },
      {
        "type": "Heat",
        "time": "1200",
        "inj": "0",
        "deaths": "2",
        "prop_dmg": "0",
        "crop_dmg": "0",
        "begin": "09/04/2008",
        "county": "LAS VEGAS VALLEY ",
        "state": "NV"
      },
      {
        "type": "Heat",
        "time": "1200",
        "inj": "0",
        "deaths": "1",
        "prop_dmg": "0",
        "crop_dmg": "0",
        "begin": "09/10/2008",
        "county": "LAS VEGAS VALLEY ",
        "state": "NV"
      },
      {
        "type": "Heat",
        "time": "1200",
        "inj": "0",
        "deaths": "1",
        "prop_dmg": "0",
        "crop_dmg": "0",
        "begin": "07/13/2009",
        "county": "LAS VEGAS VALLEY ",
        "state": "NV"
      },
      {
        "type": "Heat",
        "time": "1200",
        "inj": "0",
        "deaths": "1",
        "prop_dmg": "0",
        "crop_dmg": "0",
        "begin": "07/14/2009",
        "county": "LAS VEGAS VALLEY ",
        "state": "NV"
      },
      {
        "type": "Heat",
        "time": "1200",
        "inj": "0",
        "deaths": "1",
        "prop_dmg": "0",
        "crop_dmg": "0",
        "begin": "07/15/2009",
        "county": "LAS VEGAS VALLEY ",
        "state": "NV"
      },
      {
        "type": "Heat",
        "time": "1200",
        "inj": "0",
        "deaths": "1",
        "prop_dmg": "0",
        "crop_dmg": "0",
        "begin": "07/18/2009",
        "county": "LAS VEGAS VALLEY ",
        "state": "NV"
      },
      {
        "type": "Heat",
        "time": "1200",
        "inj": "0",
        "deaths": "1",
        "prop_dmg": "0",
        "crop_dmg": "0",
        "begin": "07/29/2009",
        "county": "LAS VEGAS VALLEY ",
        "state": "NV"
      },
      {
        "type": "Heat",
        "time": "1200",
        "inj": "0",
        "deaths": "1",
        "prop_dmg": "0",
        "crop_dmg": "0",
        "begin": "07/31/2009",
        "county": "LAS VEGAS VALLEY ",
        "state": "NV"
      },
      {
        "type": "Heat",
        "time": "1500",
        "inj": "0",
        "deaths": "1",
        "prop_dmg": "0",
        "crop_dmg": "0",
        "begin": "06/04/2010",
        "county": "LAS VEGAS VALLEY ",
        "state": "NV"
      },
      {
        "type": "Heat",
        "time": "1200",
        "inj": "0",
        "deaths": "5",
        "prop_dmg": "0",
        "crop_dmg": "0",
        "begin": "07/04/2010",
        "county": "LAS VEGAS VALLEY ",
        "state": "NV"
      },
      {
        "type": "Heat",
        "time": "1200",
        "inj": "0",
        "deaths": "3",
        "prop_dmg": "0",
        "crop_dmg": "0",
        "begin": "07/03/2011",
        "county": "LAS VEGAS VALLEY ",
        "state": "NV"
      },
      {
        "type": "Heat",
        "time": "0",
        "inj": "0",
        "deaths": "4",
        "prop_dmg": "0",
        "crop_dmg": "0",
        "begin": "07/18/2013",
        "county": "LAS VEGAS VALLEY ",
        "state": "NV"
      },
      {
        "type": "Heat",
        "time": "0",
        "inj": "0",
        "deaths": "1",
        "prop_dmg": "0",
        "crop_dmg": "0",
        "begin": "07/27/2013",
        "county": "LAS VEGAS VALLEY ",
        "state": "NV"
      },
      {
        "type": "Heat",
        "time": "0",
        "inj": "0",
        "deaths": "1",
        "prop_dmg": "0",
        "crop_dmg": "0",
        "begin": "07/30/2013",
        "county": "LAS VEGAS VALLEY ",
        "state": "NV"
      },
      {
        "type": "Heat",
        "time": "0",
        "inj": "0",
        "deaths": "1",
        "prop_dmg": "0",
        "crop_dmg": "0",
        "begin": "08/01/2013",
        "county": "LAS VEGAS VALLEY ",
        "state": "NV"
      },
      {
        "type": "Heat",
        "time": "0",
        "inj": "0",
        "deaths": "2",
        "prop_dmg": "0",
        "crop_dmg": "0",
        "begin": "08/06/2013",
        "county": "LAS VEGAS VALLEY ",
        "state": "NV"
      },
      {
        "type": "Heat",
        "time": "0",
        "inj": "0",
        "deaths": "2",
        "prop_dmg": "0",
        "crop_dmg": "0",
        "begin": "08/15/2013",
        "county": "LAS VEGAS VALLEY ",
        "state": "NV"
      },
      {
        "type": "Heat",
        "time": "1200",
        "inj": "0",
        "deaths": "2",
        "prop_dmg": "0",
        "crop_dmg": "0",
        "begin": "06/08/2014",
        "county": "LAS VEGAS VALLEY ",
        "state": "NV"
      },
      {
        "type": "Heat",
        "time": "1300",
        "inj": "0",
        "deaths": "1",
        "prop_dmg": "0",
        "crop_dmg": "0",
        "begin": "07/05/2014",
        "county": "LAS VEGAS VALLEY ",
        "state": "NV"
      },
      {
        "type": "Heat",
        "time": "1300",
        "inj": "0",
        "deaths": "1",
        "prop_dmg": "0",
        "crop_dmg": "0",
        "begin": "07/09/2014",
        "county": "LAS VEGAS VALLEY ",
        "state": "NV"
      },
      {
        "type": "Heat",
        "time": "1300",
        "inj": "0",
        "deaths": "1",
        "prop_dmg": "0",
        "crop_dmg": "0",
        "begin": "07/17/2014",
        "county": "LAS VEGAS VALLEY ",
        "state": "NV"
      },
      {
        "type": "Heat",
        "time": "1300",
        "inj": "0",
        "deaths": "1",
        "prop_dmg": "0",
        "crop_dmg": "0",
        "begin": "07/22/2014",
        "county": "LAS VEGAS VALLEY ",
        "state": "NV"
      },
      {
        "type": "Heat",
        "time": "1300",
        "inj": "0",
        "deaths": "1",
        "prop_dmg": "0",
        "crop_dmg": "0",
        "begin": "08/02/2014",
        "county": "LAS VEGAS VALLEY ",
        "state": "NV"
      },
      {
        "type": "Heat",
        "time": "1300",
        "inj": "0",
        "deaths": "1",
        "prop_dmg": "0",
        "crop_dmg": "0",
        "begin": "08/10/2014",
        "county": "LAS VEGAS VALLEY ",
        "state": "NV"
      },
      {
        "type": "Heat",
        "time": "1300",
        "inj": "0",
        "deaths": "1",
        "prop_dmg": "0",
        "crop_dmg": "0",
        "begin": "08/18/2014",
        "county": "LAS VEGAS VALLEY ",
        "state": "NV"
      }
    ],
    "Heavy_Rain": [
      {
        "type": "Heavy+Rain",
        "time": "1300",
        "inj": "0",
        "deaths": "0",
        "prop_dmg": "100k",
        "crop_dmg": "0",
        "begin": "07/28/1996",
        "county": "CLARK CO.",
        "state": "NV"
      },
      {
        "type": "Heavy+Rain",
        "time": "100",
        "inj": "0",
        "deaths": "0",
        "prop_dmg": "11.0M",
        "crop_dmg": "0",
        "begin": "07/20/1998",
        "county": "CLARK CO.",
        "state": "NV"
      },
      {
        "type": "Heavy+Rain",
        "time": "2100",
        "inj": "0",
        "deaths": "0",
        "prop_dmg": "20.0k",
        "crop_dmg": "0",
        "begin": "02/21/2005",
        "county": "CLARK CO.",
        "state": "NV"
      },
      {
        "type": "Heavy+Rain",
        "time": "45",
        "inj": "0",
        "deaths": "0",
        "prop_dmg": "15.0k",
        "crop_dmg": "0",
        "begin": "01/20/2010",
        "county": "CLARK CO.",
        "state": "NV"
      },
      {
        "type": "Heavy+Rain",
        "time": "1400",
        "inj": "0",
        "deaths": "0",
        "prop_dmg": "100k",
        "crop_dmg": "0",
        "begin": "07/09/2011",
        "county": "CLARK CO.",
        "state": "NV"
      },
      {
        "type": "Heavy+Rain",
        "time": "1400",
        "inj": "0",
        "deaths": "0",
        "prop_dmg": "250k",
        "crop_dmg": "0",
        "begin": "02/28/2014",
        "county": "CLARK CO.",
        "state": "NV"
      },
      {
        "type": "Heavy+Rain",
        "time": "747",
        "inj": "0",
        "deaths": "0",
        "prop_dmg": "500k",
        "crop_dmg": "0",
        "begin": "01/11/2015",
        "county": "CLARK CO.",
        "state": "NV"
      },
      {
        "type": "Heavy+Rain",
        "time": "320",
        "inj": "0",
        "deaths": "0",
        "prop_dmg": "150k",
        "crop_dmg": "0",
        "begin": "01/30/2015",
        "county": "CLARK CO.",
        "state": "NV"
      }
    ],
    "Heavy_Snow": [
      {
        "type": "Heavy+Snow",
        "time": "1200",
        "inj": "0",
        "deaths": "0",
        "prop_dmg": "10.0k",
        "crop_dmg": "0",
        "begin": "11/21/2013",
        "county": "SPRING MOUNTAINS ",
        "state": "NV"
      }
    ],
    "High_Surf": [],
    "High_Wind": [],
    "Ice_Storm": [],
    "Lakeshore_Flood": [],
    "Landslide": [],
    "Lightning": [
      {
        "type": "Lightning",
        "time": "1600",
        "inj": "1",
        "deaths": "0",
        "prop_dmg": "0",
        "crop_dmg": "0",
        "begin": "07/11/1996",
        "county": "CLARK CO.",
        "state": "NV"
      },
      {
        "type": "Lightning",
        "time": "1520",
        "inj": "0",
        "deaths": "0",
        "prop_dmg": "5.00k",
        "crop_dmg": "0",
        "begin": "08/08/1997",
        "county": "CLARK CO.",
        "state": "NV"
      },
      {
        "type": "Lightning",
        "time": "1215",
        "inj": "0",
        "deaths": "0",
        "prop_dmg": "1.50M",
        "crop_dmg": "0",
        "begin": "07/09/1998",
        "county": "CLARK CO.",
        "state": "NV"
      },
      {
        "type": "Lightning",
        "time": "530",
        "inj": "0",
        "deaths": "0",
        "prop_dmg": "250k",
        "crop_dmg": "0",
        "begin": "07/20/1998",
        "county": "CLARK CO.",
        "state": "NV"
      },
      {
        "type": "Lightning",
        "time": "1430",
        "inj": "5",
        "deaths": "0",
        "prop_dmg": "0",
        "crop_dmg": "0",
        "begin": "07/24/1998",
        "county": "CLARK CO.",
        "state": "NV"
      },
      {
        "type": "Lightning",
        "time": "1540",
        "inj": "0",
        "deaths": "0",
        "prop_dmg": "15.0k",
        "crop_dmg": "0",
        "begin": "07/24/1998",
        "county": "CLARK CO.",
        "state": "NV"
      },
      {
        "type": "Lightning",
        "time": "330",
        "inj": "0",
        "deaths": "0",
        "prop_dmg": "500k",
        "crop_dmg": "0",
        "begin": "06/22/2005",
        "county": "CLARK CO.",
        "state": "NV"
      },
      {
        "type": "Lightning",
        "time": "208",
        "inj": "0",
        "deaths": "0",
        "prop_dmg": "1.00M",
        "crop_dmg": "0",
        "begin": "08/27/2007",
        "county": "CLARK CO.",
        "state": "NV"
      },
      {
        "type": "Lightning",
        "time": "2230",
        "inj": "0",
        "deaths": "0",
        "prop_dmg": "1.00k",
        "crop_dmg": "0",
        "begin": "07/22/2009",
        "county": "CLARK CO.",
        "state": "NV"
      },
      {
        "type": "Lightning",
        "time": "1740",
        "inj": "0",
        "deaths": "0",
        "prop_dmg": "200k",
        "crop_dmg": "0",
        "begin": "08/08/2010",
        "county": "CLARK CO.",
        "state": "NV"
      },
      {
        "type": "Lightning",
        "time": "1915",
        "inj": "0",
        "deaths": "0",
        "prop_dmg": "1.00k",
        "crop_dmg": "0",
        "begin": "07/11/2012",
        "county": "CLARK CO.",
        "state": "NV"
      },
      {
        "type": "Lightning",
        "time": "210",
        "inj": "0",
        "deaths": "0",
        "prop_dmg": "500k",
        "crop_dmg": "0",
        "begin": "08/01/2012",
        "county": "CLARK CO.",
        "state": "NV"
      },
      {
        "type": "Lightning",
        "time": "1430",
        "inj": "0",
        "deaths": "0",
        "prop_dmg": "50.0k",
        "crop_dmg": "0",
        "begin": "08/31/2013",
        "county": "CLARK CO.",
        "state": "NV"
      },
      {
        "type": "Lightning",
        "time": "2143",
        "inj": "0",
        "deaths": "0",
        "prop_dmg": "10.0k",
        "crop_dmg": "0",
        "begin": "08/31/2013",
        "county": "CLARK CO.",
        "state": "NV"
      },
      {
        "type": "Lightning",
        "time": "1630",
        "inj": "0",
        "deaths": "0",
        "prop_dmg": "50.0k",
        "crop_dmg": "0",
        "begin": "09/09/2013",
        "county": "CLARK CO.",
        "state": "NV"
      },
      {
        "type": "Lightning",
        "time": "300",
        "inj": "0",
        "deaths": "0",
        "prop_dmg": "100",
        "crop_dmg": "0",
        "begin": "07/15/2014",
        "county": "CLARK CO.",
        "state": "NV"
      },
      {
        "type": "Lightning",
        "time": "1948",
        "inj": "0",
        "deaths": "0",
        "prop_dmg": "100",
        "crop_dmg": "0",
        "begin": "07/27/2014",
        "county": "CLARK CO.",
        "state": "NV"
      },
      {
        "type": "Lightning",
        "time": "1945",
        "inj": "0",
        "deaths": "0",
        "prop_dmg": "100",
        "crop_dmg": "0",
        "begin": "07/30/2014",
        "county": "CLARK CO.",
        "state": "NV"
      },
      {
        "type": "Lightning",
        "time": "1940",
        "inj": "0",
        "deaths": "0",
        "prop_dmg": "10.0k",
        "crop_dmg": "0",
        "begin": "08/11/2014",
        "county": "CLARK CO.",
        "state": "NV"
      },
      {
        "type": "Lightning",
        "time": "1738",
        "inj": "0",
        "deaths": "0",
        "prop_dmg": "100",
        "crop_dmg": "0",
        "begin": "09/26/2014",
        "county": "CLARK CO.",
        "state": "NV"
      },
      {
        "type": "Lightning",
        "time": "1813",
        "inj": "0",
        "deaths": "0",
        "prop_dmg": "75.0k",
        "crop_dmg": "0",
        "begin": "09/26/2014",
        "county": "CLARK CO.",
        "state": "NV"
      }
    ],
    "Rip_Current": [],
    "Seiche": [],
    "Sleet": [],
    "Storm_Surge__FTide": [],
    "Strong_Wind": [],
    "Thunderstorm_Wind": [],
    "Tornado": [],
    "Tropical_Depression": [],
    "Tropical_Storm": [],
    "Tsunami": [],
    "Volcanic_Ashfall": [],
    "Waterspout": [],
    "Wildfire": [
      {
        "type": "Wildfire",
        "time": "1305",
        "inj": "0",
        "deaths": "0",
        "prop_dmg": "200k",
        "crop_dmg": "0",
        "begin": "06/20/2013",
        "county": "LAS VEGAS VALLEY ",
        "state": "NV"
      },
      {
        "type": "Wildfire",
        "time": "1235",
        "inj": "2",
        "deaths": "0",
        "prop_dmg": "250k",
        "crop_dmg": "0",
        "begin": "08/01/2013",
        "county": "LAS VEGAS VALLEY ",
        "state": "NV"
      },
      {
        "type": "Wildfire",
        "time": "1200",
        "inj": "0",
        "deaths": "0",
        "prop_dmg": "1.00M",
        "crop_dmg": "0",
        "begin": "07/01/2013",
        "county": "SPRING MOUNTAINS ",
        "state": "NV"
      },
      {
        "type": "Wildfire",
        "time": "130",
        "inj": "0",
        "deaths": "0",
        "prop_dmg": "50.0k",
        "crop_dmg": "0",
        "begin": "04/23/2014",
        "county": "LAS VEGAS VALLEY ",
        "state": "NV"
      }
    ],
    "Winter_Storm": [],
    "Winter_Weather": []
  },
  "005": {
    "name": "Douglas County",
    "fips": "NV",
    "pop10": "46997",
    "lat": 38.905129,
    "lon": -119.609019,
    "geoid": "32005",
    "deaths": 0,
    "prop_dmg": "546k",
    "crop_dmg": 0,
    "inj": 1,
    "all": 5,
    "eq": [],
    "Hurricane____Typhoon___": [],
    "Cold__FWind_Chill": [],
    "Coastal_Flood": [],
    "Avalanche": [],
    "Astronomical_Low_Tide": [],
    "Dense_Fog": [],
    "Drought": [],
    "Dust_Devil": [],
    "Dust_Storm": [],
    "Excessive_Heat": [],
    "Extreme_Cold__FWind_Chill": [],
    "Flash_Flood": [],
    "Flood": [
      {
        "type": "Flood",
        "time": "0",
        "inj": "0",
        "deaths": "0",
        "prop_dmg": "524k",
        "crop_dmg": "0",
        "begin": "01/01/2006",
        "county": "DOUGLAS CO.",
        "state": "NV"
      }
    ],
    "Freezing_Fog": [],
    "Funnel_Cloud": [],
    "Hail": [],
    "Heat": [],
    "Heavy_Rain": [],
    "Heavy_Snow": [],
    "High_Surf": [],
    "High_Wind": [],
    "Ice_Storm": [],
    "Lakeshore_Flood": [],
    "Landslide": [],
    "Lightning": [
      {
        "type": "Lightning",
        "time": "1530",
        "inj": "0",
        "deaths": "0",
        "prop_dmg": "2.00k",
        "crop_dmg": "0",
        "begin": "07/03/2001",
        "county": "DOUGLAS CO.",
        "state": "NV"
      },
      {
        "type": "Lightning",
        "time": "1600",
        "inj": "1",
        "deaths": "0",
        "prop_dmg": "0",
        "crop_dmg": "0",
        "begin": "08/12/2004",
        "county": "DOUGLAS CO.",
        "state": "NV"
      },
      {
        "type": "Lightning",
        "time": "1630",
        "inj": "0",
        "deaths": "0",
        "prop_dmg": "10.0k",
        "crop_dmg": "0",
        "begin": "06/01/2007",
        "county": "DOUGLAS CO.",
        "state": "NV"
      },
      {
        "type": "Lightning",
        "time": "1630",
        "inj": "0",
        "deaths": "0",
        "prop_dmg": "10.0k",
        "crop_dmg": "0",
        "begin": "06/01/2007",
        "county": "DOUGLAS CO.",
        "state": "NV"
      }
    ],
    "Rip_Current": [],
    "Seiche": [],
    "Sleet": [],
    "Storm_Surge__FTide": [],
    "Strong_Wind": [],
    "Thunderstorm_Wind": [],
    "Tornado": [],
    "Tropical_Depression": [],
    "Tropical_Storm": [],
    "Tsunami": [],
    "Volcanic_Ashfall": [],
    "Waterspout": [],
    "Wildfire": [],
    "Winter_Storm": [],
    "Winter_Weather": []
  },
  "007": {
    "name": "Elko County",
    "fips": "NV",
    "pop10": "48818",
    "lat": 41.141133,
    "lon": -115.351424,
    "geoid": "32007",
    "deaths": 0,
    "prop_dmg": "99.0k",
    "crop_dmg": 0,
    "inj": 3,
    "all": 11,
    "eq": [
      {
        "type": "earthquake",
        "begin": "2/21/2008",
        "inj": "3",
        "prop_dmg": "",
        "crop_dmg": "",
        "county": "NEVADA:  WELLS",
        "state": "NV",
        "deaths": ""
      }
    ],
    "Hurricane____Typhoon___": [],
    "Cold__FWind_Chill": [],
    "Coastal_Flood": [],
    "Avalanche": [],
    "Astronomical_Low_Tide": [],
    "Dense_Fog": [],
    "Drought": [],
    "Dust_Devil": [],
    "Dust_Storm": [],
    "Excessive_Heat": [],
    "Extreme_Cold__FWind_Chill": [],
    "Flash_Flood": [
      {
        "type": "Flash+Flood",
        "time": "1535",
        "inj": "0",
        "deaths": "0",
        "prop_dmg": "20.0k",
        "crop_dmg": "0",
        "begin": "07/16/2012",
        "county": "ELKO CO.",
        "state": "NV"
      },
      {
        "type": "Flash+Flood",
        "time": "1500",
        "inj": "0",
        "deaths": "0",
        "prop_dmg": "2.00k",
        "crop_dmg": "0",
        "begin": "07/22/2012",
        "county": "ELKO CO.",
        "state": "NV"
      },
      {
        "type": "Flash+Flood",
        "time": "1245",
        "inj": "0",
        "deaths": "0",
        "prop_dmg": "20.0k",
        "crop_dmg": "0",
        "begin": "07/24/2012",
        "county": "ELKO CO.",
        "state": "NV"
      }
    ],
    "Flood": [
      {
        "type": "Flood",
        "time": "0",
        "inj": "0",
        "deaths": "0",
        "prop_dmg": "10.0k",
        "crop_dmg": "0",
        "begin": "04/12/2006",
        "county": "ELKO CO.",
        "state": "NV"
      },
      {
        "type": "Flood",
        "time": "0",
        "inj": "0",
        "deaths": "0",
        "prop_dmg": "20.0k",
        "crop_dmg": "0",
        "begin": "04/12/2006",
        "county": "ELKO CO.",
        "state": "NV"
      },
      {
        "type": "Flood",
        "time": "0",
        "inj": "0",
        "deaths": "0",
        "prop_dmg": "5.00k",
        "crop_dmg": "0",
        "begin": "05/02/2006",
        "county": "ELKO CO.",
        "state": "NV"
      },
      {
        "type": "Flood",
        "time": "1700",
        "inj": "0",
        "deaths": "0",
        "prop_dmg": "7.00k",
        "crop_dmg": "0",
        "begin": "06/04/2010",
        "county": "ELKO CO.",
        "state": "NV"
      },
      {
        "type": "Flood",
        "time": "1900",
        "inj": "0",
        "deaths": "0",
        "prop_dmg": "9.00k",
        "crop_dmg": "0",
        "begin": "06/04/2010",
        "county": "ELKO CO.",
        "state": "NV"
      },
      {
        "type": "Flood",
        "time": "1100",
        "inj": "0",
        "deaths": "0",
        "prop_dmg": "1.00k",
        "crop_dmg": "0",
        "begin": "02/10/2014",
        "county": "ELKO CO.",
        "state": "NV"
      }
    ],
    "Freezing_Fog": [],
    "Funnel_Cloud": [],
    "Hail": [],
    "Heat": [],
    "Heavy_Rain": [],
    "Heavy_Snow": [],
    "High_Surf": [],
    "High_Wind": [],
    "Ice_Storm": [],
    "Lakeshore_Flood": [],
    "Landslide": [],
    "Lightning": [
      {
        "type": "Lightning",
        "time": "1230",
        "inj": "0",
        "deaths": "0",
        "prop_dmg": "5.00k",
        "crop_dmg": "0",
        "begin": "08/13/2014",
        "county": "ELKO CO.",
        "state": "NV"
      }
    ],
    "Rip_Current": [],
    "Seiche": [],
    "Sleet": [],
    "Storm_Surge__FTide": [],
    "Strong_Wind": [],
    "Thunderstorm_Wind": [],
    "Tornado": [],
    "Tropical_Depression": [],
    "Tropical_Storm": [],
    "Tsunami": [],
    "Volcanic_Ashfall": [],
    "Waterspout": [],
    "Wildfire": [],
    "Winter_Storm": [],
    "Winter_Weather": []
  },
  "009": {
    "name": "Esmeralda County",
    "fips": "NV",
    "pop10": "783",
    "lat": 37.778966,
    "lon": -117.632382,
    "geoid": "32009",
    "deaths": 0,
    "prop_dmg": "96.0k",
    "crop_dmg": 0,
    "inj": 0,
    "all": 6,
    "eq": [],
    "Hurricane____Typhoon___": [],
    "Cold__FWind_Chill": [],
    "Coastal_Flood": [],
    "Avalanche": [],
    "Astronomical_Low_Tide": [],
    "Dense_Fog": [],
    "Drought": [],
    "Dust_Devil": [
      {
        "type": "Dust+Devil",
        "time": "942",
        "inj": "0",
        "deaths": "0",
        "prop_dmg": "5.00k",
        "crop_dmg": "0",
        "begin": "03/06/2013",
        "county": "ESMERALDA CO.",
        "state": "NV"
      },
      {
        "type": "Dust+Devil",
        "time": "942",
        "inj": "0",
        "deaths": "0",
        "prop_dmg": "5.00k",
        "crop_dmg": "0",
        "begin": "03/06/2013",
        "county": "ESMERALDA CO.",
        "state": "NV"
      }
    ],
    "Dust_Storm": [],
    "Excessive_Heat": [],
    "Extreme_Cold__FWind_Chill": [],
    "Flash_Flood": [],
    "Flood": [],
    "Freezing_Fog": [],
    "Funnel_Cloud": [],
    "Hail": [],
    "Heat": [],
    "Heavy_Rain": [],
    "Heavy_Snow": [],
    "High_Surf": [],
    "High_Wind": [],
    "Ice_Storm": [],
    "Lakeshore_Flood": [],
    "Landslide": [],
    "Lightning": [
      {
        "type": "Lightning",
        "time": "1450",
        "inj": "0",
        "deaths": "0",
        "prop_dmg": "25.0k",
        "crop_dmg": "0",
        "begin": "04/20/2010",
        "county": "ESMERALDA CO.",
        "state": "NV"
      },
      {
        "type": "Lightning",
        "time": "1800",
        "inj": "0",
        "deaths": "0",
        "prop_dmg": "1.00k",
        "crop_dmg": "0",
        "begin": "06/15/2011",
        "county": "ESMERALDA CO.",
        "state": "NV"
      },
      {
        "type": "Lightning",
        "time": "1900",
        "inj": "0",
        "deaths": "0",
        "prop_dmg": "10.0k",
        "crop_dmg": "0",
        "begin": "07/29/2011",
        "county": "ESMERALDA CO.",
        "state": "NV"
      },
      {
        "type": "Lightning",
        "time": "1715",
        "inj": "0",
        "deaths": "0",
        "prop_dmg": "50.0k",
        "crop_dmg": "0",
        "begin": "07/13/2012",
        "county": "ESMERALDA CO.",
        "state": "NV"
      }
    ],
    "Rip_Current": [],
    "Seiche": [],
    "Sleet": [],
    "Storm_Surge__FTide": [],
    "Strong_Wind": [],
    "Thunderstorm_Wind": [],
    "Tornado": [],
    "Tropical_Depression": [],
    "Tropical_Storm": [],
    "Tsunami": [],
    "Volcanic_Ashfall": [],
    "Waterspout": [],
    "Wildfire": [],
    "Winter_Storm": [],
    "Winter_Weather": []
  },
  "011": {
    "name": "Eureka County",
    "fips": "NV",
    "pop10": "1987",
    "lat": 39.977788,
    "lon": -116.272208,
    "geoid": "32011",
    "deaths": 0,
    "prop_dmg": 0,
    "crop_dmg": 0,
    "inj": 0,
    "all": 0,
    "eq": [],
    "Hurricane____Typhoon___": [],
    "Cold__FWind_Chill": [],
    "Coastal_Flood": [],
    "Avalanche": [],
    "Astronomical_Low_Tide": [],
    "Dense_Fog": [],
    "Drought": [],
    "Dust_Devil": [],
    "Dust_Storm": [],
    "Excessive_Heat": [],
    "Extreme_Cold__FWind_Chill": [],
    "Flash_Flood": [],
    "Flood": [],
    "Freezing_Fog": [],
    "Funnel_Cloud": [],
    "Hail": [],
    "Heat": [],
    "Heavy_Rain": [],
    "Heavy_Snow": [],
    "High_Surf": [],
    "High_Wind": [],
    "Ice_Storm": [],
    "Lakeshore_Flood": [],
    "Landslide": [],
    "Lightning": [],
    "Rip_Current": [],
    "Seiche": [],
    "Sleet": [],
    "Storm_Surge__FTide": [],
    "Strong_Wind": [],
    "Thunderstorm_Wind": [],
    "Tornado": [],
    "Tropical_Depression": [],
    "Tropical_Storm": [],
    "Tsunami": [],
    "Volcanic_Ashfall": [],
    "Waterspout": [],
    "Wildfire": [],
    "Winter_Storm": [],
    "Winter_Weather": []
  },
  "013": {
    "name": "Humboldt County",
    "fips": "NV",
    "pop10": "16528",
    "lat": 41.407914,
    "lon": -118.127591,
    "geoid": "32013",
    "deaths": 0,
    "prop_dmg": "1.51M",
    "crop_dmg": 0,
    "inj": 0,
    "all": 2,
    "eq": [],
    "Hurricane____Typhoon___": [],
    "Cold__FWind_Chill": [],
    "Coastal_Flood": [],
    "Avalanche": [],
    "Astronomical_Low_Tide": [],
    "Dense_Fog": [],
    "Drought": [],
    "Dust_Devil": [],
    "Dust_Storm": [
      {
        "type": "Dust+Storm",
        "time": "1545",
        "inj": "0",
        "deaths": "0",
        "prop_dmg": "1.50M",
        "crop_dmg": "0",
        "begin": "06/10/2013",
        "county": "HUMBOLDT ",
        "state": "NV"
      }
    ],
    "Excessive_Heat": [],
    "Extreme_Cold__FWind_Chill": [],
    "Flash_Flood": [
      {
        "type": "Flash+Flood",
        "time": "1430",
        "inj": "0",
        "deaths": "0",
        "prop_dmg": "5.00k",
        "crop_dmg": "0",
        "begin": "06/05/2009",
        "county": "HUMBOLDT CO.",
        "state": "NV"
      }
    ],
    "Flood": [],
    "Freezing_Fog": [],
    "Funnel_Cloud": [],
    "Hail": [],
    "Heat": [],
    "Heavy_Rain": [],
    "Heavy_Snow": [],
    "High_Surf": [],
    "High_Wind": [],
    "Ice_Storm": [],
    "Lakeshore_Flood": [],
    "Landslide": [],
    "Lightning": [],
    "Rip_Current": [],
    "Seiche": [],
    "Sleet": [],
    "Storm_Surge__FTide": [],
    "Strong_Wind": [],
    "Thunderstorm_Wind": [],
    "Tornado": [],
    "Tropical_Depression": [],
    "Tropical_Storm": [],
    "Tsunami": [],
    "Volcanic_Ashfall": [],
    "Waterspout": [],
    "Wildfire": [],
    "Winter_Storm": [],
    "Winter_Weather": []
  },
  "015": {
    "name": "Lander County",
    "fips": "NV",
    "pop10": "5775",
    "lat": 39.90021,
    "lon": -117.04724,
    "geoid": "32015",
    "deaths": 3,
    "prop_dmg": 0,
    "crop_dmg": 0,
    "inj": 5,
    "all": 2,
    "eq": [],
    "Hurricane____Typhoon___": [],
    "Cold__FWind_Chill": [],
    "Coastal_Flood": [],
    "Avalanche": [],
    "Astronomical_Low_Tide": [],
    "Dense_Fog": [],
    "Drought": [],
    "Dust_Devil": [],
    "Dust_Storm": [],
    "Excessive_Heat": [
      {
        "type": "Excessive+Heat",
        "time": "1200",
        "inj": "5",
        "deaths": "1",
        "prop_dmg": "0",
        "crop_dmg": "0",
        "begin": "06/28/2013",
        "county": "LAKE MEAD/LAKE MOHAVE NATIONAL RECREATION AREA ",
        "state": "NV"
      }
    ],
    "Extreme_Cold__FWind_Chill": [],
    "Flash_Flood": [],
    "Flood": [],
    "Freezing_Fog": [],
    "Funnel_Cloud": [],
    "Hail": [],
    "Heat": [
      {
        "type": "Heat",
        "time": "1300",
        "inj": "0",
        "deaths": "2",
        "prop_dmg": "0",
        "crop_dmg": "0",
        "begin": "06/18/2003",
        "county": "X SE & EC CLARK ",
        "state": "NV"
      }
    ],
    "Heavy_Rain": [],
    "Heavy_Snow": [],
    "High_Surf": [],
    "High_Wind": [],
    "Ice_Storm": [],
    "Lakeshore_Flood": [],
    "Landslide": [],
    "Lightning": [],
    "Rip_Current": [],
    "Seiche": [],
    "Sleet": [],
    "Storm_Surge__FTide": [],
    "Strong_Wind": [],
    "Thunderstorm_Wind": [],
    "Tornado": [],
    "Tropical_Depression": [],
    "Tropical_Storm": [],
    "Tsunami": [],
    "Volcanic_Ashfall": [],
    "Waterspout": [],
    "Wildfire": [],
    "Winter_Storm": [],
    "Winter_Weather": []
  },
  "017": {
    "name": "Lincoln County",
    "fips": "NV",
    "pop10": "5345",
    "lat": 37.634605,
    "lon": -114.863037,
    "geoid": "32017",
    "deaths": 0,
    "prop_dmg": "20.2M",
    "crop_dmg": 0,
    "inj": 0,
    "all": 5,
    "eq": [],
    "Hurricane____Typhoon___": [],
    "Cold__FWind_Chill": [],
    "Coastal_Flood": [],
    "Avalanche": [],
    "Astronomical_Low_Tide": [],
    "Dense_Fog": [],
    "Drought": [],
    "Dust_Devil": [],
    "Dust_Storm": [],
    "Excessive_Heat": [],
    "Extreme_Cold__FWind_Chill": [],
    "Flash_Flood": [
      {
        "type": "Flash+Flood",
        "time": "1130",
        "inj": "0",
        "deaths": "0",
        "prop_dmg": "20.0k",
        "crop_dmg": "0",
        "begin": "07/15/2012",
        "county": "LINCOLN CO.",
        "state": "NV"
      },
      {
        "type": "Flash+Flood",
        "time": "1330",
        "inj": "0",
        "deaths": "0",
        "prop_dmg": "30.0k",
        "crop_dmg": "0",
        "begin": "07/15/2012",
        "county": "LINCOLN CO.",
        "state": "NV"
      },
      {
        "type": "Flash+Flood",
        "time": "1734",
        "inj": "0",
        "deaths": "0",
        "prop_dmg": "25.0k",
        "crop_dmg": "0",
        "begin": "07/16/2012",
        "county": "LINCOLN CO.",
        "state": "NV"
      }
    ],
    "Flood": [
      {
        "type": "Flood",
        "time": "300",
        "inj": "0",
        "deaths": "0",
        "prop_dmg": "20.0M",
        "crop_dmg": "0",
        "begin": "01/11/2005",
        "county": "LINCOLN T SC ",
        "state": "NV"
      }
    ],
    "Freezing_Fog": [],
    "Funnel_Cloud": [],
    "Hail": [],
    "Heat": [],
    "Heavy_Rain": [],
    "Heavy_Snow": [],
    "High_Surf": [],
    "High_Wind": [],
    "Ice_Storm": [],
    "Lakeshore_Flood": [],
    "Landslide": [],
    "Lightning": [],
    "Rip_Current": [],
    "Seiche": [],
    "Sleet": [],
    "Storm_Surge__FTide": [],
    "Strong_Wind": [],
    "Thunderstorm_Wind": [],
    "Tornado": [],
    "Tropical_Depression": [],
    "Tropical_Storm": [],
    "Tsunami": [],
    "Volcanic_Ashfall": [],
    "Waterspout": [],
    "Wildfire": [
      {
        "type": "Wildfire",
        "time": "1725",
        "inj": "0",
        "deaths": "0",
        "prop_dmg": "75.0k",
        "crop_dmg": "0",
        "begin": "07/02/2014",
        "county": "LINCOLN COUNTY EXCEPT THE SHEEP RANGE ",
        "state": "NV"
      }
    ],
    "Winter_Storm": [],
    "Winter_Weather": []
  },
  "019": {
    "name": "Lyon County",
    "fips": "NV",
    "pop10": "51980",
    "lat": 39.022214,
    "lon": -119.197417,
    "geoid": "32019",
    "deaths": 1,
    "prop_dmg": "6.91M",
    "crop_dmg": 0,
    "inj": 0,
    "all": 8,
    "eq": [],
    "Hurricane____Typhoon___": [],
    "Cold__FWind_Chill": [],
    "Coastal_Flood": [],
    "Avalanche": [],
    "Astronomical_Low_Tide": [],
    "Dense_Fog": [],
    "Drought": [],
    "Dust_Devil": [],
    "Dust_Storm": [],
    "Excessive_Heat": [],
    "Extreme_Cold__FWind_Chill": [],
    "Flash_Flood": [
      {
        "type": "Flash+Flood",
        "time": "419",
        "inj": "0",
        "deaths": "0",
        "prop_dmg": "6.60M",
        "crop_dmg": "0",
        "begin": "01/05/2008",
        "county": "LYON CO.",
        "state": "NV"
      },
      {
        "type": "Flash+Flood",
        "time": "1200",
        "inj": "0",
        "deaths": "0",
        "prop_dmg": "1.00k",
        "crop_dmg": "0",
        "begin": "06/10/2013",
        "county": "LYON CO.",
        "state": "NV"
      }
    ],
    "Flood": [
      {
        "type": "Flood",
        "time": "0",
        "inj": "0",
        "deaths": "0",
        "prop_dmg": "165k",
        "crop_dmg": "0",
        "begin": "01/01/2006",
        "county": "LYON CO.",
        "state": "NV"
      },
      {
        "type": "Flood",
        "time": "1600",
        "inj": "0",
        "deaths": "0",
        "prop_dmg": "50.0k",
        "crop_dmg": "0",
        "begin": "05/19/2006",
        "county": "LYON CO.",
        "state": "NV"
      },
      {
        "type": "Flood",
        "time": "1600",
        "inj": "0",
        "deaths": "0",
        "prop_dmg": "50.0k",
        "crop_dmg": "0",
        "begin": "06/12/2011",
        "county": "LYON CO.",
        "state": "NV"
      }
    ],
    "Freezing_Fog": [],
    "Funnel_Cloud": [],
    "Hail": [],
    "Heat": [],
    "Heavy_Rain": [],
    "Heavy_Snow": [],
    "High_Surf": [],
    "High_Wind": [],
    "Ice_Storm": [],
    "Lakeshore_Flood": [],
    "Landslide": [],
    "Lightning": [
      {
        "type": "Lightning",
        "time": "1600",
        "inj": "0",
        "deaths": "0",
        "prop_dmg": "2.00k",
        "crop_dmg": "0",
        "begin": "06/17/2004",
        "county": "LYON CO.",
        "state": "NV"
      },
      {
        "type": "Lightning",
        "time": "1330",
        "inj": "0",
        "deaths": "0",
        "prop_dmg": "40.0k",
        "crop_dmg": "0",
        "begin": "07/06/2007",
        "county": "LYON CO.",
        "state": "NV"
      }
    ],
    "Rip_Current": [],
    "Seiche": [],
    "Sleet": [],
    "Storm_Surge__FTide": [],
    "Strong_Wind": [],
    "Thunderstorm_Wind": [],
    "Tornado": [],
    "Tropical_Depression": [],
    "Tropical_Storm": [],
    "Tsunami": [],
    "Volcanic_Ashfall": [],
    "Waterspout": [],
    "Wildfire": [],
    "Winter_Storm": [],
    "Winter_Weather": [
      {
        "type": "Winter+Weather",
        "time": "850",
        "inj": "0",
        "deaths": "1",
        "prop_dmg": "0",
        "crop_dmg": "0",
        "begin": "01/28/2002",
        "county": "LYON CO.",
        "state": "NV"
      }
    ]
  },
  "021": {
    "name": "Mineral County",
    "fips": "NV",
    "pop10": "4772",
    "lat": 38.516647,
    "lon": -118.416279,
    "geoid": "32021",
    "deaths": 0,
    "prop_dmg": "640M",
    "crop_dmg": 0,
    "inj": 50,
    "all": 3,
    "eq": [],
    "Hurricane____Typhoon___": [],
    "Cold__FWind_Chill": [
      {
        "type": "Cold%2FWind+Chill",
        "time": "0",
        "inj": "0",
        "deaths": "0",
        "prop_dmg": "50.0k",
        "crop_dmg": "0",
        "begin": "01/13/1997",
        "county": "MINERAL/SOUTHERN LYON ",
        "state": "NV"
      }
    ],
    "Coastal_Flood": [],
    "Avalanche": [],
    "Astronomical_Low_Tide": [],
    "Dense_Fog": [],
    "Drought": [],
    "Dust_Devil": [],
    "Dust_Storm": [],
    "Excessive_Heat": [],
    "Extreme_Cold__FWind_Chill": [],
    "Flash_Flood": [],
    "Flood": [
      {
        "type": "Flood",
        "time": "0",
        "inj": "50",
        "deaths": "0",
        "prop_dmg": "640M",
        "crop_dmg": "0",
        "begin": "01/01/1997",
        "county": "MINERAL/SOUTHERN LYON ",
        "state": "NV"
      }
    ],
    "Freezing_Fog": [],
    "Funnel_Cloud": [],
    "Hail": [],
    "Heat": [],
    "Heavy_Rain": [],
    "Heavy_Snow": [],
    "High_Surf": [],
    "High_Wind": [],
    "Ice_Storm": [],
    "Lakeshore_Flood": [],
    "Landslide": [],
    "Lightning": [],
    "Rip_Current": [],
    "Seiche": [],
    "Sleet": [],
    "Storm_Surge__FTide": [],
    "Strong_Wind": [],
    "Thunderstorm_Wind": [],
    "Tornado": [],
    "Tropical_Depression": [],
    "Tropical_Storm": [],
    "Tsunami": [],
    "Volcanic_Ashfall": [],
    "Waterspout": [],
    "Wildfire": [],
    "Winter_Storm": [],
    "Winter_Weather": [
      {
        "type": "Winter+Weather",
        "time": "2130",
        "inj": "0",
        "deaths": "0",
        "prop_dmg": "5.00k",
        "crop_dmg": "0",
        "begin": "10/03/2009",
        "county": "MINERAL/SOUTHERN LYON ",
        "state": "NV"
      }
    ]
  },
  "023": {
    "name": "Nye County",
    "fips": "NV",
    "pop10": "43946",
    "lat": 37.966379,
    "lon": -116.459047,
    "geoid": "32023",
    "deaths": 2,
    "prop_dmg": "162k",
    "crop_dmg": 0,
    "inj": 9,
    "all": 10,
    "eq": [
      {
        "type": "earthquake",
        "begin": "6/29/1992",
        "inj": "",
        "prop_dmg": "",
        "crop_dmg": "",
        "county": "NEVADA-CALIFORNIA BORDER:  NEVADA TEST SITE",
        "state": "NV",
        "deaths": ""
      }
    ],
    "Hurricane____Typhoon___": [],
    "Cold__FWind_Chill": [],
    "Coastal_Flood": [],
    "Avalanche": [],
    "Astronomical_Low_Tide": [],
    "Dense_Fog": [],
    "Drought": [],
    "Dust_Devil": [],
    "Dust_Storm": [
      {
        "type": "Dust+Storm",
        "time": "900",
        "inj": "0",
        "deaths": "0",
        "prop_dmg": "10.0k",
        "crop_dmg": "0",
        "begin": "04/15/2002",
        "county": "WESTERN CLARK/SOUTHERN NYE ",
        "state": "NV"
      }
    ],
    "Excessive_Heat": [],
    "Extreme_Cold__FWind_Chill": [],
    "Flash_Flood": [
      {
        "type": "Flash+Flood",
        "time": "1600",
        "inj": "0",
        "deaths": "0",
        "prop_dmg": "5.00k",
        "crop_dmg": "0",
        "begin": "07/15/2012",
        "county": "NYE CO.",
        "state": "NV"
      }
    ],
    "Flood": [],
    "Freezing_Fog": [],
    "Funnel_Cloud": [],
    "Hail": [],
    "Heat": [],
    "Heavy_Rain": [],
    "Heavy_Snow": [],
    "High_Surf": [],
    "High_Wind": [],
    "Ice_Storm": [],
    "Lakeshore_Flood": [],
    "Landslide": [],
    "Lightning": [
      {
        "type": "Lightning",
        "time": "1300",
        "inj": "1",
        "deaths": "1",
        "prop_dmg": "0",
        "crop_dmg": "0",
        "begin": "07/08/2006",
        "county": "NYE CO.",
        "state": "NV"
      },
      {
        "type": "Lightning",
        "time": "1605",
        "inj": "0",
        "deaths": "0",
        "prop_dmg": "10.0k",
        "crop_dmg": "0",
        "begin": "07/10/2008",
        "county": "NYE CO.",
        "state": "NV"
      },
      {
        "type": "Lightning",
        "time": "1845",
        "inj": "0",
        "deaths": "0",
        "prop_dmg": "10.0k",
        "crop_dmg": "0",
        "begin": "07/11/2012",
        "county": "NYE CO.",
        "state": "NV"
      },
      {
        "type": "Lightning",
        "time": "1330",
        "inj": "0",
        "deaths": "0",
        "prop_dmg": "2.00k",
        "crop_dmg": "0",
        "begin": "09/20/2014",
        "county": "NYE CO.",
        "state": "NV"
      },
      {
        "type": "Lightning",
        "time": "1416",
        "inj": "0",
        "deaths": "0",
        "prop_dmg": "25.0k",
        "crop_dmg": "0",
        "begin": "09/20/2014",
        "county": "NYE CO.",
        "state": "NV"
      }
    ],
    "Rip_Current": [],
    "Seiche": [],
    "Sleet": [],
    "Storm_Surge__FTide": [],
    "Strong_Wind": [],
    "Thunderstorm_Wind": [],
    "Tornado": [],
    "Tropical_Depression": [],
    "Tropical_Storm": [],
    "Tsunami": [],
    "Volcanic_Ashfall": [],
    "Waterspout": [],
    "Wildfire": [
      {
        "type": "Wildfire",
        "time": "1200",
        "inj": "2",
        "deaths": "0",
        "prop_dmg": "100k",
        "crop_dmg": "0",
        "begin": "07/01/2014",
        "county": "WESTERN CLARK/SOUTHERN NYE ",
        "state": "NV"
      }
    ],
    "Winter_Storm": [
      {
        "type": "Winter+Storm",
        "time": "1700",
        "inj": "6",
        "deaths": "1",
        "prop_dmg": "0",
        "crop_dmg": "0",
        "begin": "01/01/2006",
        "county": "ESMERALDA/CENTRAL NYE ",
        "state": "NV"
      }
    ],
    "Winter_Weather": []
  },
  "027": {
    "name": "Pershing County",
    "fips": "NV",
    "pop10": "6753",
    "lat": 40.439639,
    "lon": -118.409477,
    "geoid": "32027",
    "deaths": 0,
    "prop_dmg": "290k",
    "crop_dmg": 0,
    "inj": 19,
    "all": 5,
    "eq": [],
    "Hurricane____Typhoon___": [],
    "Cold__FWind_Chill": [],
    "Coastal_Flood": [],
    "Avalanche": [],
    "Astronomical_Low_Tide": [],
    "Dense_Fog": [],
    "Drought": [],
    "Dust_Devil": [],
    "Dust_Storm": [
      {
        "type": "Dust+Storm",
        "time": "1505",
        "inj": "15",
        "deaths": "0",
        "prop_dmg": "80.0k",
        "crop_dmg": "0",
        "begin": "08/03/2000",
        "county": "PERSHING/CHURCHILL/X SE WASHOE/NC&NE LYON ",
        "state": "NV"
      },
      {
        "type": "Dust+Storm",
        "time": "1530",
        "inj": "4",
        "deaths": "0",
        "prop_dmg": "100k",
        "crop_dmg": "0",
        "begin": "05/19/2002",
        "county": "PERSHING/CHURCHILL/X SE WASHOE/NC&NE LYON ",
        "state": "NV"
      },
      {
        "type": "Dust+Storm",
        "time": "1200",
        "inj": "0",
        "deaths": "0",
        "prop_dmg": "10.0k",
        "crop_dmg": "0",
        "begin": "09/29/2009",
        "county": "WESTERN NEVADA BASIN AND RANGE ",
        "state": "NV"
      },
      {
        "type": "Dust+Storm",
        "time": "1000",
        "inj": "0",
        "deaths": "0",
        "prop_dmg": "50.0k",
        "crop_dmg": "0",
        "begin": "11/20/2009",
        "county": "WESTERN NEVADA BASIN AND RANGE ",
        "state": "NV"
      }
    ],
    "Excessive_Heat": [],
    "Extreme_Cold__FWind_Chill": [],
    "Flash_Flood": [],
    "Flood": [
      {
        "type": "Flood",
        "time": "0",
        "inj": "0",
        "deaths": "0",
        "prop_dmg": "50.0k",
        "crop_dmg": "0",
        "begin": "05/01/2006",
        "county": "PERSHING CO.",
        "state": "NV"
      }
    ],
    "Freezing_Fog": [],
    "Funnel_Cloud": [],
    "Hail": [],
    "Heat": [],
    "Heavy_Rain": [],
    "Heavy_Snow": [],
    "High_Surf": [],
    "High_Wind": [],
    "Ice_Storm": [],
    "Lakeshore_Flood": [],
    "Landslide": [],
    "Lightning": [],
    "Rip_Current": [],
    "Seiche": [],
    "Sleet": [],
    "Storm_Surge__FTide": [],
    "Strong_Wind": [],
    "Thunderstorm_Wind": [],
    "Tornado": [],
    "Tropical_Depression": [],
    "Tropical_Storm": [],
    "Tsunami": [],
    "Volcanic_Ashfall": [],
    "Waterspout": [],
    "Wildfire": [],
    "Winter_Storm": [],
    "Winter_Weather": []
  },
  "029": {
    "name": "Storey County",
    "fips": "NV",
    "pop10": "4010",
    "lat": 39.438385,
    "lon": -119.524646,
    "geoid": "32029",
    "deaths": 5,
    "prop_dmg": "4.80M",
    "crop_dmg": 0,
    "inj": 2,
    "all": 8,
    "eq": [],
    "Hurricane____Typhoon___": [],
    "Cold__FWind_Chill": [],
    "Coastal_Flood": [],
    "Avalanche": [],
    "Astronomical_Low_Tide": [],
    "Dense_Fog": [
      {
        "type": "Dense+Fog",
        "time": "0",
        "inj": "0",
        "deaths": "0",
        "prop_dmg": "10.0k",
        "crop_dmg": "0",
        "begin": "04/23/2010",
        "county": "GREATER RENO/CARSON CITY/MINDEN AREA ",
        "state": "NV"
      }
    ],
    "Drought": [],
    "Dust_Devil": [],
    "Dust_Storm": [],
    "Excessive_Heat": [],
    "Extreme_Cold__FWind_Chill": [],
    "Flash_Flood": [
      {
        "type": "Flash+Flood",
        "time": "1410",
        "inj": "0",
        "deaths": "0",
        "prop_dmg": "10.0k",
        "crop_dmg": "0",
        "begin": "02/03/1996",
        "county": "STOREY CO.",
        "state": "NV"
      }
    ],
    "Flood": [
      {
        "type": "Flood",
        "time": "0",
        "inj": "0",
        "deaths": "2",
        "prop_dmg": "0",
        "crop_dmg": "0",
        "begin": "01/01/1997",
        "county": "GREATER RENO/CARSON CITY/MINDEN AREA ",
        "state": "NV"
      },
      {
        "type": "Flood",
        "time": "0",
        "inj": "0",
        "deaths": "0",
        "prop_dmg": "243k",
        "crop_dmg": "0",
        "begin": "01/01/2006",
        "county": "STOREY CO.",
        "state": "NV"
      }
    ],
    "Freezing_Fog": [],
    "Funnel_Cloud": [],
    "Hail": [],
    "Heat": [],
    "Heavy_Rain": [],
    "Heavy_Snow": [],
    "High_Surf": [],
    "High_Wind": [],
    "Ice_Storm": [
      {
        "type": "Ice+Storm",
        "time": "700",
        "inj": "0",
        "deaths": "1",
        "prop_dmg": "0",
        "crop_dmg": "0",
        "begin": "01/25/2005",
        "county": "GREATER RENO/CARSON CITY/MINDEN AREA ",
        "state": "NV"
      },
      {
        "type": "Ice+Storm",
        "time": "900",
        "inj": "2",
        "deaths": "1",
        "prop_dmg": "0",
        "crop_dmg": "0",
        "begin": "01/04/2007",
        "county": "GREATER RENO/CARSON CITY/MINDEN AREA ",
        "state": "NV"
      }
    ],
    "Lakeshore_Flood": [],
    "Landslide": [],
    "Lightning": [],
    "Rip_Current": [],
    "Seiche": [],
    "Sleet": [],
    "Storm_Surge__FTide": [],
    "Strong_Wind": [],
    "Thunderstorm_Wind": [],
    "Tornado": [],
    "Tropical_Depression": [],
    "Tropical_Storm": [],
    "Tsunami": [],
    "Volcanic_Ashfall": [],
    "Waterspout": [],
    "Wildfire": [
      {
        "type": "Wildfire",
        "time": "1300",
        "inj": "0",
        "deaths": "0",
        "prop_dmg": "10.0k",
        "crop_dmg": "0",
        "begin": "06/25/2009",
        "county": "GREATER RENO/CARSON CITY/MINDEN AREA ",
        "state": "NV"
      },
      {
        "type": "Wildfire",
        "time": "1300",
        "inj": "0",
        "deaths": "1",
        "prop_dmg": "4.53M",
        "crop_dmg": "0",
        "begin": "01/19/2012",
        "county": "GREATER RENO/CARSON CITY/MINDEN AREA ",
        "state": "NV"
      }
    ],
    "Winter_Storm": [],
    "Winter_Weather": []
  },
  "031": {
    "name": "Washoe County",
    "fips": "NV",
    "pop10": "421407",
    "lat": 40.703311,
    "lon": -119.710315,
    "geoid": "32031",
    "deaths": 0,
    "prop_dmg": "2.44M",
    "crop_dmg": "5.00k",
    "inj": 3,
    "all": 14,
    "eq": [
      {
        "type": "earthquake",
        "begin": "4/26/2008",
        "inj": "",
        "prop_dmg": "",
        "crop_dmg": "",
        "county": "NEVADA:  FALLON",
        "state": "",
        "deaths": ""
      }
    ],
    "Hurricane____Typhoon___": [],
    "Cold__FWind_Chill": [],
    "Coastal_Flood": [],
    "Avalanche": [
      {
        "type": "Avalanche",
        "time": "1000",
        "inj": "1",
        "deaths": "0",
        "prop_dmg": "0",
        "crop_dmg": "0",
        "begin": "02/12/2007",
        "county": "GREATER LAKE TAHOE AREA ",
        "state": "NV"
      }
    ],
    "Astronomical_Low_Tide": [],
    "Dense_Fog": [],
    "Drought": [],
    "Dust_Devil": [
      {
        "type": "Dust+Devil",
        "time": "1400",
        "inj": "0",
        "deaths": "0",
        "prop_dmg": "1.00k",
        "crop_dmg": "0",
        "begin": "07/10/2000",
        "county": "WASHOE CO.",
        "state": "NV"
      },
      {
        "type": "Dust+Devil",
        "time": "1415",
        "inj": "0",
        "deaths": "0",
        "prop_dmg": "500",
        "crop_dmg": "0",
        "begin": "05/29/2009",
        "county": "WASHOE CO.",
        "state": "NV"
      },
      {
        "type": "Dust+Devil",
        "time": "1400",
        "inj": "0",
        "deaths": "0",
        "prop_dmg": "1.00k",
        "crop_dmg": "0",
        "begin": "07/10/2000",
        "county": "WASHOE CO.",
        "state": "NV"
      },
      {
        "type": "Dust+Devil",
        "time": "1415",
        "inj": "0",
        "deaths": "0",
        "prop_dmg": "500",
        "crop_dmg": "0",
        "begin": "05/29/2009",
        "county": "WASHOE CO.",
        "state": "NV"
      }
    ],
    "Dust_Storm": [],
    "Excessive_Heat": [],
    "Extreme_Cold__FWind_Chill": [],
    "Flash_Flood": [
      {
        "type": "Flash+Flood",
        "time": "1720",
        "inj": "0",
        "deaths": "0",
        "prop_dmg": "1.00M",
        "crop_dmg": "0",
        "begin": "06/21/2002",
        "county": "WASHOE CO.",
        "state": "NV"
      },
      {
        "type": "Flash+Flood",
        "time": "1700",
        "inj": "0",
        "deaths": "0",
        "prop_dmg": "5.00k",
        "crop_dmg": "5.00k",
        "begin": "06/02/2007",
        "county": "WASHOE CO.",
        "state": "NV"
      },
      {
        "type": "Flash+Flood",
        "time": "1400",
        "inj": "0",
        "deaths": "0",
        "prop_dmg": "10.0k",
        "crop_dmg": "0",
        "begin": "06/10/2013",
        "county": "WASHOE CO.",
        "state": "NV"
      },
      {
        "type": "Flash+Flood",
        "time": "1400",
        "inj": "0",
        "deaths": "0",
        "prop_dmg": "500k",
        "crop_dmg": "0",
        "begin": "06/10/2013",
        "county": "WASHOE CO.",
        "state": "NV"
      }
    ],
    "Flood": [
      {
        "type": "Flood",
        "time": "0",
        "inj": "0",
        "deaths": "0",
        "prop_dmg": "623k",
        "crop_dmg": "0",
        "begin": "01/01/2006",
        "county": "WASHOE CO.",
        "state": "NV"
      }
    ],
    "Freezing_Fog": [],
    "Funnel_Cloud": [],
    "Hail": [],
    "Heat": [],
    "Heavy_Rain": [],
    "Heavy_Snow": [],
    "High_Surf": [],
    "High_Wind": [],
    "Ice_Storm": [],
    "Lakeshore_Flood": [],
    "Landslide": [],
    "Lightning": [
      {
        "type": "Lightning",
        "time": "1629",
        "inj": "1",
        "deaths": "0",
        "prop_dmg": "0",
        "crop_dmg": "0",
        "begin": "05/11/1997",
        "county": "WASHOE CO.",
        "state": "NV"
      },
      {
        "type": "Lightning",
        "time": "2203",
        "inj": "1",
        "deaths": "0",
        "prop_dmg": "0",
        "crop_dmg": "0",
        "begin": "08/03/1999",
        "county": "WASHOE CO.",
        "state": "NV"
      },
      {
        "type": "Lightning",
        "time": "1700",
        "inj": "0",
        "deaths": "0",
        "prop_dmg": "300k",
        "crop_dmg": "0",
        "begin": "06/28/2013",
        "county": "WASHOE CO.",
        "state": "NV"
      }
    ],
    "Rip_Current": [],
    "Seiche": [],
    "Sleet": [],
    "Storm_Surge__FTide": [],
    "Strong_Wind": [],
    "Thunderstorm_Wind": [],
    "Tornado": [],
    "Tropical_Depression": [],
    "Tropical_Storm": [],
    "Tsunami": [],
    "Volcanic_Ashfall": [],
    "Waterspout": [],
    "Wildfire": [],
    "Winter_Storm": [],
    "Winter_Weather": []
  },
  "033": {
    "name": "White Pine County",
    "fips": "NV",
    "pop10": "10030",
    "lat": 39.417804,
    "lon": -114.900945,
    "geoid": "32033",
    "deaths": 0,
    "prop_dmg": "10.0k",
    "crop_dmg": 0,
    "inj": 0,
    "all": 1,
    "eq": [],
    "Hurricane____Typhoon___": [],
    "Cold__FWind_Chill": [],
    "Coastal_Flood": [],
    "Avalanche": [],
    "Astronomical_Low_Tide": [],
    "Dense_Fog": [],
    "Drought": [],
    "Dust_Devil": [],
    "Dust_Storm": [],
    "Excessive_Heat": [],
    "Extreme_Cold__FWind_Chill": [],
    "Flash_Flood": [],
    "Flood": [],
    "Freezing_Fog": [],
    "Funnel_Cloud": [],
    "Hail": [],
    "Heat": [],
    "Heavy_Rain": [],
    "Heavy_Snow": [
      {
        "type": "Heavy+Snow",
        "time": "700",
        "inj": "0",
        "deaths": "0",
        "prop_dmg": "10.0k",
        "crop_dmg": "0",
        "begin": "10/01/2002",
        "county": "WHITE PINE ",
        "state": "NV"
      }
    ],
    "High_Surf": [],
    "High_Wind": [],
    "Ice_Storm": [],
    "Lakeshore_Flood": [],
    "Landslide": [],
    "Lightning": [],
    "Rip_Current": [],
    "Seiche": [],
    "Sleet": [],
    "Storm_Surge__FTide": [],
    "Strong_Wind": [],
    "Thunderstorm_Wind": [],
    "Tornado": [],
    "Tropical_Depression": [],
    "Tropical_Storm": [],
    "Tsunami": [],
    "Volcanic_Ashfall": [],
    "Waterspout": [],
    "Wildfire": [],
    "Winter_Storm": [],
    "Winter_Weather": []
  }
}