{
  "001": {
    "name": "Beaver County",
    "fips": "UT",
    "pop10": "6629",
    "lat": 38.357535,
    "lon": -113.238948,
    "geoid": "49001",
    "deaths": 0,
    "prop_dmg": "1.00k",
    "crop_dmg": 0,
    "inj": 0,
    "all": 1,
    "eq": [],
    "Hurricane____Typhoon___": [],
    "Cold__FWind_Chill": [],
    "Coastal_Flood": [],
    "Avalanche": [],
    "Astronomical_Low_Tide": [],
    "Dense_Fog": [],
    "Drought": [],
    "Dust_Devil": [
      {
        "type": "Dust+Devil",
        "time": "1700",
        "inj": "0",
        "deaths": "0",
        "prop_dmg": "1.00k",
        "crop_dmg": "0",
        "begin": "03/25/2014",
        "county": "BEAVER CO.",
        "state": "UT"
      }
    ],
    "Dust_Storm": [],
    "Excessive_Heat": [],
    "Extreme_Cold__FWind_Chill": [],
    "Flash_Flood": [],
    "Flood": [],
    "Freezing_Fog": [],
    "Funnel_Cloud": [],
    "Hail": [],
    "Heat": [],
    "Heavy_Rain": [],
    "Heavy_Snow": [],
    "High_Surf": [],
    "High_Wind": [],
    "Ice_Storm": [],
    "Lakeshore_Flood": [],
    "Landslide": [],
    "Lightning": [],
    "Rip_Current": [],
    "Seiche": [],
    "Sleet": [],
    "Storm_Surge__FTide": [],
    "Strong_Wind": [],
    "Thunderstorm_Wind": [],
    "Tornado": [],
    "Tropical_Depression": [],
    "Tropical_Storm": [],
    "Tsunami": [],
    "Volcanic_Ashfall": [],
    "Waterspout": [],
    "Wildfire": [],
    "Winter_Storm": [],
    "Winter_Weather": []
  },
  "003": {
    "name": "Box Elder County",
    "fips": "UT",
    "pop10": "49975",
    "lat": 41.476021,
    "lon": -113.052922,
    "geoid": "49003",
    "deaths": 0,
    "prop_dmg": 0,
    "crop_dmg": 0,
    "inj": 0,
    "all": 0,
    "eq": [],
    "Hurricane____Typhoon___": [],
    "Cold__FWind_Chill": [],
    "Coastal_Flood": [],
    "Avalanche": [],
    "Astronomical_Low_Tide": [],
    "Dense_Fog": [],
    "Drought": [],
    "Dust_Devil": [],
    "Dust_Storm": [],
    "Excessive_Heat": [],
    "Extreme_Cold__FWind_Chill": [],
    "Flash_Flood": [],
    "Flood": [],
    "Freezing_Fog": [],
    "Funnel_Cloud": [],
    "Hail": [],
    "Heat": [],
    "Heavy_Rain": [],
    "Heavy_Snow": [],
    "High_Surf": [],
    "High_Wind": [],
    "Ice_Storm": [],
    "Lakeshore_Flood": [],
    "Landslide": [],
    "Lightning": [],
    "Rip_Current": [],
    "Seiche": [],
    "Sleet": [],
    "Storm_Surge__FTide": [],
    "Strong_Wind": [],
    "Thunderstorm_Wind": [],
    "Tornado": [],
    "Tropical_Depression": [],
    "Tropical_Storm": [],
    "Tsunami": [],
    "Volcanic_Ashfall": [],
    "Waterspout": [],
    "Wildfire": [],
    "Winter_Storm": [],
    "Winter_Weather": []
  },
  "005": {
    "name": "Cache County",
    "fips": "UT",
    "pop10": "112656",
    "lat": 41.734225,
    "lon": -111.744581,
    "geoid": "49005",
    "deaths": 0,
    "prop_dmg": "960k",
    "crop_dmg": "25.0k",
    "inj": 30,
    "all": 15,
    "eq": [
      {
        "type": "earthquake",
        "begin": "8/30/1962",
        "inj": "",
        "prop_dmg": "",
        "crop_dmg": "",
        "county": "UTAH",
        "state": "UT",
        "deaths": ""
      }
    ],
    "Hurricane____Typhoon___": [],
    "Cold__FWind_Chill": [],
    "Coastal_Flood": [],
    "Avalanche": [],
    "Astronomical_Low_Tide": [],
    "Dense_Fog": [],
    "Drought": [],
    "Dust_Devil": [],
    "Dust_Storm": [],
    "Excessive_Heat": [],
    "Extreme_Cold__FWind_Chill": [],
    "Flash_Flood": [],
    "Flood": [
      {
        "type": "Flood",
        "time": "1500",
        "inj": "0",
        "deaths": "0",
        "prop_dmg": "30.0k",
        "crop_dmg": "0",
        "begin": "01/11/1998",
        "county": "CACHE CO.",
        "state": "UT"
      },
      {
        "type": "Flood",
        "time": "400",
        "inj": "0",
        "deaths": "0",
        "prop_dmg": "200k",
        "crop_dmg": "0",
        "begin": "06/15/2011",
        "county": "CACHE CO.",
        "state": "UT"
      },
      {
        "type": "Flood",
        "time": "0",
        "inj": "0",
        "deaths": "0",
        "prop_dmg": "100k",
        "crop_dmg": "0",
        "begin": "06/23/2011",
        "county": "CACHE CO.",
        "state": "UT"
      },
      {
        "type": "Flood",
        "time": "1800",
        "inj": "0",
        "deaths": "0",
        "prop_dmg": "100k",
        "crop_dmg": "0",
        "begin": "06/25/2011",
        "county": "CACHE CO.",
        "state": "UT"
      },
      {
        "type": "Flood",
        "time": "0",
        "inj": "0",
        "deaths": "0",
        "prop_dmg": "10.0k",
        "crop_dmg": "0",
        "begin": "07/01/2011",
        "county": "CACHE CO.",
        "state": "UT"
      },
      {
        "type": "Flood",
        "time": "0",
        "inj": "0",
        "deaths": "0",
        "prop_dmg": "30.0k",
        "crop_dmg": "0",
        "begin": "07/01/2011",
        "county": "CACHE CO.",
        "state": "UT"
      },
      {
        "type": "Flood",
        "time": "600",
        "inj": "0",
        "deaths": "0",
        "prop_dmg": "100k",
        "crop_dmg": "0",
        "begin": "01/19/2012",
        "county": "CACHE CO.",
        "state": "UT"
      }
    ],
    "Freezing_Fog": [],
    "Funnel_Cloud": [],
    "Hail": [],
    "Heat": [],
    "Heavy_Rain": [],
    "Heavy_Snow": [
      {
        "type": "Heavy+Snow",
        "time": "200",
        "inj": "18",
        "deaths": "0",
        "prop_dmg": "200k",
        "crop_dmg": "20.0k",
        "begin": "01/15/1998",
        "county": "NW CACHE ",
        "state": "UT"
      }
    ],
    "High_Surf": [],
    "High_Wind": [],
    "Ice_Storm": [],
    "Lakeshore_Flood": [],
    "Landslide": [],
    "Lightning": [],
    "Rip_Current": [],
    "Seiche": [],
    "Sleet": [],
    "Storm_Surge__FTide": [],
    "Strong_Wind": [],
    "Thunderstorm_Wind": [],
    "Tornado": [],
    "Tropical_Depression": [],
    "Tropical_Storm": [],
    "Tsunami": [],
    "Volcanic_Ashfall": [],
    "Waterspout": [],
    "Wildfire": [],
    "Winter_Storm": [
      {
        "type": "Winter+Storm",
        "time": "2200",
        "inj": "6",
        "deaths": "0",
        "prop_dmg": "30.0k",
        "crop_dmg": "0",
        "begin": "01/04/1998",
        "county": "NW CACHE ",
        "state": "UT"
      },
      {
        "type": "Winter+Storm",
        "time": "600",
        "inj": "2",
        "deaths": "0",
        "prop_dmg": "30.0k",
        "crop_dmg": "5.00k",
        "begin": "01/19/1998",
        "county": "NW CACHE ",
        "state": "UT"
      },
      {
        "type": "Winter+Storm",
        "time": "1200",
        "inj": "0",
        "deaths": "0",
        "prop_dmg": "10.0k",
        "crop_dmg": "0",
        "begin": "11/05/1998",
        "county": "NW CACHE ",
        "state": "UT"
      },
      {
        "type": "Winter+Storm",
        "time": "700",
        "inj": "4",
        "deaths": "0",
        "prop_dmg": "50.0k",
        "crop_dmg": "0",
        "begin": "01/27/2002",
        "county": "CACHE VALLEY/UTAH PORTION ",
        "state": "UT"
      },
      {
        "type": "Winter+Storm",
        "time": "800",
        "inj": "0",
        "deaths": "0",
        "prop_dmg": "50.0k",
        "crop_dmg": "0",
        "begin": "11/21/2003",
        "county": "CACHE VALLEY/UTAH PORTION ",
        "state": "UT"
      }
    ],
    "Winter_Weather": [
      {
        "type": "Winter+Weather",
        "time": "200",
        "inj": "0",
        "deaths": "0",
        "prop_dmg": "20.0k",
        "crop_dmg": "0",
        "begin": "10/23/2012",
        "county": "CACHE VALLEY/UTAH ",
        "state": "UT"
      }
    ]
  },
  "007": {
    "name": "Carbon County",
    "fips": "UT",
    "pop10": "21403",
    "lat": 39.67005,
    "lon": -110.590357,
    "geoid": "49007",
    "deaths": 1,
    "prop_dmg": 0,
    "crop_dmg": 0,
    "inj": 1,
    "all": 1,
    "eq": [],
    "Hurricane____Typhoon___": [],
    "Cold__FWind_Chill": [],
    "Coastal_Flood": [],
    "Avalanche": [],
    "Astronomical_Low_Tide": [],
    "Dense_Fog": [],
    "Drought": [],
    "Dust_Devil": [],
    "Dust_Storm": [],
    "Excessive_Heat": [],
    "Extreme_Cold__FWind_Chill": [],
    "Flash_Flood": [],
    "Flood": [],
    "Freezing_Fog": [],
    "Funnel_Cloud": [],
    "Hail": [],
    "Heat": [],
    "Heavy_Rain": [],
    "Heavy_Snow": [],
    "High_Surf": [],
    "High_Wind": [],
    "Ice_Storm": [],
    "Lakeshore_Flood": [],
    "Landslide": [],
    "Lightning": [
      {
        "type": "Lightning",
        "time": "930",
        "inj": "1",
        "deaths": "1",
        "prop_dmg": "0",
        "crop_dmg": "0",
        "begin": "07/13/2011",
        "county": "CARBON CO.",
        "state": "UT"
      }
    ],
    "Rip_Current": [],
    "Seiche": [],
    "Sleet": [],
    "Storm_Surge__FTide": [],
    "Strong_Wind": [],
    "Thunderstorm_Wind": [],
    "Tornado": [],
    "Tropical_Depression": [],
    "Tropical_Storm": [],
    "Tsunami": [],
    "Volcanic_Ashfall": [],
    "Waterspout": [],
    "Wildfire": [],
    "Winter_Storm": [],
    "Winter_Weather": []
  },
  "009": {
    "name": "Daggett County",
    "fips": "UT",
    "pop10": "1059",
    "lat": 40.890099,
    "lon": -109.505785,
    "geoid": "49009",
    "deaths": 0,
    "prop_dmg": "56.5k",
    "crop_dmg": 0,
    "inj": 0,
    "all": 10,
    "eq": [],
    "Hurricane____Typhoon___": [],
    "Cold__FWind_Chill": [],
    "Coastal_Flood": [],
    "Avalanche": [],
    "Astronomical_Low_Tide": [],
    "Dense_Fog": [],
    "Drought": [],
    "Dust_Devil": [],
    "Dust_Storm": [],
    "Excessive_Heat": [],
    "Extreme_Cold__FWind_Chill": [],
    "Flash_Flood": [],
    "Flood": [],
    "Freezing_Fog": [],
    "Funnel_Cloud": [],
    "Hail": [],
    "Heat": [],
    "Heavy_Rain": [],
    "Heavy_Snow": [],
    "High_Surf": [],
    "High_Wind": [],
    "Ice_Storm": [],
    "Lakeshore_Flood": [],
    "Landslide": [],
    "Lightning": [
      {
        "type": "Lightning",
        "time": "1600",
        "inj": "0",
        "deaths": "0",
        "prop_dmg": "2.00k",
        "crop_dmg": "0",
        "begin": "06/20/2004",
        "county": "DAGGETT CO.",
        "state": "UT"
      },
      {
        "type": "Lightning",
        "time": "1600",
        "inj": "0",
        "deaths": "0",
        "prop_dmg": "500",
        "crop_dmg": "0",
        "begin": "05/06/2005",
        "county": "DAGGETT CO.",
        "state": "UT"
      },
      {
        "type": "Lightning",
        "time": "1600",
        "inj": "0",
        "deaths": "0",
        "prop_dmg": "500",
        "crop_dmg": "0",
        "begin": "05/17/2005",
        "county": "DAGGETT CO.",
        "state": "UT"
      },
      {
        "type": "Lightning",
        "time": "1600",
        "inj": "0",
        "deaths": "0",
        "prop_dmg": "500",
        "crop_dmg": "0",
        "begin": "05/30/2005",
        "county": "DAGGETT CO.",
        "state": "UT"
      },
      {
        "type": "Lightning",
        "time": "1400",
        "inj": "0",
        "deaths": "0",
        "prop_dmg": "500",
        "crop_dmg": "0",
        "begin": "06/23/2005",
        "county": "DAGGETT CO.",
        "state": "UT"
      },
      {
        "type": "Lightning",
        "time": "2000",
        "inj": "0",
        "deaths": "0",
        "prop_dmg": "500",
        "crop_dmg": "0",
        "begin": "06/06/2007",
        "county": "DAGGETT CO.",
        "state": "UT"
      },
      {
        "type": "Lightning",
        "time": "1600",
        "inj": "0",
        "deaths": "0",
        "prop_dmg": "500",
        "crop_dmg": "0",
        "begin": "07/21/2007",
        "county": "DAGGETT CO.",
        "state": "UT"
      },
      {
        "type": "Lightning",
        "time": "2230",
        "inj": "0",
        "deaths": "0",
        "prop_dmg": "1.00k",
        "crop_dmg": "0",
        "begin": "06/03/2008",
        "county": "DAGGETT CO.",
        "state": "UT"
      },
      {
        "type": "Lightning",
        "time": "2130",
        "inj": "0",
        "deaths": "0",
        "prop_dmg": "500",
        "crop_dmg": "0",
        "begin": "05/30/2009",
        "county": "DAGGETT CO.",
        "state": "UT"
      }
    ],
    "Rip_Current": [],
    "Seiche": [],
    "Sleet": [],
    "Storm_Surge__FTide": [],
    "Strong_Wind": [],
    "Thunderstorm_Wind": [],
    "Tornado": [],
    "Tropical_Depression": [],
    "Tropical_Storm": [],
    "Tsunami": [],
    "Volcanic_Ashfall": [],
    "Waterspout": [],
    "Wildfire": [
      {
        "type": "Wildfire",
        "time": "1200",
        "inj": "0",
        "deaths": "0",
        "prop_dmg": "50.0k",
        "crop_dmg": "0",
        "begin": "07/01/2002",
        "county": "DAGGETT CO.",
        "state": "UT"
      }
    ],
    "Winter_Storm": [],
    "Winter_Weather": []
  },
  "011": {
    "name": "Davis County",
    "fips": "UT",
    "pop10": "306479",
    "lat": 41.037045,
    "lon": -112.202123,
    "geoid": "49011",
    "deaths": 0,
    "prop_dmg": "267k",
    "crop_dmg": "4.80k",
    "inj": 0,
    "all": 6,
    "eq": [],
    "Hurricane____Typhoon___": [],
    "Cold__FWind_Chill": [],
    "Coastal_Flood": [],
    "Avalanche": [],
    "Astronomical_Low_Tide": [],
    "Dense_Fog": [],
    "Drought": [],
    "Dust_Devil": [],
    "Dust_Storm": [],
    "Excessive_Heat": [],
    "Extreme_Cold__FWind_Chill": [],
    "Flash_Flood": [
      {
        "type": "Flash+Flood",
        "time": "2000",
        "inj": "0",
        "deaths": "0",
        "prop_dmg": "25.0k",
        "crop_dmg": "0",
        "begin": "06/18/2004",
        "county": "DAVIS CO.",
        "state": "UT"
      }
    ],
    "Flood": [],
    "Freezing_Fog": [],
    "Funnel_Cloud": [],
    "Hail": [],
    "Heat": [],
    "Heavy_Rain": [
      {
        "type": "Heavy+Rain",
        "time": "500",
        "inj": "0",
        "deaths": "0",
        "prop_dmg": "40.0k",
        "crop_dmg": "4.00k",
        "begin": "06/04/1998",
        "county": "DAVIS CO.",
        "state": "UT"
      },
      {
        "type": "Heavy+Rain",
        "time": "1900",
        "inj": "0",
        "deaths": "0",
        "prop_dmg": "2.00k",
        "crop_dmg": "800",
        "begin": "06/09/1998",
        "county": "DAVIS CO.",
        "state": "UT"
      }
    ],
    "Heavy_Snow": [],
    "High_Surf": [],
    "High_Wind": [],
    "Ice_Storm": [],
    "Lakeshore_Flood": [],
    "Landslide": [],
    "Lightning": [
      {
        "type": "Lightning",
        "time": "1800",
        "inj": "0",
        "deaths": "0",
        "prop_dmg": "50.0k",
        "crop_dmg": "0",
        "begin": "05/20/1997",
        "county": "DAVIS CO.",
        "state": "UT"
      },
      {
        "type": "Lightning",
        "time": "2321",
        "inj": "0",
        "deaths": "0",
        "prop_dmg": "50.0k",
        "crop_dmg": "0",
        "begin": "04/26/1999",
        "county": "DAVIS CO.",
        "state": "UT"
      },
      {
        "type": "Lightning",
        "time": "30",
        "inj": "0",
        "deaths": "0",
        "prop_dmg": "100k",
        "crop_dmg": "0",
        "begin": "07/10/2000",
        "county": "DAVIS CO.",
        "state": "UT"
      }
    ],
    "Rip_Current": [],
    "Seiche": [],
    "Sleet": [],
    "Storm_Surge__FTide": [],
    "Strong_Wind": [],
    "Thunderstorm_Wind": [],
    "Tornado": [],
    "Tropical_Depression": [],
    "Tropical_Storm": [],
    "Tsunami": [],
    "Volcanic_Ashfall": [],
    "Waterspout": [],
    "Wildfire": [],
    "Winter_Storm": [],
    "Winter_Weather": []
  },
  "013": {
    "name": "Duchesne County",
    "fips": "UT",
    "pop10": "18607",
    "lat": 40.289649,
    "lon": -110.42983,
    "geoid": "49013",
    "deaths": 12,
    "prop_dmg": "495k",
    "crop_dmg": 0,
    "inj": 8,
    "all": 18,
    "eq": [],
    "Hurricane____Typhoon___": [],
    "Cold__FWind_Chill": [],
    "Coastal_Flood": [],
    "Avalanche": [
      {
        "type": "Avalanche",
        "time": "1300",
        "inj": "0",
        "deaths": "2",
        "prop_dmg": "0",
        "crop_dmg": "0",
        "begin": "03/10/2001",
        "county": "WESTERN UNITA MOUNTAINS ",
        "state": "UT"
      },
      {
        "type": "Avalanche",
        "time": "1400",
        "inj": "0",
        "deaths": "1",
        "prop_dmg": "0",
        "crop_dmg": "0",
        "begin": "01/31/2002",
        "county": "C E SUMMIT/X NE WASATCH/N DUCHESNE ",
        "state": "UT"
      },
      {
        "type": "Avalanche",
        "time": "1430",
        "inj": "0",
        "deaths": "1",
        "prop_dmg": "0",
        "crop_dmg": "0",
        "begin": "11/26/2010",
        "county": "WESTERN UINTA MOUNTAINS ",
        "state": "UT"
      },
      {
        "type": "Avalanche",
        "time": "1530",
        "inj": "1",
        "deaths": "2",
        "prop_dmg": "0",
        "crop_dmg": "0",
        "begin": "01/18/2013",
        "county": "WESTERN UNITA MOUNTAINS ",
        "state": "UT"
      },
      {
        "type": "Avalanche",
        "time": "1700",
        "inj": "0",
        "deaths": "1",
        "prop_dmg": "0",
        "crop_dmg": "0",
        "begin": "03/07/2014",
        "county": "WESTERN UNITA MOUNTAINS ",
        "state": "UT"
      }
    ],
    "Astronomical_Low_Tide": [],
    "Dense_Fog": [],
    "Drought": [],
    "Dust_Devil": [],
    "Dust_Storm": [],
    "Excessive_Heat": [],
    "Extreme_Cold__FWind_Chill": [],
    "Flash_Flood": [],
    "Flood": [
      {
        "type": "Flood",
        "time": "100",
        "inj": "0",
        "deaths": "0",
        "prop_dmg": "50.0k",
        "crop_dmg": "0",
        "begin": "06/24/2011",
        "county": "DUCHESNE CO.",
        "state": "UT"
      },
      {
        "type": "Flood",
        "time": "0",
        "inj": "0",
        "deaths": "0",
        "prop_dmg": "50.0k",
        "crop_dmg": "0",
        "begin": "07/01/2011",
        "county": "DUCHESNE CO.",
        "state": "UT"
      }
    ],
    "Freezing_Fog": [],
    "Funnel_Cloud": [],
    "Hail": [],
    "Heat": [],
    "Heavy_Rain": [],
    "Heavy_Snow": [
      {
        "type": "Heavy+Snow",
        "time": "100",
        "inj": "0",
        "deaths": "0",
        "prop_dmg": "5.00k",
        "crop_dmg": "0",
        "begin": "11/11/1997",
        "county": "WESTERN UNITA MOUNTAINS ",
        "state": "UT"
      }
    ],
    "High_Surf": [],
    "High_Wind": [],
    "Ice_Storm": [],
    "Lakeshore_Flood": [],
    "Landslide": [],
    "Lightning": [
      {
        "type": "Lightning",
        "time": "1400",
        "inj": "2",
        "deaths": "1",
        "prop_dmg": "0",
        "crop_dmg": "0",
        "begin": "07/18/1997",
        "county": "DUCHESNE CO.",
        "state": "UT"
      },
      {
        "type": "Lightning",
        "time": "1500",
        "inj": "0",
        "deaths": "0",
        "prop_dmg": "200k",
        "crop_dmg": "0",
        "begin": "06/09/2000",
        "county": "DUCHESNE CO.",
        "state": "UT"
      },
      {
        "type": "Lightning",
        "time": "2200",
        "inj": "0",
        "deaths": "1",
        "prop_dmg": "0",
        "crop_dmg": "0",
        "begin": "08/02/2005",
        "county": "DUCHESNE CO.",
        "state": "UT"
      },
      {
        "type": "Lightning",
        "time": "2325",
        "inj": "0",
        "deaths": "0",
        "prop_dmg": "80.0k",
        "crop_dmg": "0",
        "begin": "07/15/2013",
        "county": "DUCHESNE CO.",
        "state": "UT"
      }
    ],
    "Rip_Current": [],
    "Seiche": [],
    "Sleet": [],
    "Storm_Surge__FTide": [],
    "Strong_Wind": [],
    "Thunderstorm_Wind": [],
    "Tornado": [
      {
        "type": "Tornado",
        "time": "1750",
        "inj": "0",
        "deaths": "0",
        "prop_dmg": "50.0k",
        "crop_dmg": "0",
        "begin": "08/11/1993",
        "county": "DUCHESNE CO.",
        "state": "UT"
      }
    ],
    "Tropical_Depression": [],
    "Tropical_Storm": [],
    "Tsunami": [],
    "Volcanic_Ashfall": [],
    "Waterspout": [],
    "Wildfire": [
      {
        "type": "Wildfire",
        "time": "900",
        "inj": "0",
        "deaths": "3",
        "prop_dmg": "0",
        "crop_dmg": "0",
        "begin": "06/29/2007",
        "county": "WESTERN UINTA MOUNTAINS ",
        "state": "UT"
      },
      {
        "type": "Wildfire",
        "time": "1420",
        "inj": "2",
        "deaths": "0",
        "prop_dmg": "0",
        "crop_dmg": "0",
        "begin": "06/27/2012",
        "county": "WESTERN UNITA MOUNTAINS ",
        "state": "UT"
      }
    ],
    "Winter_Storm": [
      {
        "type": "Winter+Storm",
        "time": "400",
        "inj": "0",
        "deaths": "0",
        "prop_dmg": "30.0k",
        "crop_dmg": "0",
        "begin": "10/23/1997",
        "county": "C E SUMMIT/X NE WASATCH/N DUCHESNE ",
        "state": "UT"
      },
      {
        "type": "Winter+Storm",
        "time": "400",
        "inj": "3",
        "deaths": "0",
        "prop_dmg": "20.0k",
        "crop_dmg": "0",
        "begin": "10/10/1997",
        "county": "C E SUMMIT/X NE WASATCH/N DUCHESNE ",
        "state": "UT"
      },
      {
        "type": "Winter+Storm",
        "time": "1200",
        "inj": "0",
        "deaths": "0",
        "prop_dmg": "10.0k",
        "crop_dmg": "0",
        "begin": "11/05/1998",
        "county": "C E SUMMIT/X NE WASATCH/N DUCHESNE ",
        "state": "UT"
      }
    ],
    "Winter_Weather": []
  },
  "015": {
    "name": "Emery County",
    "fips": "UT",
    "pop10": "10976",
    "lat": 39.009028,
    "lon": -110.721111,
    "geoid": "49015",
    "deaths": 14,
    "prop_dmg": "70.0k",
    "crop_dmg": "2.00k",
    "inj": 6,
    "all": 6,
    "eq": [
      {
        "type": "earthquake",
        "begin": "8/6/2007",
        "inj": "",
        "prop_dmg": "",
        "crop_dmg": "",
        "county": "UTAH:  HUNTINGTON",
        "state": "UT",
        "deaths": "       9"
      },
      {
        "type": "earthquake",
        "begin": "8/17/2007",
        "inj": "6",
        "prop_dmg": "",
        "crop_dmg": "",
        "county": "UTAH",
        "state": "UT",
        "deaths": "       3"
      }
    ],
    "Hurricane____Typhoon___": [],
    "Cold__FWind_Chill": [],
    "Coastal_Flood": [],
    "Avalanche": [],
    "Astronomical_Low_Tide": [],
    "Dense_Fog": [],
    "Drought": [],
    "Dust_Devil": [],
    "Dust_Storm": [],
    "Excessive_Heat": [],
    "Extreme_Cold__FWind_Chill": [],
    "Flash_Flood": [],
    "Flood": [],
    "Freezing_Fog": [],
    "Funnel_Cloud": [],
    "Hail": [],
    "Heat": [
      {
        "type": "Heat",
        "time": "1400",
        "inj": "0",
        "deaths": "1",
        "prop_dmg": "0",
        "crop_dmg": "0",
        "begin": "08/15/2013",
        "county": "SAN RAFAEL SWELL ",
        "state": "UT"
      }
    ],
    "Heavy_Rain": [
      {
        "type": "Heavy+Rain",
        "time": "1630",
        "inj": "0",
        "deaths": "0",
        "prop_dmg": "45.0k",
        "crop_dmg": "2.00k",
        "begin": "07/28/1998",
        "county": "EMERY CO.",
        "state": "UT"
      }
    ],
    "Heavy_Snow": [],
    "High_Surf": [],
    "High_Wind": [],
    "Ice_Storm": [],
    "Lakeshore_Flood": [],
    "Landslide": [],
    "Lightning": [
      {
        "type": "Lightning",
        "time": "1455",
        "inj": "0",
        "deaths": "1",
        "prop_dmg": "0",
        "crop_dmg": "0",
        "begin": "07/11/2011",
        "county": "EMERY CO.",
        "state": "UT"
      }
    ],
    "Rip_Current": [],
    "Seiche": [],
    "Sleet": [],
    "Storm_Surge__FTide": [],
    "Strong_Wind": [],
    "Thunderstorm_Wind": [],
    "Tornado": [
      {
        "type": "Tornado",
        "time": "930",
        "inj": "0",
        "deaths": "0",
        "prop_dmg": "25.0k",
        "crop_dmg": "0",
        "begin": "11/02/1967",
        "county": "EMERY CO.",
        "state": "UT"
      }
    ],
    "Tropical_Depression": [],
    "Tropical_Storm": [],
    "Tsunami": [],
    "Volcanic_Ashfall": [],
    "Waterspout": [],
    "Wildfire": [],
    "Winter_Storm": [],
    "Winter_Weather": []
  },
  "017": {
    "name": "Garfield County",
    "fips": "UT",
    "pop10": "5172",
    "lat": 37.831622,
    "lon": -111.450886,
    "geoid": "49017",
    "deaths": 2,
    "prop_dmg": "202k",
    "crop_dmg": 0,
    "inj": 5,
    "all": 6,
    "eq": [],
    "Hurricane____Typhoon___": [],
    "Cold__FWind_Chill": [],
    "Coastal_Flood": [],
    "Avalanche": [],
    "Astronomical_Low_Tide": [],
    "Dense_Fog": [],
    "Drought": [],
    "Dust_Devil": [],
    "Dust_Storm": [],
    "Excessive_Heat": [],
    "Extreme_Cold__FWind_Chill": [],
    "Flash_Flood": [],
    "Flood": [
      {
        "type": "Flood",
        "time": "1200",
        "inj": "0",
        "deaths": "0",
        "prop_dmg": "50.0k",
        "crop_dmg": "0",
        "begin": "06/17/2011",
        "county": "GARFIELD CO.",
        "state": "UT"
      }
    ],
    "Freezing_Fog": [],
    "Funnel_Cloud": [],
    "Hail": [],
    "Heat": [],
    "Heavy_Rain": [
      {
        "type": "Heavy+Rain",
        "time": "1900",
        "inj": "0",
        "deaths": "0",
        "prop_dmg": "2.00k",
        "crop_dmg": "0",
        "begin": "09/25/1997",
        "county": "GARFIELD CO.",
        "state": "UT"
      }
    ],
    "Heavy_Snow": [],
    "High_Surf": [],
    "High_Wind": [],
    "Ice_Storm": [],
    "Lakeshore_Flood": [],
    "Landslide": [],
    "Lightning": [
      {
        "type": "Lightning",
        "time": "1320",
        "inj": "1",
        "deaths": "0",
        "prop_dmg": "0",
        "crop_dmg": "0",
        "begin": "08/16/2000",
        "county": "GARFIELD CO.",
        "state": "UT"
      },
      {
        "type": "Lightning",
        "time": "1125",
        "inj": "0",
        "deaths": "1",
        "prop_dmg": "0",
        "crop_dmg": "0",
        "begin": "08/18/2011",
        "county": "GARFIELD CO.",
        "state": "UT"
      },
      {
        "type": "Lightning",
        "time": "1800",
        "inj": "0",
        "deaths": "1",
        "prop_dmg": "0",
        "crop_dmg": "0",
        "begin": "07/21/2012",
        "county": "GARFIELD CO.",
        "state": "UT"
      }
    ],
    "Rip_Current": [],
    "Seiche": [],
    "Sleet": [],
    "Storm_Surge__FTide": [],
    "Strong_Wind": [],
    "Thunderstorm_Wind": [],
    "Tornado": [],
    "Tropical_Depression": [],
    "Tropical_Storm": [],
    "Tsunami": [],
    "Volcanic_Ashfall": [],
    "Waterspout": [],
    "Wildfire": [
      {
        "type": "Wildfire",
        "time": "1400",
        "inj": "4",
        "deaths": "0",
        "prop_dmg": "150k",
        "crop_dmg": "0",
        "begin": "07/01/2012",
        "county": "SOUTHERN MOUNTAINS ",
        "state": "UT"
      }
    ],
    "Winter_Storm": [],
    "Winter_Weather": []
  },
  "019": {
    "name": "Grand County",
    "fips": "UT",
    "pop10": "9225",
    "lat": 38.974326,
    "lon": -109.57345,
    "geoid": "49019",
    "deaths": 1,
    "prop_dmg": "614k",
    "crop_dmg": 0,
    "inj": 0,
    "all": 6,
    "eq": [],
    "Hurricane____Typhoon___": [],
    "Cold__FWind_Chill": [],
    "Coastal_Flood": [],
    "Avalanche": [],
    "Astronomical_Low_Tide": [],
    "Dense_Fog": [],
    "Drought": [],
    "Dust_Devil": [],
    "Dust_Storm": [],
    "Excessive_Heat": [],
    "Extreme_Cold__FWind_Chill": [],
    "Flash_Flood": [],
    "Flood": [
      {
        "type": "Flood",
        "time": "1400",
        "inj": "0",
        "deaths": "0",
        "prop_dmg": "500k",
        "crop_dmg": "0",
        "begin": "10/06/2006",
        "county": "GRAND CO.",
        "state": "UT"
      }
    ],
    "Freezing_Fog": [],
    "Funnel_Cloud": [],
    "Hail": [],
    "Heat": [],
    "Heavy_Rain": [
      {
        "type": "Heavy+Rain",
        "time": "1745",
        "inj": "0",
        "deaths": "0",
        "prop_dmg": "10.0k",
        "crop_dmg": "0",
        "begin": "07/27/1999",
        "county": "GRAND CO.",
        "state": "UT"
      }
    ],
    "Heavy_Snow": [],
    "High_Surf": [],
    "High_Wind": [],
    "Ice_Storm": [],
    "Lakeshore_Flood": [],
    "Landslide": [],
    "Lightning": [
      {
        "type": "Lightning",
        "time": "830",
        "inj": "0",
        "deaths": "1",
        "prop_dmg": "0",
        "crop_dmg": "0",
        "begin": "05/29/1999",
        "county": "GRAND CO.",
        "state": "UT"
      },
      {
        "type": "Lightning",
        "time": "1745",
        "inj": "0",
        "deaths": "0",
        "prop_dmg": "100k",
        "crop_dmg": "0",
        "begin": "07/09/2000",
        "county": "GRAND CO.",
        "state": "UT"
      },
      {
        "type": "Lightning",
        "time": "1702",
        "inj": "0",
        "deaths": "0",
        "prop_dmg": "2.00k",
        "crop_dmg": "0",
        "begin": "07/22/2000",
        "county": "GRAND CO.",
        "state": "UT"
      },
      {
        "type": "Lightning",
        "time": "1900",
        "inj": "0",
        "deaths": "0",
        "prop_dmg": "2.00k",
        "crop_dmg": "0",
        "begin": "08/04/2010",
        "county": "GRAND CO.",
        "state": "UT"
      }
    ],
    "Rip_Current": [],
    "Seiche": [],
    "Sleet": [],
    "Storm_Surge__FTide": [],
    "Strong_Wind": [],
    "Thunderstorm_Wind": [],
    "Tornado": [],
    "Tropical_Depression": [],
    "Tropical_Storm": [],
    "Tsunami": [],
    "Volcanic_Ashfall": [],
    "Waterspout": [],
    "Wildfire": [],
    "Winter_Storm": [],
    "Winter_Weather": []
  },
  "021": {
    "name": "Iron County",
    "fips": "UT",
    "pop10": "46163",
    "lat": 37.882727,
    "lon": -113.290059,
    "geoid": "49021",
    "deaths": 0,
    "prop_dmg": "2.23M",
    "crop_dmg": "5.00k",
    "inj": 11,
    "all": 8,
    "eq": [],
    "Hurricane____Typhoon___": [],
    "Cold__FWind_Chill": [],
    "Coastal_Flood": [],
    "Avalanche": [],
    "Astronomical_Low_Tide": [],
    "Dense_Fog": [],
    "Drought": [],
    "Dust_Devil": [],
    "Dust_Storm": [],
    "Excessive_Heat": [],
    "Extreme_Cold__FWind_Chill": [],
    "Flash_Flood": [
      {
        "type": "Flash+Flood",
        "time": "1700",
        "inj": "0",
        "deaths": "0",
        "prop_dmg": "50.0k",
        "crop_dmg": "5.00k",
        "begin": "06/23/2000",
        "county": "IRON CO.",
        "state": "UT"
      }
    ],
    "Flood": [],
    "Freezing_Fog": [],
    "Funnel_Cloud": [],
    "Hail": [],
    "Heat": [],
    "Heavy_Rain": [
      {
        "type": "Heavy+Rain",
        "time": "1900",
        "inj": "0",
        "deaths": "0",
        "prop_dmg": "2.00k",
        "crop_dmg": "0",
        "begin": "09/25/1997",
        "county": "IRON CO.",
        "state": "UT"
      }
    ],
    "Heavy_Snow": [],
    "High_Surf": [],
    "High_Wind": [],
    "Ice_Storm": [],
    "Lakeshore_Flood": [],
    "Landslide": [],
    "Lightning": [],
    "Rip_Current": [],
    "Seiche": [],
    "Sleet": [],
    "Storm_Surge__FTide": [],
    "Strong_Wind": [],
    "Thunderstorm_Wind": [],
    "Tornado": [],
    "Tropical_Depression": [],
    "Tropical_Storm": [],
    "Tsunami": [],
    "Volcanic_Ashfall": [],
    "Waterspout": [],
    "Wildfire": [
      {
        "type": "Wildfire",
        "time": "1250",
        "inj": "1",
        "deaths": "0",
        "prop_dmg": "1.50M",
        "crop_dmg": "0",
        "begin": "06/27/2012",
        "county": "SOUTHWEST UTAH/CEDAR CITY/MILFORD ",
        "state": "UT"
      },
      {
        "type": "Wildfire",
        "time": "1400",
        "inj": "0",
        "deaths": "0",
        "prop_dmg": "50.0k",
        "crop_dmg": "0",
        "begin": "07/12/2012",
        "county": "SOUTHWEST UTAH ",
        "state": "UT"
      },
      {
        "type": "Wildfire",
        "time": "1500",
        "inj": "0",
        "deaths": "0",
        "prop_dmg": "15.0k",
        "crop_dmg": "0",
        "begin": "04/25/2014",
        "county": "SOUTHWEST UTAH/CEDAR CITY/MILFORD ",
        "state": "UT"
      }
    ],
    "Winter_Storm": [
      {
        "type": "Winter+Storm",
        "time": "1500",
        "inj": "0",
        "deaths": "0",
        "prop_dmg": "100k",
        "crop_dmg": "0",
        "begin": "10/15/1998",
        "county": "SOUTHWEST UTAH/CEDAR CITY/MILFORD ",
        "state": "UT"
      },
      {
        "type": "Winter+Storm",
        "time": "1200",
        "inj": "10",
        "deaths": "0",
        "prop_dmg": "500k",
        "crop_dmg": "0",
        "begin": "11/08/1998",
        "county": "BEAVER T X E/IRON T XS XE ",
        "state": "UT"
      },
      {
        "type": "Winter+Storm",
        "time": "1200",
        "inj": "0",
        "deaths": "0",
        "prop_dmg": "10.0k",
        "crop_dmg": "0",
        "begin": "11/17/1998",
        "county": "BEAVER T X E/IRON T XS XE ",
        "state": "UT"
      }
    ],
    "Winter_Weather": []
  },
  "023": {
    "name": "Juab County",
    "fips": "UT",
    "pop10": "10246",
    "lat": 39.710826,
    "lon": -112.794262,
    "geoid": "49023",
    "deaths": 4,
    "prop_dmg": "250k",
    "crop_dmg": 0,
    "inj": 6,
    "all": 6,
    "eq": [],
    "Hurricane____Typhoon___": [],
    "Cold__FWind_Chill": [],
    "Coastal_Flood": [],
    "Avalanche": [
      {
        "type": "Avalanche",
        "time": "1030",
        "inj": "2",
        "deaths": "1",
        "prop_dmg": "0",
        "crop_dmg": "0",
        "begin": "03/26/2011",
        "county": "CENTRAL MOUNTAINS ",
        "state": "UT"
      },
      {
        "type": "Avalanche",
        "time": "1700",
        "inj": "0",
        "deaths": "1",
        "prop_dmg": "0",
        "crop_dmg": "0",
        "begin": "02/05/2012",
        "county": "CENTRAL MOUNTAINS ",
        "state": "UT"
      },
      {
        "type": "Avalanche",
        "time": "1600",
        "inj": "0",
        "deaths": "1",
        "prop_dmg": "0",
        "crop_dmg": "0",
        "begin": "03/01/2013",
        "county": "CENTRAL MOUNTAINS ",
        "state": "UT"
      },
      {
        "type": "Avalanche",
        "time": "1700",
        "inj": "0",
        "deaths": "1",
        "prop_dmg": "0",
        "crop_dmg": "0",
        "begin": "02/09/2014",
        "county": "CENTRAL MOUNTAINS ",
        "state": "UT"
      }
    ],
    "Astronomical_Low_Tide": [],
    "Dense_Fog": [],
    "Drought": [],
    "Dust_Devil": [],
    "Dust_Storm": [],
    "Excessive_Heat": [],
    "Extreme_Cold__FWind_Chill": [],
    "Flash_Flood": [],
    "Flood": [],
    "Freezing_Fog": [],
    "Funnel_Cloud": [],
    "Hail": [],
    "Heat": [],
    "Heavy_Rain": [],
    "Heavy_Snow": [],
    "High_Surf": [],
    "High_Wind": [],
    "Ice_Storm": [],
    "Lakeshore_Flood": [],
    "Landslide": [],
    "Lightning": [],
    "Rip_Current": [],
    "Seiche": [],
    "Sleet": [],
    "Storm_Surge__FTide": [],
    "Strong_Wind": [],
    "Thunderstorm_Wind": [],
    "Tornado": [],
    "Tropical_Depression": [],
    "Tropical_Storm": [],
    "Tsunami": [],
    "Volcanic_Ashfall": [],
    "Waterspout": [],
    "Wildfire": [
      {
        "type": "Wildfire",
        "time": "1315",
        "inj": "2",
        "deaths": "0",
        "prop_dmg": "0",
        "crop_dmg": "0",
        "begin": "06/27/2012",
        "county": "CENTRAL MOUNTAINS ",
        "state": "UT"
      },
      {
        "type": "Wildfire",
        "time": "0",
        "inj": "2",
        "deaths": "0",
        "prop_dmg": "250k",
        "crop_dmg": "0",
        "begin": "07/01/2012",
        "county": "CENTRAL MOUNTAINS ",
        "state": "UT"
      }
    ],
    "Winter_Storm": [],
    "Winter_Weather": []
  },
  "025": {
    "name": "Kane County",
    "fips": "UT",
    "pop10": "7125",
    "lat": 37.275118,
    "lon": -111.815413,
    "geoid": "49025",
    "deaths": 5,
    "prop_dmg": "7.50k",
    "crop_dmg": 0,
    "inj": 0,
    "all": 6,
    "eq": [],
    "Hurricane____Typhoon___": [],
    "Cold__FWind_Chill": [],
    "Coastal_Flood": [],
    "Avalanche": [],
    "Astronomical_Low_Tide": [],
    "Dense_Fog": [],
    "Drought": [],
    "Dust_Devil": [],
    "Dust_Storm": [],
    "Excessive_Heat": [],
    "Extreme_Cold__FWind_Chill": [],
    "Flash_Flood": [],
    "Flood": [
      {
        "type": "Flood",
        "time": "1700",
        "inj": "0",
        "deaths": "0",
        "prop_dmg": "5.00k",
        "crop_dmg": "0",
        "begin": "09/14/1997",
        "county": "KANE CO.",
        "state": "UT"
      }
    ],
    "Freezing_Fog": [],
    "Funnel_Cloud": [],
    "Hail": [],
    "Heat": [
      {
        "type": "Heat",
        "time": "1300",
        "inj": "0",
        "deaths": "1",
        "prop_dmg": "0",
        "crop_dmg": "0",
        "begin": "07/12/2005",
        "county": "GLEN CANYON RECREATION AREA/LAKE POWELL ",
        "state": "UT"
      },
      {
        "type": "Heat",
        "time": "1200",
        "inj": "0",
        "deaths": "1",
        "prop_dmg": "0",
        "crop_dmg": "0",
        "begin": "07/21/2013",
        "county": "SOUTH CENTRAL UTAH/KANAB/ESCALANTE ",
        "state": "UT"
      },
      {
        "type": "Heat",
        "time": "1200",
        "inj": "0",
        "deaths": "3",
        "prop_dmg": "0",
        "crop_dmg": "0",
        "begin": "07/01/2013",
        "county": "SOUTH CENTRAL UTAH/KANAB/ESCALANTE ",
        "state": "UT"
      }
    ],
    "Heavy_Rain": [
      {
        "type": "Heavy+Rain",
        "time": "1900",
        "inj": "0",
        "deaths": "0",
        "prop_dmg": "2.00k",
        "crop_dmg": "0",
        "begin": "09/25/1997",
        "county": "KANE CO.",
        "state": "UT"
      },
      {
        "type": "Heavy+Rain",
        "time": "1400",
        "inj": "0",
        "deaths": "0",
        "prop_dmg": "500",
        "crop_dmg": "0",
        "begin": "07/25/1998",
        "county": "KANE CO.",
        "state": "UT"
      }
    ],
    "Heavy_Snow": [],
    "High_Surf": [],
    "High_Wind": [],
    "Ice_Storm": [],
    "Lakeshore_Flood": [],
    "Landslide": [],
    "Lightning": [],
    "Rip_Current": [],
    "Seiche": [],
    "Sleet": [],
    "Storm_Surge__FTide": [],
    "Strong_Wind": [],
    "Thunderstorm_Wind": [],
    "Tornado": [],
    "Tropical_Depression": [],
    "Tropical_Storm": [],
    "Tsunami": [],
    "Volcanic_Ashfall": [],
    "Waterspout": [],
    "Wildfire": [],
    "Winter_Storm": [],
    "Winter_Weather": []
  },
  "027": {
    "name": "Millard County",
    "fips": "UT",
    "pop10": "12503",
    "lat": 39.09454,
    "lon": -113.525014,
    "geoid": "49027",
    "deaths": 1,
    "prop_dmg": "102k",
    "crop_dmg": 0,
    "inj": 12,
    "all": 3,
    "eq": [],
    "Hurricane____Typhoon___": [],
    "Cold__FWind_Chill": [],
    "Coastal_Flood": [],
    "Avalanche": [],
    "Astronomical_Low_Tide": [],
    "Dense_Fog": [],
    "Drought": [],
    "Dust_Devil": [],
    "Dust_Storm": [],
    "Excessive_Heat": [],
    "Extreme_Cold__FWind_Chill": [],
    "Flash_Flood": [],
    "Flood": [
      {
        "type": "Flood",
        "time": "0",
        "inj": "0",
        "deaths": "0",
        "prop_dmg": "50.0k",
        "crop_dmg": "0",
        "begin": "07/05/2011",
        "county": "MILLARD CO.",
        "state": "UT"
      }
    ],
    "Freezing_Fog": [],
    "Funnel_Cloud": [],
    "Hail": [],
    "Heat": [],
    "Heavy_Rain": [],
    "Heavy_Snow": [],
    "High_Surf": [],
    "High_Wind": [],
    "Ice_Storm": [],
    "Lakeshore_Flood": [],
    "Landslide": [],
    "Lightning": [],
    "Rip_Current": [],
    "Seiche": [],
    "Sleet": [],
    "Storm_Surge__FTide": [],
    "Strong_Wind": [],
    "Thunderstorm_Wind": [],
    "Tornado": [],
    "Tropical_Depression": [],
    "Tropical_Storm": [],
    "Tsunami": [],
    "Volcanic_Ashfall": [],
    "Waterspout": [],
    "Wildfire": [],
    "Winter_Storm": [
      {
        "type": "Winter+Storm",
        "time": "900",
        "inj": "12",
        "deaths": "1",
        "prop_dmg": "50.0k",
        "crop_dmg": "0",
        "begin": "11/29/2001",
        "county": "MILLARD T X E/JUAB T X E ",
        "state": "UT"
      },
      {
        "type": "Winter+Storm",
        "time": "1200",
        "inj": "0",
        "deaths": "0",
        "prop_dmg": "2.00k",
        "crop_dmg": "0",
        "begin": "01/01/2004",
        "county": "MILLARD T X E/JUAB T X E ",
        "state": "UT"
      }
    ],
    "Winter_Weather": []
  },
  "029": {
    "name": "Morgan County",
    "fips": "UT",
    "pop10": "9469",
    "lat": 41.091027,
    "lon": -111.577885,
    "geoid": "49029",
    "deaths": 2,
    "prop_dmg": "1.05M",
    "crop_dmg": "18.0k",
    "inj": 2,
    "all": 10,
    "eq": [],
    "Hurricane____Typhoon___": [],
    "Cold__FWind_Chill": [],
    "Coastal_Flood": [],
    "Avalanche": [
      {
        "type": "Avalanche",
        "time": "1400",
        "inj": "0",
        "deaths": "2",
        "prop_dmg": "0",
        "crop_dmg": "0",
        "begin": "04/28/2001",
        "county": "P NC WEBER/P C MORGAN/P W C SUMMIT/P SC WASATCH ",
        "state": "UT"
      }
    ],
    "Astronomical_Low_Tide": [],
    "Dense_Fog": [],
    "Drought": [],
    "Dust_Devil": [],
    "Dust_Storm": [],
    "Excessive_Heat": [],
    "Extreme_Cold__FWind_Chill": [],
    "Flash_Flood": [],
    "Flood": [
      {
        "type": "Flood",
        "time": "1600",
        "inj": "0",
        "deaths": "0",
        "prop_dmg": "50.0k",
        "crop_dmg": "0",
        "begin": "01/21/2012",
        "county": "MORGAN CO.",
        "state": "UT"
      }
    ],
    "Freezing_Fog": [],
    "Funnel_Cloud": [],
    "Hail": [],
    "Heat": [],
    "Heavy_Rain": [],
    "Heavy_Snow": [
      {
        "type": "Heavy+Snow",
        "time": "2100",
        "inj": "0",
        "deaths": "0",
        "prop_dmg": "40.0k",
        "crop_dmg": "8.00k",
        "begin": "06/16/1998",
        "county": "WASATCH MOUNTAIN VALLEYS/HUNTSVILLE/PARK CITY/HEBER ",
        "state": "UT"
      }
    ],
    "High_Surf": [],
    "High_Wind": [],
    "Ice_Storm": [],
    "Lakeshore_Flood": [],
    "Landslide": [],
    "Lightning": [],
    "Rip_Current": [],
    "Seiche": [],
    "Sleet": [],
    "Storm_Surge__FTide": [],
    "Strong_Wind": [],
    "Thunderstorm_Wind": [],
    "Tornado": [],
    "Tropical_Depression": [],
    "Tropical_Storm": [],
    "Tsunami": [],
    "Volcanic_Ashfall": [],
    "Waterspout": [],
    "Wildfire": [
      {
        "type": "Wildfire",
        "time": "1230",
        "inj": "0",
        "deaths": "0",
        "prop_dmg": "700k",
        "crop_dmg": "0",
        "begin": "08/13/2013",
        "county": "WASATCH MOUNTAIN VALLEYS ",
        "state": "UT"
      }
    ],
    "Winter_Storm": [
      {
        "type": "Winter+Storm",
        "time": "1200",
        "inj": "0",
        "deaths": "0",
        "prop_dmg": "10.0k",
        "crop_dmg": "0",
        "begin": "11/05/1998",
        "county": "P NC WEBER/P C MORGAN/P W C SUMMIT/P SC WASATCH ",
        "state": "UT"
      },
      {
        "type": "Winter+Storm",
        "time": "1200",
        "inj": "0",
        "deaths": "0",
        "prop_dmg": "50.0k",
        "crop_dmg": "0",
        "begin": "11/22/2001",
        "county": "P NC WEBER/P C MORGAN/P W C SUMMIT/P SC WASATCH ",
        "state": "UT"
      },
      {
        "type": "Winter+Storm",
        "time": "1000",
        "inj": "0",
        "deaths": "0",
        "prop_dmg": "100k",
        "crop_dmg": "10.0k",
        "begin": "11/24/2001",
        "county": "P NC WEBER/P C MORGAN/P W C SUMMIT/P SC WASATCH ",
        "state": "UT"
      },
      {
        "type": "Winter+Storm",
        "time": "900",
        "inj": "0",
        "deaths": "0",
        "prop_dmg": "30.0k",
        "crop_dmg": "0",
        "begin": "11/29/2001",
        "county": "P NC WEBER/P C MORGAN/P W C SUMMIT/P SC WASATCH ",
        "state": "UT"
      },
      {
        "type": "Winter+Storm",
        "time": "1000",
        "inj": "2",
        "deaths": "0",
        "prop_dmg": "20.0k",
        "crop_dmg": "0",
        "begin": "01/27/2002",
        "county": "WASATCH MOUNTAIN VALLEYS/HUNTSVILLE/PARK CITY/HEBER ",
        "state": "UT"
      },
      {
        "type": "Winter+Storm",
        "time": "0",
        "inj": "0",
        "deaths": "0",
        "prop_dmg": "50.0k",
        "crop_dmg": "0",
        "begin": "10/23/2012",
        "county": "WASATCH MOUNTAIN VALLEYS ",
        "state": "UT"
      }
    ],
    "Winter_Weather": []
  },
  "031": {
    "name": "Piute County",
    "fips": "UT",
    "pop10": "1556",
    "lat": 38.335881,
    "lon": -112.129375,
    "geoid": "49031",
    "deaths": 0,
    "prop_dmg": 0,
    "crop_dmg": 0,
    "inj": 0,
    "all": 0,
    "eq": [],
    "Hurricane____Typhoon___": [],
    "Cold__FWind_Chill": [],
    "Coastal_Flood": [],
    "Avalanche": [],
    "Astronomical_Low_Tide": [],
    "Dense_Fog": [],
    "Drought": [],
    "Dust_Devil": [],
    "Dust_Storm": [],
    "Excessive_Heat": [],
    "Extreme_Cold__FWind_Chill": [],
    "Flash_Flood": [],
    "Flood": [],
    "Freezing_Fog": [],
    "Funnel_Cloud": [],
    "Hail": [],
    "Heat": [],
    "Heavy_Rain": [],
    "Heavy_Snow": [],
    "High_Surf": [],
    "High_Wind": [],
    "Ice_Storm": [],
    "Lakeshore_Flood": [],
    "Landslide": [],
    "Lightning": [],
    "Rip_Current": [],
    "Seiche": [],
    "Sleet": [],
    "Storm_Surge__FTide": [],
    "Strong_Wind": [],
    "Thunderstorm_Wind": [],
    "Tornado": [],
    "Tropical_Depression": [],
    "Tropical_Storm": [],
    "Tsunami": [],
    "Volcanic_Ashfall": [],
    "Waterspout": [],
    "Wildfire": [],
    "Winter_Storm": [],
    "Winter_Weather": []
  },
  "033": {
    "name": "Rich County",
    "fips": "UT",
    "pop10": "2264",
    "lat": 41.627598,
    "lon": -111.240227,
    "geoid": "49033",
    "deaths": 5,
    "prop_dmg": "485k",
    "crop_dmg": "10.0k",
    "inj": 13,
    "all": 16,
    "eq": [],
    "Hurricane____Typhoon___": [],
    "Cold__FWind_Chill": [],
    "Coastal_Flood": [],
    "Avalanche": [
      {
        "type": "Avalanche",
        "time": "1430",
        "inj": "1",
        "deaths": "0",
        "prop_dmg": "0",
        "crop_dmg": "0",
        "begin": "05/05/1999",
        "county": "RICH/CACHE T NW/P E C WEBER/MOST OF MORGAN/NW SUMMIT/NE SALT LAKE/X NE BOX ELDER ",
        "state": "UT"
      },
      {
        "type": "Avalanche",
        "time": "1150",
        "inj": "2",
        "deaths": "0",
        "prop_dmg": "0",
        "crop_dmg": "0",
        "begin": "02/25/2000",
        "county": "RICH/CACHE T NW/P E C WEBER/MOST OF MORGAN/NW SUMMIT/NE SALT LAKE/X NE BOX ELDER ",
        "state": "UT"
      },
      {
        "type": "Avalanche",
        "time": "1200",
        "inj": "1",
        "deaths": "0",
        "prop_dmg": "0",
        "crop_dmg": "0",
        "begin": "02/27/2000",
        "county": "RICH/CACHE T NW/P E C WEBER/MOST OF MORGAN/NW SUMMIT/NE SALT LAKE/X NE BOX ELDER ",
        "state": "UT"
      },
      {
        "type": "Avalanche",
        "time": "1500",
        "inj": "0",
        "deaths": "1",
        "prop_dmg": "0",
        "crop_dmg": "0",
        "begin": "03/11/2006",
        "county": "RICH/CACHE T NW/P E C WEBER/MOST OF MORGAN/NW SUMMIT/NE SALT LAKE/X NE BOX ELDER ",
        "state": "UT"
      },
      {
        "type": "Avalanche",
        "time": "1500",
        "inj": "0",
        "deaths": "1",
        "prop_dmg": "0",
        "crop_dmg": "0",
        "begin": "02/18/2007",
        "county": "WASATCH MOUNTAINS I80 NORTH ",
        "state": "UT"
      },
      {
        "type": "Avalanche",
        "time": "1300",
        "inj": "0",
        "deaths": "1",
        "prop_dmg": "0",
        "crop_dmg": "0",
        "begin": "01/24/2010",
        "county": "WASATCH MOUNTAINS I-80 NORTH ",
        "state": "UT"
      },
      {
        "type": "Avalanche",
        "time": "1400",
        "inj": "0",
        "deaths": "1",
        "prop_dmg": "0",
        "crop_dmg": "0",
        "begin": "01/29/2010",
        "county": "WASATCH MOUNTAINS I-80 NORTH ",
        "state": "UT"
      },
      {
        "type": "Avalanche",
        "time": "1350",
        "inj": "0",
        "deaths": "1",
        "prop_dmg": "0",
        "crop_dmg": "0",
        "begin": "04/04/2010",
        "county": "WASATCH MOUNTAINS I-80 NORTH ",
        "state": "UT"
      }
    ],
    "Astronomical_Low_Tide": [],
    "Dense_Fog": [],
    "Drought": [],
    "Dust_Devil": [],
    "Dust_Storm": [],
    "Excessive_Heat": [],
    "Extreme_Cold__FWind_Chill": [],
    "Flash_Flood": [],
    "Flood": [],
    "Freezing_Fog": [],
    "Funnel_Cloud": [],
    "Hail": [],
    "Heat": [],
    "Heavy_Rain": [],
    "Heavy_Snow": [
      {
        "type": "Heavy+Snow",
        "time": "1800",
        "inj": "0",
        "deaths": "0",
        "prop_dmg": "20.0k",
        "crop_dmg": "0",
        "begin": "01/02/1997",
        "county": "WASATCH MOUNTAINS I80 NORTH ",
        "state": "UT"
      },
      {
        "type": "Heavy+Snow",
        "time": "700",
        "inj": "0",
        "deaths": "0",
        "prop_dmg": "10.0k",
        "crop_dmg": "0",
        "begin": "01/15/2002",
        "county": "WASATCH MOUNTAINS I80 NORTH ",
        "state": "UT"
      },
      {
        "type": "Heavy+Snow",
        "time": "500",
        "inj": "9",
        "deaths": "0",
        "prop_dmg": "250k",
        "crop_dmg": "0",
        "begin": "11/27/2004",
        "county": "RICH/CACHE T NW/P E C WEBER/MOST OF MORGAN/NW SUMMIT/NE SALT LAKE/X NE BOX ELDER ",
        "state": "UT"
      }
    ],
    "High_Surf": [],
    "High_Wind": [],
    "Ice_Storm": [],
    "Lakeshore_Flood": [],
    "Landslide": [],
    "Lightning": [],
    "Rip_Current": [],
    "Seiche": [],
    "Sleet": [],
    "Storm_Surge__FTide": [],
    "Strong_Wind": [],
    "Thunderstorm_Wind": [],
    "Tornado": [],
    "Tropical_Depression": [],
    "Tropical_Storm": [],
    "Tsunami": [],
    "Volcanic_Ashfall": [],
    "Waterspout": [],
    "Wildfire": [],
    "Winter_Storm": [
      {
        "type": "Winter+Storm",
        "time": "300",
        "inj": "0",
        "deaths": "0",
        "prop_dmg": "20.0k",
        "crop_dmg": "0",
        "begin": "11/26/1997",
        "county": "RICH/CACHE T NW/P E C WEBER/MOST OF MORGAN/NW SUMMIT/NE SALT LAKE/X NE BOX ELDER ",
        "state": "UT"
      },
      {
        "type": "Winter+Storm",
        "time": "1200",
        "inj": "0",
        "deaths": "0",
        "prop_dmg": "10.0k",
        "crop_dmg": "0",
        "begin": "11/05/1998",
        "county": "RICH/CACHE T NW/P E C WEBER/MOST OF MORGAN/NW SUMMIT/NE SALT LAKE/X NE BOX ELDER ",
        "state": "UT"
      },
      {
        "type": "Winter+Storm",
        "time": "1200",
        "inj": "0",
        "deaths": "0",
        "prop_dmg": "50.0k",
        "crop_dmg": "0",
        "begin": "11/22/2001",
        "county": "RICH/CACHE T NW/P E C WEBER/MOST OF MORGAN/NW SUMMIT/NE SALT LAKE/X NE BOX ELDER ",
        "state": "UT"
      },
      {
        "type": "Winter+Storm",
        "time": "1000",
        "inj": "0",
        "deaths": "0",
        "prop_dmg": "100k",
        "crop_dmg": "10.0k",
        "begin": "11/24/2001",
        "county": "RICH/CACHE T NW/P E C WEBER/MOST OF MORGAN/NW SUMMIT/NE SALT LAKE/X NE BOX ELDER ",
        "state": "UT"
      },
      {
        "type": "Winter+Storm",
        "time": "900",
        "inj": "0",
        "deaths": "0",
        "prop_dmg": "25.0k",
        "crop_dmg": "0",
        "begin": "11/29/2001",
        "county": "RICH/CACHE T NW/P E C WEBER/MOST OF MORGAN/NW SUMMIT/NE SALT LAKE/X NE BOX ELDER ",
        "state": "UT"
      }
    ],
    "Winter_Weather": []
  },
  "035": {
    "name": "Salt Lake County",
    "fips": "UT",
    "pop10": "1029655",
    "lat": 40.667882,
    "lon": -111.924244,
    "geoid": "49035",
    "deaths": 5,
    "prop_dmg": "174M",
    "crop_dmg": "512k",
    "inj": 89,
    "all": 18,
    "eq": [],
    "Hurricane____Typhoon___": [],
    "Cold__FWind_Chill": [],
    "Coastal_Flood": [],
    "Avalanche": [],
    "Astronomical_Low_Tide": [],
    "Dense_Fog": [],
    "Drought": [],
    "Dust_Devil": [],
    "Dust_Storm": [],
    "Excessive_Heat": [],
    "Extreme_Cold__FWind_Chill": [],
    "Flash_Flood": [
      {
        "type": "Flash+Flood",
        "time": "2120",
        "inj": "0",
        "deaths": "0",
        "prop_dmg": "35.0k",
        "crop_dmg": "0",
        "begin": "06/08/2006",
        "county": "SALT LAKE CO.",
        "state": "UT"
      }
    ],
    "Flood": [
      {
        "type": "Flood",
        "time": "1630",
        "inj": "0",
        "deaths": "0",
        "prop_dmg": "10.0k",
        "crop_dmg": "0",
        "begin": "06/10/1997",
        "county": "SALT LAKE CO.",
        "state": "UT"
      },
      {
        "type": "Flood",
        "time": "1800",
        "inj": "0",
        "deaths": "0",
        "prop_dmg": "1.50M",
        "crop_dmg": "0",
        "begin": "06/05/2010",
        "county": "SALT LAKE CO.",
        "state": "UT"
      },
      {
        "type": "Flood",
        "time": "1900",
        "inj": "0",
        "deaths": "0",
        "prop_dmg": "200k",
        "crop_dmg": "0",
        "begin": "06/23/2011",
        "county": "SALT LAKE CO.",
        "state": "UT"
      }
    ],
    "Freezing_Fog": [],
    "Funnel_Cloud": [],
    "Hail": [],
    "Heat": [],
    "Heavy_Rain": [
      {
        "type": "Heavy+Rain",
        "time": "1800",
        "inj": "0",
        "deaths": "0",
        "prop_dmg": "30.0k",
        "crop_dmg": "0",
        "begin": "06/10/1997",
        "county": "SALT LAKE CO.",
        "state": "UT"
      },
      {
        "type": "Heavy+Rain",
        "time": "1900",
        "inj": "0",
        "deaths": "0",
        "prop_dmg": "1.50M",
        "crop_dmg": "10.0k",
        "begin": "06/09/1998",
        "county": "SALT LAKE CO.",
        "state": "UT"
      },
      {
        "type": "Heavy+Rain",
        "time": "500",
        "inj": "0",
        "deaths": "0",
        "prop_dmg": "17.0k",
        "crop_dmg": "2.00k",
        "begin": "06/13/1998",
        "county": "SALT LAKE CO.",
        "state": "UT"
      }
    ],
    "Heavy_Snow": [],
    "High_Surf": [],
    "High_Wind": [],
    "Ice_Storm": [],
    "Lakeshore_Flood": [],
    "Landslide": [],
    "Lightning": [
      {
        "type": "Lightning",
        "time": "410",
        "inj": "0",
        "deaths": "0",
        "prop_dmg": "300k",
        "crop_dmg": "0",
        "begin": "08/13/1997",
        "county": "SALT LAKE CO.",
        "state": "UT"
      },
      {
        "type": "Lightning",
        "time": "1430",
        "inj": "2",
        "deaths": "1",
        "prop_dmg": "0",
        "crop_dmg": "0",
        "begin": "07/10/1998",
        "county": "SALT LAKE CO.",
        "state": "UT"
      },
      {
        "type": "Lightning",
        "time": "1500",
        "inj": "0",
        "deaths": "0",
        "prop_dmg": "5.00k",
        "crop_dmg": "0",
        "begin": "05/02/1999",
        "county": "SALT LAKE CO.",
        "state": "UT"
      },
      {
        "type": "Lightning",
        "time": "1400",
        "inj": "6",
        "deaths": "1",
        "prop_dmg": "0",
        "crop_dmg": "0",
        "begin": "05/24/2000",
        "county": "SALT LAKE CO.",
        "state": "UT"
      },
      {
        "type": "Lightning",
        "time": "1405",
        "inj": "1",
        "deaths": "0",
        "prop_dmg": "0",
        "crop_dmg": "0",
        "begin": "05/24/2000",
        "county": "SALT LAKE CO.",
        "state": "UT"
      },
      {
        "type": "Lightning",
        "time": "1800",
        "inj": "0",
        "deaths": "2",
        "prop_dmg": "0",
        "crop_dmg": "0",
        "begin": "07/25/2002",
        "county": "SALT LAKE CO.",
        "state": "UT"
      },
      {
        "type": "Lightning",
        "time": "1740",
        "inj": "0",
        "deaths": "0",
        "prop_dmg": "200",
        "crop_dmg": "0",
        "begin": "05/07/2013",
        "county": "SALT LAKE CO.",
        "state": "UT"
      },
      {
        "type": "Lightning",
        "time": "1900",
        "inj": "0",
        "deaths": "0",
        "prop_dmg": "5.00k",
        "crop_dmg": "0",
        "begin": "05/07/2013",
        "county": "SALT LAKE CO.",
        "state": "UT"
      },
      {
        "type": "Lightning",
        "time": "2130",
        "inj": "0",
        "deaths": "0",
        "prop_dmg": "5.00k",
        "crop_dmg": "0",
        "begin": "07/15/2013",
        "county": "SALT LAKE CO.",
        "state": "UT"
      }
    ],
    "Rip_Current": [],
    "Seiche": [],
    "Sleet": [],
    "Storm_Surge__FTide": [],
    "Strong_Wind": [],
    "Thunderstorm_Wind": [],
    "Tornado": [
      {
        "type": "Tornado",
        "time": "210",
        "inj": "0",
        "deaths": "0",
        "prop_dmg": "25.0k",
        "crop_dmg": "0",
        "begin": "02/09/1965",
        "county": "SALT LAKE CO.",
        "state": "UT"
      },
      {
        "type": "Tornado",
        "time": "1141",
        "inj": "80",
        "deaths": "1",
        "prop_dmg": "170M",
        "crop_dmg": "500k",
        "begin": "08/11/1999",
        "county": "SALT LAKE CO.",
        "state": "UT"
      }
    ],
    "Tropical_Depression": [],
    "Tropical_Storm": [],
    "Tsunami": [],
    "Volcanic_Ashfall": [],
    "Waterspout": [],
    "Wildfire": [],
    "Winter_Storm": [],
    "Winter_Weather": []
  },
  "037": {
    "name": "San Juan County",
    "fips": "UT",
    "pop10": "14746",
    "lat": 37.623064,
    "lon": -109.78932,
    "geoid": "49037",
    "deaths": 1,
    "prop_dmg": "113k",
    "crop_dmg": "10.0k",
    "inj": 0,
    "all": 6,
    "eq": [],
    "Hurricane____Typhoon___": [],
    "Cold__FWind_Chill": [],
    "Coastal_Flood": [],
    "Avalanche": [
      {
        "type": "Avalanche",
        "time": "1030",
        "inj": "0",
        "deaths": "1",
        "prop_dmg": "0",
        "crop_dmg": "0",
        "begin": "03/03/2012",
        "county": "LA SAL & ABAJO MOUNTAINS ",
        "state": "UT"
      }
    ],
    "Astronomical_Low_Tide": [],
    "Dense_Fog": [],
    "Drought": [],
    "Dust_Devil": [],
    "Dust_Storm": [],
    "Excessive_Heat": [],
    "Extreme_Cold__FWind_Chill": [],
    "Flash_Flood": [],
    "Flood": [
      {
        "type": "Flood",
        "time": "1540",
        "inj": "0",
        "deaths": "0",
        "prop_dmg": "2.00k",
        "crop_dmg": "0",
        "begin": "09/07/2002",
        "county": "SAN JUAN CO.",
        "state": "UT"
      },
      {
        "type": "Flood",
        "time": "1640",
        "inj": "0",
        "deaths": "0",
        "prop_dmg": "0",
        "crop_dmg": "10.0k",
        "begin": "09/07/2002",
        "county": "SAN JUAN CO.",
        "state": "UT"
      },
      {
        "type": "Flood",
        "time": "1130",
        "inj": "0",
        "deaths": "0",
        "prop_dmg": "10.0k",
        "crop_dmg": "0",
        "begin": "10/06/2006",
        "county": "SAN JUAN CO.",
        "state": "UT"
      }
    ],
    "Freezing_Fog": [],
    "Funnel_Cloud": [],
    "Hail": [],
    "Heat": [],
    "Heavy_Rain": [],
    "Heavy_Snow": [],
    "High_Surf": [],
    "High_Wind": [],
    "Ice_Storm": [],
    "Lakeshore_Flood": [],
    "Landslide": [],
    "Lightning": [
      {
        "type": "Lightning",
        "time": "1945",
        "inj": "0",
        "deaths": "0",
        "prop_dmg": "1.00k",
        "crop_dmg": "0",
        "begin": "07/19/2003",
        "county": "SAN JUAN CO.",
        "state": "UT"
      },
      {
        "type": "Lightning",
        "time": "1445",
        "inj": "0",
        "deaths": "0",
        "prop_dmg": "100k",
        "crop_dmg": "0",
        "begin": "06/26/2009",
        "county": "SAN JUAN CO.",
        "state": "UT"
      }
    ],
    "Rip_Current": [],
    "Seiche": [],
    "Sleet": [],
    "Storm_Surge__FTide": [],
    "Strong_Wind": [],
    "Thunderstorm_Wind": [],
    "Tornado": [],
    "Tropical_Depression": [],
    "Tropical_Storm": [],
    "Tsunami": [],
    "Volcanic_Ashfall": [],
    "Waterspout": [],
    "Wildfire": [],
    "Winter_Storm": [],
    "Winter_Weather": []
  },
  "039": {
    "name": "Sanpete County",
    "fips": "UT",
    "pop10": "27822",
    "lat": 39.380588,
    "lon": -111.570451,
    "geoid": "49039",
    "deaths": 2,
    "prop_dmg": "2.14M",
    "crop_dmg": "100k",
    "inj": 1,
    "all": 6,
    "eq": [],
    "Hurricane____Typhoon___": [],
    "Cold__FWind_Chill": [],
    "Coastal_Flood": [],
    "Avalanche": [
      {
        "type": "Avalanche",
        "time": "1200",
        "inj": "0",
        "deaths": "2",
        "prop_dmg": "0",
        "crop_dmg": "0",
        "begin": "01/02/1999",
        "county": "SANPETE/SEVIER VALLEYS ",
        "state": "UT"
      }
    ],
    "Astronomical_Low_Tide": [],
    "Dense_Fog": [],
    "Drought": [],
    "Dust_Devil": [],
    "Dust_Storm": [],
    "Excessive_Heat": [],
    "Extreme_Cold__FWind_Chill": [],
    "Flash_Flood": [
      {
        "type": "Flash+Flood",
        "time": "1600",
        "inj": "0",
        "deaths": "0",
        "prop_dmg": "20.0k",
        "crop_dmg": "0",
        "begin": "07/15/2012",
        "county": "SANPETE CO.",
        "state": "UT"
      }
    ],
    "Flood": [
      {
        "type": "Flood",
        "time": "1800",
        "inj": "0",
        "deaths": "0",
        "prop_dmg": "20.0k",
        "crop_dmg": "0",
        "begin": "06/10/1997",
        "county": "SANPETE CO.",
        "state": "UT"
      },
      {
        "type": "Flood",
        "time": "0",
        "inj": "0",
        "deaths": "0",
        "prop_dmg": "100k",
        "crop_dmg": "0",
        "begin": "06/01/2011",
        "county": "SANPETE CO.",
        "state": "UT"
      }
    ],
    "Freezing_Fog": [],
    "Funnel_Cloud": [],
    "Hail": [],
    "Heat": [],
    "Heavy_Rain": [],
    "Heavy_Snow": [],
    "High_Surf": [],
    "High_Wind": [],
    "Ice_Storm": [],
    "Lakeshore_Flood": [],
    "Landslide": [],
    "Lightning": [
      {
        "type": "Lightning",
        "time": "1700",
        "inj": "1",
        "deaths": "0",
        "prop_dmg": "0",
        "crop_dmg": "0",
        "begin": "06/26/2001",
        "county": "SANPETE CO.",
        "state": "UT"
      }
    ],
    "Rip_Current": [],
    "Seiche": [],
    "Sleet": [],
    "Storm_Surge__FTide": [],
    "Strong_Wind": [],
    "Thunderstorm_Wind": [],
    "Tornado": [
      {
        "type": "Tornado",
        "time": "1250",
        "inj": "0",
        "deaths": "0",
        "prop_dmg": "2.00M",
        "crop_dmg": "100k",
        "begin": "09/08/2002",
        "county": "SANPETE CO.",
        "state": "UT"
      }
    ],
    "Tropical_Depression": [],
    "Tropical_Storm": [],
    "Tsunami": [],
    "Volcanic_Ashfall": [],
    "Waterspout": [],
    "Wildfire": [],
    "Winter_Storm": [],
    "Winter_Weather": []
  },
  "041": {
    "name": "Sevier County",
    "fips": "UT",
    "pop10": "20802",
    "lat": 38.746824,
    "lon": -111.81193,
    "geoid": "49041",
    "deaths": 1,
    "prop_dmg": "170k",
    "crop_dmg": "40.0k",
    "inj": 2,
    "all": 4,
    "eq": [],
    "Hurricane____Typhoon___": [],
    "Cold__FWind_Chill": [],
    "Coastal_Flood": [],
    "Avalanche": [],
    "Astronomical_Low_Tide": [],
    "Dense_Fog": [],
    "Drought": [],
    "Dust_Devil": [],
    "Dust_Storm": [],
    "Excessive_Heat": [],
    "Extreme_Cold__FWind_Chill": [],
    "Flash_Flood": [],
    "Flood": [
      {
        "type": "Flood",
        "time": "0",
        "inj": "0",
        "deaths": "0",
        "prop_dmg": "150k",
        "crop_dmg": "0",
        "begin": "06/01/2011",
        "county": "SEVIER CO.",
        "state": "UT"
      }
    ],
    "Freezing_Fog": [],
    "Funnel_Cloud": [],
    "Hail": [],
    "Heat": [],
    "Heavy_Rain": [],
    "Heavy_Snow": [],
    "High_Surf": [],
    "High_Wind": [],
    "Ice_Storm": [],
    "Lakeshore_Flood": [],
    "Landslide": [],
    "Lightning": [
      {
        "type": "Lightning",
        "time": "1500",
        "inj": "1",
        "deaths": "0",
        "prop_dmg": "0",
        "crop_dmg": "0",
        "begin": "06/21/2005",
        "county": "SEVIER CO.",
        "state": "UT"
      },
      {
        "type": "Lightning",
        "time": "1308",
        "inj": "1",
        "deaths": "0",
        "prop_dmg": "0",
        "crop_dmg": "0",
        "begin": "07/06/2008",
        "county": "SEVIER CO.",
        "state": "UT"
      }
    ],
    "Rip_Current": [],
    "Seiche": [],
    "Sleet": [],
    "Storm_Surge__FTide": [],
    "Strong_Wind": [],
    "Thunderstorm_Wind": [],
    "Tornado": [],
    "Tropical_Depression": [],
    "Tropical_Storm": [],
    "Tsunami": [],
    "Volcanic_Ashfall": [],
    "Waterspout": [],
    "Wildfire": [
      {
        "type": "Wildfire",
        "time": "1600",
        "inj": "0",
        "deaths": "1",
        "prop_dmg": "20.0k",
        "crop_dmg": "40.0k",
        "begin": "07/15/1997",
        "county": "SEVIER CO.",
        "state": "UT"
      }
    ],
    "Winter_Storm": [],
    "Winter_Weather": []
  },
  "043": {
    "name": "Summit County",
    "fips": "UT",
    "pop10": "36324",
    "lat": 40.87206,
    "lon": -110.968486,
    "geoid": "49043",
    "deaths": 3,
    "prop_dmg": "5.21M",
    "crop_dmg": "30.0k",
    "inj": 6,
    "all": 8,
    "eq": [],
    "Hurricane____Typhoon___": [],
    "Cold__FWind_Chill": [],
    "Coastal_Flood": [],
    "Avalanche": [],
    "Astronomical_Low_Tide": [],
    "Dense_Fog": [],
    "Drought": [],
    "Dust_Devil": [],
    "Dust_Storm": [],
    "Excessive_Heat": [],
    "Extreme_Cold__FWind_Chill": [],
    "Flash_Flood": [],
    "Flood": [
      {
        "type": "Flood",
        "time": "800",
        "inj": "0",
        "deaths": "0",
        "prop_dmg": "5.00M",
        "crop_dmg": "0",
        "begin": "06/06/2010",
        "county": "SUMMIT CO.",
        "state": "UT"
      },
      {
        "type": "Flood",
        "time": "900",
        "inj": "0",
        "deaths": "0",
        "prop_dmg": "20.0k",
        "crop_dmg": "0",
        "begin": "06/24/2011",
        "county": "SUMMIT CO.",
        "state": "UT"
      },
      {
        "type": "Flood",
        "time": "0",
        "inj": "0",
        "deaths": "0",
        "prop_dmg": "50.0k",
        "crop_dmg": "0",
        "begin": "07/01/2011",
        "county": "SUMMIT CO.",
        "state": "UT"
      },
      {
        "type": "Flood",
        "time": "900",
        "inj": "0",
        "deaths": "0",
        "prop_dmg": "40.0k",
        "crop_dmg": "0",
        "begin": "02/09/2014",
        "county": "SUMMIT CO.",
        "state": "UT"
      }
    ],
    "Freezing_Fog": [],
    "Funnel_Cloud": [],
    "Hail": [],
    "Heat": [],
    "Heavy_Rain": [
      {
        "type": "Heavy+Rain",
        "time": "1500",
        "inj": "0",
        "deaths": "0",
        "prop_dmg": "100k",
        "crop_dmg": "30.0k",
        "begin": "07/24/1998",
        "county": "SUMMIT CO.",
        "state": "UT"
      }
    ],
    "Heavy_Snow": [],
    "High_Surf": [],
    "High_Wind": [],
    "Ice_Storm": [],
    "Lakeshore_Flood": [],
    "Landslide": [],
    "Lightning": [
      {
        "type": "Lightning",
        "time": "1630",
        "inj": "3",
        "deaths": "2",
        "prop_dmg": "0",
        "crop_dmg": "0",
        "begin": "07/19/2003",
        "county": "SUMMIT CO.",
        "state": "UT"
      },
      {
        "type": "Lightning",
        "time": "1330",
        "inj": "2",
        "deaths": "1",
        "prop_dmg": "0",
        "crop_dmg": "0",
        "begin": "08/14/2003",
        "county": "SUMMIT CO.",
        "state": "UT"
      },
      {
        "type": "Lightning",
        "time": "1600",
        "inj": "1",
        "deaths": "0",
        "prop_dmg": "0",
        "crop_dmg": "0",
        "begin": "07/29/2012",
        "county": "SUMMIT CO.",
        "state": "UT"
      }
    ],
    "Rip_Current": [],
    "Seiche": [],
    "Sleet": [],
    "Storm_Surge__FTide": [],
    "Strong_Wind": [],
    "Thunderstorm_Wind": [],
    "Tornado": [],
    "Tropical_Depression": [],
    "Tropical_Storm": [],
    "Tsunami": [],
    "Volcanic_Ashfall": [],
    "Waterspout": [],
    "Wildfire": [],
    "Winter_Storm": [],
    "Winter_Weather": []
  },
  "045": {
    "name": "Tooele County",
    "fips": "UT",
    "pop10": "58218",
    "lat": 40.467692,
    "lon": -113.124015,
    "geoid": "49045",
    "deaths": 7,
    "prop_dmg": "13.3M",
    "crop_dmg": "10.0k",
    "inj": 79,
    "all": 32,
    "eq": [],
    "Hurricane____Typhoon___": [],
    "Cold__FWind_Chill": [],
    "Coastal_Flood": [],
    "Avalanche": [],
    "Astronomical_Low_Tide": [],
    "Dense_Fog": [
      {
        "type": "Dense+Fog",
        "time": "2300",
        "inj": "3",
        "deaths": "3",
        "prop_dmg": "500k",
        "crop_dmg": "0",
        "begin": "02/03/2002",
        "county": "C W BOX ELDER/C W XE TOOLE/X W SALT LAKE/X NW UTAH ",
        "state": "UT"
      },
      {
        "type": "Dense+Fog",
        "time": "500",
        "inj": "14",
        "deaths": "0",
        "prop_dmg": "500k",
        "crop_dmg": "0",
        "begin": "01/08/2003",
        "county": "W SALT LAKE T X W/E TOOLE T X E ",
        "state": "UT"
      },
      {
        "type": "Dense+Fog",
        "time": "2100",
        "inj": "1",
        "deaths": "2",
        "prop_dmg": "200k",
        "crop_dmg": "0",
        "begin": "01/10/2003",
        "county": "SALT LAKE AND TOOLE VALLEYS ",
        "state": "UT"
      }
    ],
    "Drought": [],
    "Dust_Devil": [],
    "Dust_Storm": [],
    "Excessive_Heat": [],
    "Extreme_Cold__FWind_Chill": [],
    "Flash_Flood": [],
    "Flood": [],
    "Freezing_Fog": [],
    "Funnel_Cloud": [],
    "Hail": [],
    "Heat": [],
    "Heavy_Rain": [],
    "Heavy_Snow": [
      {
        "type": "Heavy+Snow",
        "time": "1700",
        "inj": "0",
        "deaths": "0",
        "prop_dmg": "300k",
        "crop_dmg": "0",
        "begin": "10/19/1996",
        "county": "SALT LAKE AND TOOLE VALLEYS ",
        "state": "UT"
      },
      {
        "type": "Heavy+Snow",
        "time": "2000",
        "inj": "0",
        "deaths": "0",
        "prop_dmg": "50.0k",
        "crop_dmg": "0",
        "begin": "11/04/1996",
        "county": "SALT LAKE AND TOOLE VALLEYS ",
        "state": "UT"
      },
      {
        "type": "Heavy+Snow",
        "time": "1200",
        "inj": "0",
        "deaths": "0",
        "prop_dmg": "100k",
        "crop_dmg": "0",
        "begin": "11/15/1996",
        "county": "SALT LAKE AND TOOLE VALLEYS ",
        "state": "UT"
      },
      {
        "type": "Heavy+Snow",
        "time": "600",
        "inj": "0",
        "deaths": "0",
        "prop_dmg": "10.0k",
        "crop_dmg": "0",
        "begin": "12/01/1997",
        "county": "W SALT LAKE T X W/E TOOLE T X E ",
        "state": "UT"
      },
      {
        "type": "Heavy+Snow",
        "time": "500",
        "inj": "0",
        "deaths": "0",
        "prop_dmg": "15.0k",
        "crop_dmg": "0",
        "begin": "01/30/1998",
        "county": "W SALT LAKE T X W/E TOOLE T X E ",
        "state": "UT"
      },
      {
        "type": "Heavy+Snow",
        "time": "900",
        "inj": "5",
        "deaths": "0",
        "prop_dmg": "30.0k",
        "crop_dmg": "0",
        "begin": "01/04/2000",
        "county": "C W BOX ELDER/C W XE TOOLE/X W SALT LAKE/X NW UTAH ",
        "state": "UT"
      },
      {
        "type": "Heavy+Snow",
        "time": "700",
        "inj": "0",
        "deaths": "0",
        "prop_dmg": "100k",
        "crop_dmg": "0",
        "begin": "01/15/2002",
        "county": "SALT LAKE AND TOOLE VALLEYS ",
        "state": "UT"
      },
      {
        "type": "Heavy+Snow",
        "time": "1600",
        "inj": "0",
        "deaths": "0",
        "prop_dmg": "100k",
        "crop_dmg": "0",
        "begin": "11/25/2003",
        "county": "W SALT LAKE T X W/E TOOLE T X E ",
        "state": "UT"
      },
      {
        "type": "Heavy+Snow",
        "time": "0",
        "inj": "0",
        "deaths": "0",
        "prop_dmg": "100k",
        "crop_dmg": "0",
        "begin": "01/25/2004",
        "county": "SALT LAKE AND TOOLE VALLEYS ",
        "state": "UT"
      },
      {
        "type": "Heavy+Snow",
        "time": "500",
        "inj": "2",
        "deaths": "0",
        "prop_dmg": "30.0k",
        "crop_dmg": "0",
        "begin": "11/27/2004",
        "county": "W SALT LAKE T X W/E TOOLE T X E ",
        "state": "UT"
      }
    ],
    "High_Surf": [],
    "High_Wind": [],
    "Ice_Storm": [],
    "Lakeshore_Flood": [],
    "Landslide": [],
    "Lightning": [
      {
        "type": "Lightning",
        "time": "1130",
        "inj": "4",
        "deaths": "2",
        "prop_dmg": "0",
        "crop_dmg": "0",
        "begin": "08/23/2000",
        "county": "TOOELE CO.",
        "state": "UT"
      },
      {
        "type": "Lightning",
        "time": "1651",
        "inj": "0",
        "deaths": "0",
        "prop_dmg": "50.0k",
        "crop_dmg": "0",
        "begin": "04/25/2011",
        "county": "TOOELE CO.",
        "state": "UT"
      }
    ],
    "Rip_Current": [],
    "Seiche": [],
    "Sleet": [],
    "Storm_Surge__FTide": [],
    "Strong_Wind": [],
    "Thunderstorm_Wind": [],
    "Tornado": [],
    "Tropical_Depression": [],
    "Tropical_Storm": [],
    "Tsunami": [],
    "Volcanic_Ashfall": [],
    "Waterspout": [],
    "Wildfire": [
      {
        "type": "Wildfire",
        "time": "1130",
        "inj": "6",
        "deaths": "0",
        "prop_dmg": "5.00M",
        "crop_dmg": "0",
        "begin": "09/19/2010",
        "county": "SALT LAKE AND TOOELE VALLEYS ",
        "state": "UT"
      },
      {
        "type": "Wildfire",
        "time": "1120",
        "inj": "0",
        "deaths": "0",
        "prop_dmg": "35.0k",
        "crop_dmg": "0",
        "begin": "06/23/2012",
        "county": "SALT LAKE AND TOOLE VALLEYS ",
        "state": "UT"
      },
      {
        "type": "Wildfire",
        "time": "1410",
        "inj": "1",
        "deaths": "0",
        "prop_dmg": "400k",
        "crop_dmg": "0",
        "begin": "06/23/2012",
        "county": "SALT LAKE AND TOOLE VALLEYS ",
        "state": "UT"
      },
      {
        "type": "Wildfire",
        "time": "0",
        "inj": "0",
        "deaths": "0",
        "prop_dmg": "3.00M",
        "crop_dmg": "0",
        "begin": "07/01/2012",
        "county": "SALT LAKE AND TOOELE VALLEYS ",
        "state": "UT"
      },
      {
        "type": "Wildfire",
        "time": "1900",
        "inj": "0",
        "deaths": "0",
        "prop_dmg": "350k",
        "crop_dmg": "0",
        "begin": "08/10/2013",
        "county": "GREAT SALT LAKE DESERT AND MOUNTAINS ",
        "state": "UT"
      }
    ],
    "Winter_Storm": [
      {
        "type": "Winter+Storm",
        "time": "1100",
        "inj": "20",
        "deaths": "0",
        "prop_dmg": "1.00M",
        "crop_dmg": "0",
        "begin": "10/24/1996",
        "county": "SALT LAKE AND TOOLE VALLEYS ",
        "state": "UT"
      },
      {
        "type": "Winter+Storm",
        "time": "1200",
        "inj": "0",
        "deaths": "0",
        "prop_dmg": "10.0k",
        "crop_dmg": "0",
        "begin": "11/05/1998",
        "county": "W SALT LAKE T X W/E TOOLE T X E ",
        "state": "UT"
      },
      {
        "type": "Winter+Storm",
        "time": "1200",
        "inj": "0",
        "deaths": "0",
        "prop_dmg": "10.0k",
        "crop_dmg": "0",
        "begin": "11/05/1998",
        "county": "C W BOX ELDER/C W XE TOOLE/X W SALT LAKE/X NW UTAH ",
        "state": "UT"
      },
      {
        "type": "Winter+Storm",
        "time": "1200",
        "inj": "2",
        "deaths": "0",
        "prop_dmg": "20.0k",
        "crop_dmg": "0",
        "begin": "01/01/2000",
        "county": "W SALT LAKE T X W/E TOOLE T X E ",
        "state": "UT"
      },
      {
        "type": "Winter+Storm",
        "time": "1200",
        "inj": "0",
        "deaths": "0",
        "prop_dmg": "400k",
        "crop_dmg": "0",
        "begin": "11/22/2001",
        "county": "W SALT LAKE T X W/E TOOLE T X E ",
        "state": "UT"
      },
      {
        "type": "Winter+Storm",
        "time": "1000",
        "inj": "1",
        "deaths": "0",
        "prop_dmg": "200k",
        "crop_dmg": "10.0k",
        "begin": "11/24/2001",
        "county": "W SALT LAKE T X W/E TOOLE T X E ",
        "state": "UT"
      },
      {
        "type": "Winter+Storm",
        "time": "900",
        "inj": "0",
        "deaths": "0",
        "prop_dmg": "10.0k",
        "crop_dmg": "0",
        "begin": "11/29/2001",
        "county": "W SALT LAKE T X W/E TOOLE T X E ",
        "state": "UT"
      },
      {
        "type": "Winter+Storm",
        "time": "1200",
        "inj": "20",
        "deaths": "0",
        "prop_dmg": "500k",
        "crop_dmg": "0",
        "begin": "01/27/2002",
        "county": "SALT LAKE AND TOOLE VALLEYS ",
        "state": "UT"
      },
      {
        "type": "Winter+Storm",
        "time": "800",
        "inj": "0",
        "deaths": "0",
        "prop_dmg": "200k",
        "crop_dmg": "0",
        "begin": "11/21/2003",
        "county": "SALT LAKE AND TOOLE VALLEYS ",
        "state": "UT"
      },
      {
        "type": "Winter+Storm",
        "time": "700",
        "inj": "0",
        "deaths": "0",
        "prop_dmg": "100k",
        "crop_dmg": "0",
        "begin": "11/09/2012",
        "county": "SALT LAKE AND TOOELE VALLEYS ",
        "state": "UT"
      },
      {
        "type": "Winter+Storm",
        "time": "530",
        "inj": "0",
        "deaths": "0",
        "prop_dmg": "1.00k",
        "crop_dmg": "0",
        "begin": "01/10/2013",
        "county": "SALT LAKE AND TOOLE VALLEYS ",
        "state": "UT"
      }
    ],
    "Winter_Weather": [
      {
        "type": "Winter+Weather",
        "time": "600",
        "inj": "0",
        "deaths": "0",
        "prop_dmg": "10.0k",
        "crop_dmg": "0",
        "begin": "10/25/2012",
        "county": "SALT LAKE AND TOOELE VALLEYS ",
        "state": "UT"
      }
    ]
  },
  "047": {
    "name": "Uintah County",
    "fips": "UT",
    "pop10": "32588",
    "lat": 40.125887,
    "lon": -109.517748,
    "geoid": "49047",
    "deaths": 6,
    "prop_dmg": "733k",
    "crop_dmg": 0,
    "inj": 0,
    "all": 8,
    "eq": [],
    "Hurricane____Typhoon___": [],
    "Cold__FWind_Chill": [],
    "Coastal_Flood": [],
    "Avalanche": [],
    "Astronomical_Low_Tide": [],
    "Dense_Fog": [],
    "Drought": [],
    "Dust_Devil": [],
    "Dust_Storm": [],
    "Excessive_Heat": [],
    "Extreme_Cold__FWind_Chill": [],
    "Flash_Flood": [
      {
        "type": "Flash+Flood",
        "time": "1500",
        "inj": "0",
        "deaths": "0",
        "prop_dmg": "5.00k",
        "crop_dmg": "0",
        "begin": "06/17/1998",
        "county": "UINTAH CO.",
        "state": "UT"
      },
      {
        "type": "Flash+Flood",
        "time": "1500",
        "inj": "0",
        "deaths": "0",
        "prop_dmg": "5.00k",
        "crop_dmg": "0",
        "begin": "06/17/1998",
        "county": "UINTAH CO.",
        "state": "UT"
      }
    ],
    "Flood": [],
    "Freezing_Fog": [],
    "Funnel_Cloud": [],
    "Hail": [],
    "Heat": [],
    "Heavy_Rain": [],
    "Heavy_Snow": [],
    "High_Surf": [],
    "High_Wind": [],
    "Ice_Storm": [],
    "Lakeshore_Flood": [],
    "Landslide": [],
    "Lightning": [
      {
        "type": "Lightning",
        "time": "1300",
        "inj": "0",
        "deaths": "0",
        "prop_dmg": "10.0k",
        "crop_dmg": "0",
        "begin": "05/29/2000",
        "county": "UINTAH CO.",
        "state": "UT"
      },
      {
        "type": "Lightning",
        "time": "1920",
        "inj": "0",
        "deaths": "0",
        "prop_dmg": "3.00k",
        "crop_dmg": "0",
        "begin": "05/05/2005",
        "county": "UINTAH CO.",
        "state": "UT"
      }
    ],
    "Rip_Current": [],
    "Seiche": [],
    "Sleet": [],
    "Storm_Surge__FTide": [],
    "Strong_Wind": [],
    "Thunderstorm_Wind": [],
    "Tornado": [],
    "Tropical_Depression": [],
    "Tropical_Storm": [],
    "Tsunami": [],
    "Volcanic_Ashfall": [],
    "Waterspout": [],
    "Wildfire": [
      {
        "type": "Wildfire",
        "time": "800",
        "inj": "0",
        "deaths": "3",
        "prop_dmg": "500k",
        "crop_dmg": "0",
        "begin": "06/29/2007",
        "county": "EASTERN UINTA BASIN ",
        "state": "UT"
      },
      {
        "type": "Wildfire",
        "time": "0",
        "inj": "0",
        "deaths": "3",
        "prop_dmg": "200k",
        "crop_dmg": "0",
        "begin": "07/01/2007",
        "county": "EASTERN UINTA BASIN ",
        "state": "UT"
      },
      {
        "type": "Wildfire",
        "time": "0",
        "inj": "0",
        "deaths": "0",
        "prop_dmg": "5.00k",
        "crop_dmg": "0",
        "begin": "07/01/2012",
        "county": "TAVAPUTS PLATEAU ",
        "state": "UT"
      },
      {
        "type": "Wildfire",
        "time": "1230",
        "inj": "0",
        "deaths": "0",
        "prop_dmg": "5.00k",
        "crop_dmg": "0",
        "begin": "06/29/2012",
        "county": "TAVAPUTS PLATEAU ",
        "state": "UT"
      }
    ],
    "Winter_Storm": [],
    "Winter_Weather": []
  },
  "049": {
    "name": "Utah County",
    "fips": "UT",
    "pop10": "516564",
    "lat": 40.120409,
    "lon": -111.668667,
    "geoid": "49049",
    "deaths": 26,
    "prop_dmg": "10.4M",
    "crop_dmg": "27.2k",
    "inj": 22,
    "all": 49,
    "eq": [],
    "Hurricane____Typhoon___": [],
    "Cold__FWind_Chill": [],
    "Coastal_Flood": [],
    "Avalanche": [
      {
        "type": "Avalanche",
        "time": "1300",
        "inj": "5",
        "deaths": "0",
        "prop_dmg": "50.0k",
        "crop_dmg": "0",
        "begin": "03/14/1998",
        "county": "W SUMMIT T NW/SE SALT LAKE/WASATCH X SC/E UTAH/P X E JUAB/X NW SAN PETE ",
        "state": "UT"
      },
      {
        "type": "Avalanche",
        "time": "1230",
        "inj": "1",
        "deaths": "1",
        "prop_dmg": "0",
        "crop_dmg": "0",
        "begin": "11/07/1998",
        "county": "WASATCH MOUNTAINS SOUTH OF I80 ",
        "state": "UT"
      },
      {
        "type": "Avalanche",
        "time": "1530",
        "inj": "0",
        "deaths": "1",
        "prop_dmg": "0",
        "crop_dmg": "0",
        "begin": "01/29/1999",
        "county": "W SUMMIT T NW/SE SALT LAKE/WASATCH X SC/E UTAH/P X E JUAB/X NW SAN PETE ",
        "state": "UT"
      },
      {
        "type": "Avalanche",
        "time": "1000",
        "inj": "0",
        "deaths": "2",
        "prop_dmg": "0",
        "crop_dmg": "0",
        "begin": "01/11/2000",
        "county": "W SUMMIT T NW/SE SALT LAKE/WASATCH X SC/E UTAH/P X E JUAB/X NW SAN PETE ",
        "state": "UT"
      },
      {
        "type": "Avalanche",
        "time": "1300",
        "inj": "0",
        "deaths": "1",
        "prop_dmg": "0",
        "crop_dmg": "0",
        "begin": "02/27/2001",
        "county": "WASATCH MOUNTAINS SOUTH OF I80 ",
        "state": "UT"
      },
      {
        "type": "Avalanche",
        "time": "800",
        "inj": "0",
        "deaths": "0",
        "prop_dmg": "20.0k",
        "crop_dmg": "0",
        "begin": "03/14/2002",
        "county": "W SUMMIT T NW/SE SALT LAKE/WASATCH X SC/E UTAH/P X E JUAB/X NW SAN PETE ",
        "state": "UT"
      },
      {
        "type": "Avalanche",
        "time": "1245",
        "inj": "0",
        "deaths": "2",
        "prop_dmg": "0",
        "crop_dmg": "0",
        "begin": "03/16/2002",
        "county": "W SUMMIT T NW/SE SALT LAKE/WASATCH X SC/E UTAH/P X E JUAB/X NW SAN PETE ",
        "state": "UT"
      },
      {
        "type": "Avalanche",
        "time": "1730",
        "inj": "0",
        "deaths": "1",
        "prop_dmg": "0",
        "crop_dmg": "0",
        "begin": "02/15/2003",
        "county": "W SUMMIT T NW/SE SALT LAKE/WASATCH X SC/E UTAH/P X E JUAB/X NW SAN PETE ",
        "state": "UT"
      },
      {
        "type": "Avalanche",
        "time": "1515",
        "inj": "3",
        "deaths": "0",
        "prop_dmg": "0",
        "crop_dmg": "0",
        "begin": "03/24/2005",
        "county": "WASATCH MOUNTAINS SOUTH OF I80 ",
        "state": "UT"
      },
      {
        "type": "Avalanche",
        "time": "1645",
        "inj": "3",
        "deaths": "0",
        "prop_dmg": "0",
        "crop_dmg": "0",
        "begin": "03/24/2005",
        "county": "WASATCH MOUNTAINS SOUTH OF I80 ",
        "state": "UT"
      },
      {
        "type": "Avalanche",
        "time": "1400",
        "inj": "0",
        "deaths": "1",
        "prop_dmg": "0",
        "crop_dmg": "0",
        "begin": "02/21/2007",
        "county": "WASATCH MOUNTAINS SOUTH OF I80 ",
        "state": "UT"
      },
      {
        "type": "Avalanche",
        "time": "1350",
        "inj": "0",
        "deaths": "1",
        "prop_dmg": "0",
        "crop_dmg": "0",
        "begin": "01/27/2010",
        "county": "WASATCH MOUNTAINS SOUTH OF I-80 ",
        "state": "UT"
      },
      {
        "type": "Avalanche",
        "time": "1430",
        "inj": "0",
        "deaths": "1",
        "prop_dmg": "0",
        "crop_dmg": "0",
        "begin": "11/13/2011",
        "county": "WASATCH MOUNTAINS SOUTH OF I80 ",
        "state": "UT"
      },
      {
        "type": "Avalanche",
        "time": "1122",
        "inj": "0",
        "deaths": "1",
        "prop_dmg": "0",
        "crop_dmg": "0",
        "begin": "01/28/2012",
        "county": "WASATCH MOUNTAINS SOUTH OF I80 ",
        "state": "UT"
      },
      {
        "type": "Avalanche",
        "time": "1500",
        "inj": "0",
        "deaths": "1",
        "prop_dmg": "0",
        "crop_dmg": "0",
        "begin": "02/23/2012",
        "county": "WASATCH MOUNTAINS SOUTH OF I80 ",
        "state": "UT"
      },
      {
        "type": "Avalanche",
        "time": "1230",
        "inj": "0",
        "deaths": "1",
        "prop_dmg": "0",
        "crop_dmg": "0",
        "begin": "04/11/2013",
        "county": "WASATCH MOUNTAINS SOUTH OF I80 ",
        "state": "UT"
      },
      {
        "type": "Avalanche",
        "time": "1740",
        "inj": "0",
        "deaths": "1",
        "prop_dmg": "0",
        "crop_dmg": "0",
        "begin": "02/08/2014",
        "county": "WASATCH MOUNTAINS SOUTH OF I80 ",
        "state": "UT"
      }
    ],
    "Astronomical_Low_Tide": [],
    "Dense_Fog": [
      {
        "type": "Dense+Fog",
        "time": "800",
        "inj": "2",
        "deaths": "1",
        "prop_dmg": "20.0k",
        "crop_dmg": "0",
        "begin": "11/27/2003",
        "county": "W UTAH T X NW/P X E JUAB ",
        "state": "UT"
      }
    ],
    "Drought": [],
    "Dust_Devil": [],
    "Dust_Storm": [],
    "Excessive_Heat": [],
    "Extreme_Cold__FWind_Chill": [],
    "Flash_Flood": [],
    "Flood": [
      {
        "type": "Flood",
        "time": "1000",
        "inj": "0",
        "deaths": "0",
        "prop_dmg": "50.0k",
        "crop_dmg": "0",
        "begin": "04/15/2006",
        "county": "W SUMMIT T NW/SE SALT LAKE/WASATCH X SC/E UTAH/P X E JUAB/X NW SAN PETE ",
        "state": "UT"
      }
    ],
    "Freezing_Fog": [],
    "Funnel_Cloud": [],
    "Hail": [],
    "Heat": [],
    "Heavy_Rain": [
      {
        "type": "Heavy+Rain",
        "time": "1400",
        "inj": "0",
        "deaths": "0",
        "prop_dmg": "260k",
        "crop_dmg": "10.0k",
        "begin": "06/07/1998",
        "county": "UTAH CO.",
        "state": "UT"
      },
      {
        "type": "Heavy+Rain",
        "time": "500",
        "inj": "0",
        "deaths": "0",
        "prop_dmg": "28.0k",
        "crop_dmg": "3.00k",
        "begin": "06/13/1998",
        "county": "UTAH CO.",
        "state": "UT"
      },
      {
        "type": "Heavy+Rain",
        "time": "1500",
        "inj": "0",
        "deaths": "0",
        "prop_dmg": "20.0k",
        "crop_dmg": "4.00k",
        "begin": "07/27/1998",
        "county": "UTAH CO.",
        "state": "UT"
      }
    ],
    "Heavy_Snow": [
      {
        "type": "Heavy+Snow",
        "time": "200",
        "inj": "0",
        "deaths": "0",
        "prop_dmg": "10.0k",
        "crop_dmg": "0",
        "begin": "11/22/1996",
        "county": "WASATCH MOUNTAINS SOUTH OF I80 ",
        "state": "UT"
      },
      {
        "type": "Heavy+Snow",
        "time": "400",
        "inj": "0",
        "deaths": "0",
        "prop_dmg": "5.00k",
        "crop_dmg": "0",
        "begin": "01/10/1998",
        "county": "W UTAH T X NW/P X E JUAB ",
        "state": "UT"
      },
      {
        "type": "Heavy+Snow",
        "time": "200",
        "inj": "0",
        "deaths": "2",
        "prop_dmg": "0",
        "crop_dmg": "0",
        "begin": "01/15/1998",
        "county": "W SUMMIT T NW/SE SALT LAKE/WASATCH X SC/E UTAH/P X E JUAB/X NW SAN PETE ",
        "state": "UT"
      },
      {
        "type": "Heavy+Snow",
        "time": "400",
        "inj": "0",
        "deaths": "0",
        "prop_dmg": "0",
        "crop_dmg": "200",
        "begin": "06/04/1998",
        "county": "W SUMMIT T NW/SE SALT LAKE/WASATCH X SC/E UTAH/P X E JUAB/X NW SAN PETE ",
        "state": "UT"
      },
      {
        "type": "Heavy+Snow",
        "time": "700",
        "inj": "0",
        "deaths": "0",
        "prop_dmg": "50.0k",
        "crop_dmg": "0",
        "begin": "01/15/2002",
        "county": "SOUTHERN WASATCH FRONT/LEHI/PROVO/NEPHI ",
        "state": "UT"
      },
      {
        "type": "Heavy+Snow",
        "time": "700",
        "inj": "0",
        "deaths": "0",
        "prop_dmg": "10.0k",
        "crop_dmg": "0",
        "begin": "01/15/2002",
        "county": "WASATCH MOUNTAINS SOUTH OF I80 ",
        "state": "UT"
      },
      {
        "type": "Heavy+Snow",
        "time": "1600",
        "inj": "0",
        "deaths": "0",
        "prop_dmg": "50.0k",
        "crop_dmg": "0",
        "begin": "11/25/2003",
        "county": "W UTAH T X NW/P X E JUAB ",
        "state": "UT"
      }
    ],
    "High_Surf": [],
    "High_Wind": [],
    "Ice_Storm": [],
    "Lakeshore_Flood": [],
    "Landslide": [],
    "Lightning": [
      {
        "type": "Lightning",
        "time": "2130",
        "inj": "0",
        "deaths": "0",
        "prop_dmg": "50.0k",
        "crop_dmg": "0",
        "begin": "06/03/1998",
        "county": "UTAH CO.",
        "state": "UT"
      },
      {
        "type": "Lightning",
        "time": "1800",
        "inj": "0",
        "deaths": "0",
        "prop_dmg": "1.50k",
        "crop_dmg": "0",
        "begin": "05/25/2000",
        "county": "UTAH CO.",
        "state": "UT"
      },
      {
        "type": "Lightning",
        "time": "1903",
        "inj": "1",
        "deaths": "0",
        "prop_dmg": "5.00k",
        "crop_dmg": "0",
        "begin": "08/24/2009",
        "county": "UTAH CO.",
        "state": "UT"
      }
    ],
    "Rip_Current": [],
    "Seiche": [],
    "Sleet": [],
    "Storm_Surge__FTide": [],
    "Strong_Wind": [],
    "Thunderstorm_Wind": [],
    "Tornado": [],
    "Tropical_Depression": [],
    "Tropical_Storm": [],
    "Tsunami": [],
    "Volcanic_Ashfall": [],
    "Waterspout": [],
    "Wildfire": [
      {
        "type": "Wildfire",
        "time": "1030",
        "inj": "2",
        "deaths": "0",
        "prop_dmg": "50.0k",
        "crop_dmg": "0",
        "begin": "06/21/2012",
        "county": "SOUTHERN WASATCH FRONT/LEHI/PROVO/NEPHI ",
        "state": "UT"
      },
      {
        "type": "Wildfire",
        "time": "1547",
        "inj": "2",
        "deaths": "1",
        "prop_dmg": "0",
        "crop_dmg": "0",
        "begin": "06/23/2012",
        "county": "WASATCH MOUNTAINS SOUTH OF I80 ",
        "state": "UT"
      },
      {
        "type": "Wildfire",
        "time": "0",
        "inj": "0",
        "deaths": "0",
        "prop_dmg": "9.00M",
        "crop_dmg": "0",
        "begin": "07/01/2012",
        "county": "WASATCH MOUNTAINS SOUTH OF I-80 ",
        "state": "UT"
      },
      {
        "type": "Wildfire",
        "time": "1330",
        "inj": "0",
        "deaths": "0",
        "prop_dmg": "100k",
        "crop_dmg": "0",
        "begin": "07/03/2012",
        "county": "WASATCH MOUNTAINS SOUTH OF I-80 ",
        "state": "UT"
      },
      {
        "type": "Wildfire",
        "time": "1550",
        "inj": "0",
        "deaths": "0",
        "prop_dmg": "215k",
        "crop_dmg": "0",
        "begin": "08/05/2012",
        "county": "SOUTHERN WASATCH FRONT ",
        "state": "UT"
      }
    ],
    "Winter_Storm": [
      {
        "type": "Winter+Storm",
        "time": "1400",
        "inj": "0",
        "deaths": "4",
        "prop_dmg": "0",
        "crop_dmg": "0",
        "begin": "01/11/1998",
        "county": "WASATCH MOUNTAINS SOUTH OF I80 ",
        "state": "UT"
      },
      {
        "type": "Winter+Storm",
        "time": "1200",
        "inj": "0",
        "deaths": "0",
        "prop_dmg": "10.0k",
        "crop_dmg": "0",
        "begin": "11/05/1998",
        "county": "W SUMMIT T NW/SE SALT LAKE/WASATCH X SC/E UTAH/P X E JUAB/X NW SAN PETE ",
        "state": "UT"
      },
      {
        "type": "Winter+Storm",
        "time": "1200",
        "inj": "0",
        "deaths": "0",
        "prop_dmg": "10.0k",
        "crop_dmg": "0",
        "begin": "11/05/1998",
        "county": "W UTAH T X NW/P X E JUAB ",
        "state": "UT"
      },
      {
        "type": "Winter+Storm",
        "time": "1200",
        "inj": "0",
        "deaths": "0",
        "prop_dmg": "10.0k",
        "crop_dmg": "0",
        "begin": "11/22/2001",
        "county": "W UTAH T X NW/P X E JUAB ",
        "state": "UT"
      },
      {
        "type": "Winter+Storm",
        "time": "1000",
        "inj": "0",
        "deaths": "0",
        "prop_dmg": "100k",
        "crop_dmg": "10.0k",
        "begin": "11/24/2001",
        "county": "W UTAH T X NW/P X E JUAB ",
        "state": "UT"
      },
      {
        "type": "Winter+Storm",
        "time": "900",
        "inj": "1",
        "deaths": "2",
        "prop_dmg": "20.0k",
        "crop_dmg": "0",
        "begin": "11/29/2001",
        "county": "W UTAH T X NW/P X E JUAB ",
        "state": "UT"
      },
      {
        "type": "Winter+Storm",
        "time": "900",
        "inj": "0",
        "deaths": "0",
        "prop_dmg": "15.0k",
        "crop_dmg": "0",
        "begin": "11/29/2001",
        "county": "W SUMMIT T NW/SE SALT LAKE/WASATCH X SC/E UTAH/P X E JUAB/X NW SAN PETE ",
        "state": "UT"
      },
      {
        "type": "Winter+Storm",
        "time": "1200",
        "inj": "2",
        "deaths": "0",
        "prop_dmg": "50.0k",
        "crop_dmg": "0",
        "begin": "01/27/2002",
        "county": "WASATCH MOUNTAINS SOUTH OF I80 ",
        "state": "UT"
      },
      {
        "type": "Winter+Storm",
        "time": "800",
        "inj": "0",
        "deaths": "0",
        "prop_dmg": "150k",
        "crop_dmg": "0",
        "begin": "11/21/2003",
        "county": "SOUTHERN WASATCH FRONT/LEHI/PROVO/NEPHI ",
        "state": "UT"
      },
      {
        "type": "Winter+Storm",
        "time": "2200",
        "inj": "0",
        "deaths": "1",
        "prop_dmg": "0",
        "crop_dmg": "0",
        "begin": "01/01/2006",
        "county": "W SUMMIT T NW/SE SALT LAKE/WASATCH X SC/E UTAH/P X E JUAB/X NW SAN PETE ",
        "state": "UT"
      },
      {
        "type": "Winter+Storm",
        "time": "400",
        "inj": "0",
        "deaths": "0",
        "prop_dmg": "70.0k",
        "crop_dmg": "0",
        "begin": "11/09/2012",
        "county": "SOUTHERN WASATCH FRONT ",
        "state": "UT"
      }
    ],
    "Winter_Weather": [
      {
        "type": "Winter+Weather",
        "time": "700",
        "inj": "0",
        "deaths": "0",
        "prop_dmg": "20.0k",
        "crop_dmg": "0",
        "begin": "10/25/2012",
        "county": "SOUTHERN WASATCH FRONT ",
        "state": "UT"
      }
    ]
  },
  "051": {
    "name": "Wasatch County",
    "fips": "UT",
    "pop10": "23530",
    "lat": 40.334884,
    "lon": -111.161568,
    "geoid": "49051",
    "deaths": 0,
    "prop_dmg": "15.0k",
    "crop_dmg": 0,
    "inj": 0,
    "all": 1,
    "eq": [],
    "Hurricane____Typhoon___": [],
    "Cold__FWind_Chill": [],
    "Coastal_Flood": [],
    "Avalanche": [],
    "Astronomical_Low_Tide": [],
    "Dense_Fog": [],
    "Drought": [],
    "Dust_Devil": [],
    "Dust_Storm": [],
    "Excessive_Heat": [],
    "Extreme_Cold__FWind_Chill": [],
    "Flash_Flood": [],
    "Flood": [],
    "Freezing_Fog": [],
    "Funnel_Cloud": [],
    "Hail": [],
    "Heat": [],
    "Heavy_Rain": [],
    "Heavy_Snow": [],
    "High_Surf": [],
    "High_Wind": [],
    "Ice_Storm": [],
    "Lakeshore_Flood": [],
    "Landslide": [],
    "Lightning": [
      {
        "type": "Lightning",
        "time": "1630",
        "inj": "0",
        "deaths": "0",
        "prop_dmg": "15.0k",
        "crop_dmg": "0",
        "begin": "08/01/2004",
        "county": "WASATCH CO.",
        "state": "UT"
      }
    ],
    "Rip_Current": [],
    "Seiche": [],
    "Sleet": [],
    "Storm_Surge__FTide": [],
    "Strong_Wind": [],
    "Thunderstorm_Wind": [],
    "Tornado": [],
    "Tropical_Depression": [],
    "Tropical_Storm": [],
    "Tsunami": [],
    "Volcanic_Ashfall": [],
    "Waterspout": [],
    "Wildfire": [],
    "Winter_Storm": [],
    "Winter_Weather": []
  },
  "053": {
    "name": "Washington County",
    "fips": "UT",
    "pop10": "138115",
    "lat": 37.262531,
    "lon": -113.4878,
    "geoid": "49053",
    "deaths": 1,
    "prop_dmg": "306M",
    "crop_dmg": "100k",
    "inj": 20,
    "all": 9,
    "eq": [],
    "Hurricane____Typhoon___": [],
    "Cold__FWind_Chill": [
      {
        "type": "Cold%2FWind+Chill",
        "time": "1800",
        "inj": "0",
        "deaths": "0",
        "prop_dmg": "0",
        "crop_dmg": "100k",
        "begin": "04/01/1999",
        "county": "UTAH'S DIXIE AND ZION NATIONAL PARK ",
        "state": "UT"
      }
    ],
    "Coastal_Flood": [],
    "Avalanche": [],
    "Astronomical_Low_Tide": [],
    "Dense_Fog": [],
    "Drought": [],
    "Dust_Devil": [],
    "Dust_Storm": [],
    "Excessive_Heat": [],
    "Extreme_Cold__FWind_Chill": [],
    "Flash_Flood": [
      {
        "type": "Flash+Flood",
        "time": "100",
        "inj": "11",
        "deaths": "0",
        "prop_dmg": "5.00M",
        "crop_dmg": "0",
        "begin": "01/03/1997",
        "county": "WASHINGTON CO.",
        "state": "UT"
      },
      {
        "type": "Flash+Flood",
        "time": "1620",
        "inj": "0",
        "deaths": "0",
        "prop_dmg": "500k",
        "crop_dmg": "0",
        "begin": "07/15/2012",
        "county": "WASHINGTON CO.",
        "state": "UT"
      }
    ],
    "Flood": [
      {
        "type": "Flood",
        "time": "730",
        "inj": "0",
        "deaths": "0",
        "prop_dmg": "40.0k",
        "crop_dmg": "0",
        "begin": "09/15/1997",
        "county": "WASHINGTON CO.",
        "state": "UT"
      },
      {
        "type": "Flood",
        "time": "800",
        "inj": "6",
        "deaths": "1",
        "prop_dmg": "300M",
        "crop_dmg": "0",
        "begin": "01/10/2005",
        "county": "SC WASHINGTON ",
        "state": "UT"
      },
      {
        "type": "Flood",
        "time": "1920",
        "inj": "0",
        "deaths": "0",
        "prop_dmg": "225k",
        "crop_dmg": "0",
        "begin": "08/01/2007",
        "county": "WASHINGTON CO.",
        "state": "UT"
      }
    ],
    "Freezing_Fog": [],
    "Funnel_Cloud": [],
    "Hail": [],
    "Heat": [],
    "Heavy_Rain": [
      {
        "type": "Heavy+Rain",
        "time": "1900",
        "inj": "0",
        "deaths": "0",
        "prop_dmg": "2.00k",
        "crop_dmg": "0",
        "begin": "09/25/1997",
        "county": "WASHINGTON CO.",
        "state": "UT"
      }
    ],
    "Heavy_Snow": [],
    "High_Surf": [],
    "High_Wind": [],
    "Ice_Storm": [],
    "Lakeshore_Flood": [],
    "Landslide": [],
    "Lightning": [],
    "Rip_Current": [],
    "Seiche": [],
    "Sleet": [],
    "Storm_Surge__FTide": [],
    "Strong_Wind": [],
    "Thunderstorm_Wind": [],
    "Tornado": [],
    "Tropical_Depression": [],
    "Tropical_Storm": [],
    "Tsunami": [],
    "Volcanic_Ashfall": [],
    "Waterspout": [],
    "Wildfire": [
      {
        "type": "Wildfire",
        "time": "1500",
        "inj": "2",
        "deaths": "0",
        "prop_dmg": "0",
        "crop_dmg": "0",
        "begin": "05/01/2012",
        "county": "UTAHS DIXIE AND ZION NATIONAL PARK ",
        "state": "UT"
      },
      {
        "type": "Wildfire",
        "time": "1530",
        "inj": "1",
        "deaths": "0",
        "prop_dmg": "5.00k",
        "crop_dmg": "0",
        "begin": "06/23/2012",
        "county": "UTAHS DIXIE AND ZION NATIONAL PARK ",
        "state": "UT"
      }
    ],
    "Winter_Storm": [],
    "Winter_Weather": []
  },
  "055": {
    "name": "Wayne County",
    "fips": "UT",
    "pop10": "2778",
    "lat": 38.261229,
    "lon": -110.990322,
    "geoid": "49055",
    "deaths": 0,
    "prop_dmg": "2.40k",
    "crop_dmg": 0,
    "inj": 0,
    "all": 2,
    "eq": [],
    "Hurricane____Typhoon___": [],
    "Cold__FWind_Chill": [],
    "Coastal_Flood": [],
    "Avalanche": [],
    "Astronomical_Low_Tide": [],
    "Dense_Fog": [],
    "Drought": [],
    "Dust_Devil": [],
    "Dust_Storm": [],
    "Excessive_Heat": [],
    "Extreme_Cold__FWind_Chill": [],
    "Flash_Flood": [
      {
        "type": "Flash+Flood",
        "time": "1610",
        "inj": "0",
        "deaths": "0",
        "prop_dmg": "2.00k",
        "crop_dmg": "0",
        "begin": "06/18/2009",
        "county": "WAYNE CO.",
        "state": "UT"
      }
    ],
    "Flood": [],
    "Freezing_Fog": [],
    "Funnel_Cloud": [],
    "Hail": [],
    "Heat": [],
    "Heavy_Rain": [
      {
        "type": "Heavy+Rain",
        "time": "1500",
        "inj": "0",
        "deaths": "0",
        "prop_dmg": "400",
        "crop_dmg": "0",
        "begin": "07/25/1998",
        "county": "WAYNE CO.",
        "state": "UT"
      }
    ],
    "Heavy_Snow": [],
    "High_Surf": [],
    "High_Wind": [],
    "Ice_Storm": [],
    "Lakeshore_Flood": [],
    "Landslide": [],
    "Lightning": [],
    "Rip_Current": [],
    "Seiche": [],
    "Sleet": [],
    "Storm_Surge__FTide": [],
    "Strong_Wind": [],
    "Thunderstorm_Wind": [],
    "Tornado": [],
    "Tropical_Depression": [],
    "Tropical_Storm": [],
    "Tsunami": [],
    "Volcanic_Ashfall": [],
    "Waterspout": [],
    "Wildfire": [],
    "Winter_Storm": [],
    "Winter_Weather": []
  },
  "057": {
    "name": "Weber County",
    "fips": "UT",
    "pop10": "231236",
    "lat": 41.270355,
    "lon": -111.875879,
    "geoid": "49057",
    "deaths": 1,
    "prop_dmg": "1.58M",
    "crop_dmg": "33.0k",
    "inj": 40,
    "all": 31,
    "eq": [],
    "Hurricane____Typhoon___": [],
    "Cold__FWind_Chill": [],
    "Coastal_Flood": [],
    "Avalanche": [
      {
        "type": "Avalanche",
        "time": "945",
        "inj": "1",
        "deaths": "0",
        "prop_dmg": "0",
        "crop_dmg": "0",
        "begin": "01/01/2005",
        "county": "NE BOX ELDER T X NE/W WEBER/DAVIS ",
        "state": "UT"
      }
    ],
    "Astronomical_Low_Tide": [],
    "Dense_Fog": [
      {
        "type": "Dense+Fog",
        "time": "400",
        "inj": "12",
        "deaths": "0",
        "prop_dmg": "32.0k",
        "crop_dmg": "0",
        "begin": "02/12/2005",
        "county": "NE BOX ELDER T X NE/W WEBER/DAVIS ",
        "state": "UT"
      }
    ],
    "Drought": [],
    "Dust_Devil": [],
    "Dust_Storm": [],
    "Excessive_Heat": [],
    "Extreme_Cold__FWind_Chill": [],
    "Flash_Flood": [
      {
        "type": "Flash+Flood",
        "time": "0",
        "inj": "0",
        "deaths": "0",
        "prop_dmg": "60.0k",
        "crop_dmg": "0",
        "begin": "06/10/1997",
        "county": "WEBER CO.",
        "state": "UT"
      },
      {
        "type": "Flash+Flood",
        "time": "1414",
        "inj": "0",
        "deaths": "0",
        "prop_dmg": "3.00k",
        "crop_dmg": "0",
        "begin": "06/14/2009",
        "county": "WEBER CO.",
        "state": "UT"
      }
    ],
    "Flood": [
      {
        "type": "Flood",
        "time": "2000",
        "inj": "0",
        "deaths": "0",
        "prop_dmg": "15.0k",
        "crop_dmg": "0",
        "begin": "06/11/2005",
        "county": "NORTHERN WASATCH FRONT/BRIGHAM CITY/OGDEN BOUNTIFUL ",
        "state": "UT"
      },
      {
        "type": "Flood",
        "time": "0",
        "inj": "0",
        "deaths": "0",
        "prop_dmg": "100k",
        "crop_dmg": "0",
        "begin": "06/01/2011",
        "county": "WEBER CO.",
        "state": "UT"
      },
      {
        "type": "Flood",
        "time": "0",
        "inj": "0",
        "deaths": "0",
        "prop_dmg": "50.0k",
        "crop_dmg": "0",
        "begin": "06/01/2011",
        "county": "WEBER CO.",
        "state": "UT"
      },
      {
        "type": "Flood",
        "time": "0",
        "inj": "0",
        "deaths": "0",
        "prop_dmg": "50.0k",
        "crop_dmg": "0",
        "begin": "06/15/2011",
        "county": "WEBER CO.",
        "state": "UT"
      },
      {
        "type": "Flood",
        "time": "800",
        "inj": "0",
        "deaths": "0",
        "prop_dmg": "50.0k",
        "crop_dmg": "0",
        "begin": "01/19/2012",
        "county": "WEBER CO.",
        "state": "UT"
      },
      {
        "type": "Flood",
        "time": "1200",
        "inj": "0",
        "deaths": "0",
        "prop_dmg": "80.0k",
        "crop_dmg": "0",
        "begin": "01/21/2012",
        "county": "WEBER CO.",
        "state": "UT"
      }
    ],
    "Freezing_Fog": [],
    "Funnel_Cloud": [],
    "Hail": [],
    "Heat": [],
    "Heavy_Rain": [
      {
        "type": "Heavy+Rain",
        "time": "500",
        "inj": "0",
        "deaths": "0",
        "prop_dmg": "20.0k",
        "crop_dmg": "2.00k",
        "begin": "06/04/1998",
        "county": "WEBER CO.",
        "state": "UT"
      },
      {
        "type": "Heavy+Rain",
        "time": "0",
        "inj": "0",
        "deaths": "0",
        "prop_dmg": "40.0k",
        "crop_dmg": "1.00k",
        "begin": "07/25/1998",
        "county": "WEBER CO.",
        "state": "UT"
      }
    ],
    "Heavy_Snow": [
      {
        "type": "Heavy+Snow",
        "time": "2100",
        "inj": "6",
        "deaths": "0",
        "prop_dmg": "50.0k",
        "crop_dmg": "0",
        "begin": "11/14/2000",
        "county": "NE BOX ELDER T X NE/W WEBER/DAVIS ",
        "state": "UT"
      },
      {
        "type": "Heavy+Snow",
        "time": "700",
        "inj": "0",
        "deaths": "0",
        "prop_dmg": "50.0k",
        "crop_dmg": "0",
        "begin": "01/15/2002",
        "county": "NORTHERN WASATCH FRONT/BRIGHAM CITY/OGDEN BOUNTIFUL ",
        "state": "UT"
      },
      {
        "type": "Heavy+Snow",
        "time": "1600",
        "inj": "0",
        "deaths": "0",
        "prop_dmg": "50.0k",
        "crop_dmg": "0",
        "begin": "11/25/2003",
        "county": "NE BOX ELDER T X NE/W WEBER/DAVIS ",
        "state": "UT"
      },
      {
        "type": "Heavy+Snow",
        "time": "100",
        "inj": "0",
        "deaths": "1",
        "prop_dmg": "0",
        "crop_dmg": "0",
        "begin": "01/03/2005",
        "county": "NORTHERN WASATCH FRONT/BRIGHAM CITY/OGDEN BOUNTIFUL ",
        "state": "UT"
      }
    ],
    "High_Surf": [],
    "High_Wind": [],
    "Ice_Storm": [],
    "Lakeshore_Flood": [],
    "Landslide": [],
    "Lightning": [
      {
        "type": "Lightning",
        "time": "1200",
        "inj": "1",
        "deaths": "0",
        "prop_dmg": "0",
        "crop_dmg": "0",
        "begin": "05/04/1999",
        "county": "WEBER CO.",
        "state": "UT"
      },
      {
        "type": "Lightning",
        "time": "1415",
        "inj": "0",
        "deaths": "0",
        "prop_dmg": "15.0k",
        "crop_dmg": "0",
        "begin": "08/03/2003",
        "county": "WEBER CO.",
        "state": "UT"
      },
      {
        "type": "Lightning",
        "time": "815",
        "inj": "1",
        "deaths": "0",
        "prop_dmg": "0",
        "crop_dmg": "0",
        "begin": "08/19/2011",
        "county": "WEBER CO.",
        "state": "UT"
      },
      {
        "type": "Lightning",
        "time": "1745",
        "inj": "0",
        "deaths": "0",
        "prop_dmg": "20.0k",
        "crop_dmg": "0",
        "begin": "07/06/2013",
        "county": "WEBER CO.",
        "state": "UT"
      }
    ],
    "Rip_Current": [],
    "Seiche": [],
    "Sleet": [],
    "Storm_Surge__FTide": [],
    "Strong_Wind": [],
    "Thunderstorm_Wind": [],
    "Tornado": [
      {
        "type": "Tornado",
        "time": "1145",
        "inj": "1",
        "deaths": "0",
        "prop_dmg": "250k",
        "crop_dmg": "0",
        "begin": "08/14/1968",
        "county": "WEBER CO.",
        "state": "UT"
      }
    ],
    "Tropical_Depression": [],
    "Tropical_Storm": [],
    "Tsunami": [],
    "Volcanic_Ashfall": [],
    "Waterspout": [],
    "Wildfire": [],
    "Winter_Storm": [
      {
        "type": "Winter+Storm",
        "time": "1400",
        "inj": "8",
        "deaths": "0",
        "prop_dmg": "140k",
        "crop_dmg": "20.0k",
        "begin": "01/11/1998",
        "county": "NORTHERN WASATCH FRONT/BRIGHAM CITY/OGDEN BOUNTIFUL ",
        "state": "UT"
      },
      {
        "type": "Winter+Storm",
        "time": "1200",
        "inj": "0",
        "deaths": "0",
        "prop_dmg": "10.0k",
        "crop_dmg": "0",
        "begin": "11/05/1998",
        "county": "NE BOX ELDER T X NE/W WEBER/DAVIS ",
        "state": "UT"
      },
      {
        "type": "Winter+Storm",
        "time": "1200",
        "inj": "0",
        "deaths": "0",
        "prop_dmg": "50.0k",
        "crop_dmg": "0",
        "begin": "11/22/2001",
        "county": "NE BOX ELDER T X NE/W WEBER/DAVIS ",
        "state": "UT"
      },
      {
        "type": "Winter+Storm",
        "time": "1000",
        "inj": "0",
        "deaths": "0",
        "prop_dmg": "100k",
        "crop_dmg": "10.0k",
        "begin": "11/24/2001",
        "county": "NE BOX ELDER T X NE/W WEBER/DAVIS ",
        "state": "UT"
      },
      {
        "type": "Winter+Storm",
        "time": "900",
        "inj": "0",
        "deaths": "0",
        "prop_dmg": "20.0k",
        "crop_dmg": "0",
        "begin": "11/29/2001",
        "county": "NE BOX ELDER T X NE/W WEBER/DAVIS ",
        "state": "UT"
      },
      {
        "type": "Winter+Storm",
        "time": "900",
        "inj": "10",
        "deaths": "0",
        "prop_dmg": "100k",
        "crop_dmg": "0",
        "begin": "01/27/2002",
        "county": "NORTHERN WASATCH FRONT/BRIGHAM CITY/OGDEN BOUNTIFUL ",
        "state": "UT"
      },
      {
        "type": "Winter+Storm",
        "time": "800",
        "inj": "0",
        "deaths": "0",
        "prop_dmg": "150k",
        "crop_dmg": "0",
        "begin": "11/21/2003",
        "county": "NORTHERN WASATCH FRONT/BRIGHAM CITY/OGDEN BOUNTIFUL ",
        "state": "UT"
      },
      {
        "type": "Winter+Storm",
        "time": "1800",
        "inj": "0",
        "deaths": "0",
        "prop_dmg": "15.0k",
        "crop_dmg": "0",
        "begin": "10/11/2008",
        "county": "NORTHERN WASATCH FRONT/BRIGHAM CITY/OGDEN BOUNTIFUL ",
        "state": "UT"
      },
      {
        "type": "Winter+Storm",
        "time": "600",
        "inj": "0",
        "deaths": "0",
        "prop_dmg": "10.0k",
        "crop_dmg": "0",
        "begin": "11/09/2012",
        "county": "NORTHERN WASATCH FRONT ",
        "state": "UT"
      }
    ],
    "Winter_Weather": [
      {
        "type": "Winter+Weather",
        "time": "400",
        "inj": "0",
        "deaths": "0",
        "prop_dmg": "50.0k",
        "crop_dmg": "0",
        "begin": "10/25/2012",
        "county": "NORTHERN WASATCH FRONT ",
        "state": "UT"
      }
    ]
  }
}