{
  "001": {
    "name": "Adams County",
    "fips": "WA",
    "pop10": "18728",
    "lat": 47.00484,
    "lon": -118.533308,
    "geoid": "53001",
    "deaths": 0,
    "prop_dmg": "65.0k",
    "crop_dmg": "2.00M",
    "inj": 1,
    "all": 2,
    "eq": [],
    "Hurricane____Typhoon___": [],
    "Cold__FWind_Chill": [],
    "Coastal_Flood": [],
    "Avalanche": [],
    "Astronomical_Low_Tide": [],
    "Dense_Fog": [],
    "Drought": [],
    "Dust_Devil": [],
    "Dust_Storm": [],
    "Excessive_Heat": [],
    "Extreme_Cold__FWind_Chill": [],
    "Flash_Flood": [],
    "Flood": [
      {
        "type": "Flood",
        "time": "1200",
        "inj": "0",
        "deaths": "0",
        "prop_dmg": "5.00k",
        "crop_dmg": "0",
        "begin": "02/12/2014",
        "county": "ADAMS CO.",
        "state": "WA"
      }
    ],
    "Freezing_Fog": [],
    "Funnel_Cloud": [],
    "Hail": [],
    "Heat": [],
    "Heavy_Rain": [],
    "Heavy_Snow": [],
    "High_Surf": [],
    "High_Wind": [],
    "Ice_Storm": [],
    "Lakeshore_Flood": [],
    "Landslide": [],
    "Lightning": [],
    "Rip_Current": [],
    "Seiche": [],
    "Sleet": [],
    "Storm_Surge__FTide": [],
    "Strong_Wind": [],
    "Thunderstorm_Wind": [],
    "Tornado": [],
    "Tropical_Depression": [],
    "Tropical_Storm": [],
    "Tsunami": [],
    "Volcanic_Ashfall": [],
    "Waterspout": [],
    "Wildfire": [
      {
        "type": "Wildfire",
        "time": "1000",
        "inj": "1",
        "deaths": "0",
        "prop_dmg": "60.0k",
        "crop_dmg": "2.00M",
        "begin": "08/06/1998",
        "county": "ADAMS CO.",
        "state": "WA"
      }
    ],
    "Winter_Storm": [],
    "Winter_Weather": []
  },
  "003": {
    "name": "Asotin County",
    "fips": "WA",
    "pop10": "21623",
    "lat": 46.181861,
    "lon": -117.227781,
    "geoid": "53003",
    "deaths": 0,
    "prop_dmg": "1.00k",
    "crop_dmg": 0,
    "inj": 0,
    "all": 1,
    "eq": [],
    "Hurricane____Typhoon___": [],
    "Cold__FWind_Chill": [],
    "Coastal_Flood": [],
    "Avalanche": [],
    "Astronomical_Low_Tide": [],
    "Dense_Fog": [],
    "Drought": [],
    "Dust_Devil": [],
    "Dust_Storm": [],
    "Excessive_Heat": [],
    "Extreme_Cold__FWind_Chill": [],
    "Flash_Flood": [
      {
        "type": "Flash+Flood",
        "time": "1135",
        "inj": "0",
        "deaths": "0",
        "prop_dmg": "1.00k",
        "crop_dmg": "0",
        "begin": "07/20/2012",
        "county": "ASOTIN CO.",
        "state": "WA"
      }
    ],
    "Flood": [],
    "Freezing_Fog": [],
    "Funnel_Cloud": [],
    "Hail": [],
    "Heat": [],
    "Heavy_Rain": [],
    "Heavy_Snow": [],
    "High_Surf": [],
    "High_Wind": [],
    "Ice_Storm": [],
    "Lakeshore_Flood": [],
    "Landslide": [],
    "Lightning": [],
    "Rip_Current": [],
    "Seiche": [],
    "Sleet": [],
    "Storm_Surge__FTide": [],
    "Strong_Wind": [],
    "Thunderstorm_Wind": [],
    "Tornado": [],
    "Tropical_Depression": [],
    "Tropical_Storm": [],
    "Tsunami": [],
    "Volcanic_Ashfall": [],
    "Waterspout": [],
    "Wildfire": [],
    "Winter_Storm": [],
    "Winter_Weather": []
  },
  "005": {
    "name": "Benton County",
    "fips": "WA",
    "pop10": "175177",
    "lat": 46.228072,
    "lon": -119.516864,
    "geoid": "53005",
    "deaths": 0,
    "prop_dmg": "515k",
    "crop_dmg": 0,
    "inj": 0,
    "all": 4,
    "eq": [],
    "Hurricane____Typhoon___": [],
    "Cold__FWind_Chill": [],
    "Coastal_Flood": [],
    "Avalanche": [],
    "Astronomical_Low_Tide": [],
    "Dense_Fog": [],
    "Drought": [],
    "Dust_Devil": [
      {
        "type": "Dust+Devil",
        "time": "1430",
        "inj": "0",
        "deaths": "0",
        "prop_dmg": "1.00k",
        "crop_dmg": "0",
        "begin": "06/13/2005",
        "county": "BENTON CO.",
        "state": "WA"
      },
      {
        "type": "Dust+Devil",
        "time": "1430",
        "inj": "0",
        "deaths": "0",
        "prop_dmg": "1.00k",
        "crop_dmg": "0",
        "begin": "06/13/2005",
        "county": "BENTON CO.",
        "state": "WA"
      }
    ],
    "Dust_Storm": [],
    "Excessive_Heat": [],
    "Extreme_Cold__FWind_Chill": [],
    "Flash_Flood": [],
    "Flood": [
      {
        "type": "Flood",
        "time": "700",
        "inj": "0",
        "deaths": "0",
        "prop_dmg": "453k",
        "crop_dmg": "0",
        "begin": "01/08/2009",
        "county": "BENTON CO.",
        "state": "WA"
      },
      {
        "type": "Flood",
        "time": "1815",
        "inj": "0",
        "deaths": "0",
        "prop_dmg": "60.0k",
        "crop_dmg": "0",
        "begin": "01/18/2011",
        "county": "BENTON CO.",
        "state": "WA"
      }
    ],
    "Freezing_Fog": [],
    "Funnel_Cloud": [],
    "Hail": [],
    "Heat": [],
    "Heavy_Rain": [],
    "Heavy_Snow": [],
    "High_Surf": [],
    "High_Wind": [],
    "Ice_Storm": [],
    "Lakeshore_Flood": [],
    "Landslide": [],
    "Lightning": [],
    "Rip_Current": [],
    "Seiche": [],
    "Sleet": [],
    "Storm_Surge__FTide": [],
    "Strong_Wind": [],
    "Thunderstorm_Wind": [],
    "Tornado": [],
    "Tropical_Depression": [],
    "Tropical_Storm": [],
    "Tsunami": [],
    "Volcanic_Ashfall": [],
    "Waterspout": [],
    "Wildfire": [],
    "Winter_Storm": [],
    "Winter_Weather": []
  },
  "007": {
    "name": "Chelan County",
    "fips": "WA",
    "pop10": "72453",
    "lat": 47.859891,
    "lon": -120.618543,
    "geoid": "53007",
    "deaths": 1,
    "prop_dmg": "11.3M",
    "crop_dmg": "90.7M",
    "inj": 7,
    "all": 16,
    "eq": [],
    "Hurricane____Typhoon___": [],
    "Cold__FWind_Chill": [],
    "Coastal_Flood": [],
    "Avalanche": [],
    "Astronomical_Low_Tide": [],
    "Dense_Fog": [],
    "Drought": [],
    "Dust_Devil": [],
    "Dust_Storm": [],
    "Excessive_Heat": [],
    "Extreme_Cold__FWind_Chill": [],
    "Flash_Flood": [
      {
        "type": "Flash+Flood",
        "time": "1915",
        "inj": "0",
        "deaths": "0",
        "prop_dmg": "1.00k",
        "crop_dmg": "0",
        "begin": "06/12/2009",
        "county": "CHELAN CO.",
        "state": "WA"
      },
      {
        "type": "Flash+Flood",
        "time": "1915",
        "inj": "0",
        "deaths": "0",
        "prop_dmg": "1.00k",
        "crop_dmg": "0",
        "begin": "06/12/2009",
        "county": "CHELAN CO.",
        "state": "WA"
      }
    ],
    "Flood": [
      {
        "type": "Flood",
        "time": "1200",
        "inj": "0",
        "deaths": "0",
        "prop_dmg": "10.0k",
        "crop_dmg": "0",
        "begin": "01/06/2009",
        "county": "CHELAN CO.",
        "state": "WA"
      },
      {
        "type": "Flood",
        "time": "0",
        "inj": "0",
        "deaths": "0",
        "prop_dmg": "1.10M",
        "crop_dmg": "0",
        "begin": "01/07/2009",
        "county": "CHELAN CO.",
        "state": "WA"
      },
      {
        "type": "Flood",
        "time": "930",
        "inj": "0",
        "deaths": "0",
        "prop_dmg": "1.00k",
        "crop_dmg": "0",
        "begin": "06/10/2011",
        "county": "CHELAN CO.",
        "state": "WA"
      }
    ],
    "Freezing_Fog": [],
    "Funnel_Cloud": [],
    "Hail": [],
    "Heat": [],
    "Heavy_Rain": [
      {
        "type": "Heavy+Rain",
        "time": "1800",
        "inj": "0",
        "deaths": "0",
        "prop_dmg": "0",
        "crop_dmg": "10.0M",
        "begin": "06/26/2001",
        "county": "CHELAN CO.",
        "state": "WA"
      },
      {
        "type": "Heavy+Rain",
        "time": "1300",
        "inj": "0",
        "deaths": "0",
        "prop_dmg": "1.00k",
        "crop_dmg": "0",
        "begin": "07/31/2010",
        "county": "CHELAN CO.",
        "state": "WA"
      },
      {
        "type": "Heavy+Rain",
        "time": "600",
        "inj": "0",
        "deaths": "0",
        "prop_dmg": "0",
        "crop_dmg": "640k",
        "begin": "07/25/2011",
        "county": "CHELAN CO.",
        "state": "WA"
      },
      {
        "type": "Heavy+Rain",
        "time": "800",
        "inj": "0",
        "deaths": "0",
        "prop_dmg": "0",
        "crop_dmg": "20.0k",
        "begin": "06/24/2013",
        "county": "CHELAN CO.",
        "state": "WA"
      }
    ],
    "Heavy_Snow": [],
    "High_Surf": [],
    "High_Wind": [],
    "Ice_Storm": [],
    "Lakeshore_Flood": [],
    "Landslide": [],
    "Lightning": [
      {
        "type": "Lightning",
        "time": "1430",
        "inj": "0",
        "deaths": "1",
        "prop_dmg": "0",
        "crop_dmg": "0",
        "begin": "04/16/1996",
        "county": "CHELAN CO.",
        "state": "WA"
      },
      {
        "type": "Lightning",
        "time": "1400",
        "inj": "6",
        "deaths": "0",
        "prop_dmg": "0",
        "crop_dmg": "0",
        "begin": "08/07/1999",
        "county": "CHELAN CO.",
        "state": "WA"
      },
      {
        "type": "Lightning",
        "time": "1840",
        "inj": "0",
        "deaths": "0",
        "prop_dmg": "2.00k",
        "crop_dmg": "0",
        "begin": "05/23/2006",
        "county": "CHELAN CO.",
        "state": "WA"
      },
      {
        "type": "Lightning",
        "time": "1900",
        "inj": "0",
        "deaths": "0",
        "prop_dmg": "5.00k",
        "crop_dmg": "0",
        "begin": "06/12/2006",
        "county": "CHELAN CO.",
        "state": "WA"
      },
      {
        "type": "Lightning",
        "time": "1123",
        "inj": "1",
        "deaths": "0",
        "prop_dmg": "0",
        "crop_dmg": "0",
        "begin": "07/06/2006",
        "county": "CHELAN CO.",
        "state": "WA"
      }
    ],
    "Rip_Current": [],
    "Seiche": [],
    "Sleet": [],
    "Storm_Surge__FTide": [],
    "Strong_Wind": [],
    "Thunderstorm_Wind": [],
    "Tornado": [],
    "Tropical_Depression": [],
    "Tropical_Storm": [],
    "Tsunami": [],
    "Volcanic_Ashfall": [],
    "Waterspout": [],
    "Wildfire": [
      {
        "type": "Wildfire",
        "time": "2300",
        "inj": "0",
        "deaths": "0",
        "prop_dmg": "10.0M",
        "crop_dmg": "80.0M",
        "begin": "08/02/1998",
        "county": "CHELAN CO.",
        "state": "WA"
      },
      {
        "type": "Wildfire",
        "time": "1400",
        "inj": "0",
        "deaths": "0",
        "prop_dmg": "200k",
        "crop_dmg": "0",
        "begin": "08/12/2001",
        "county": "CHELAN CO.",
        "state": "WA"
      }
    ],
    "Winter_Storm": [],
    "Winter_Weather": []
  },
  "009": {
    "name": "Clallam County",
    "fips": "WA",
    "pop10": "71404",
    "lat": 48.113009,
    "lon": -123.930611,
    "geoid": "53009",
    "deaths": 0,
    "prop_dmg": "7.26M",
    "crop_dmg": 0,
    "inj": 0,
    "all": 9,
    "eq": [],
    "Hurricane____Typhoon___": [],
    "Cold__FWind_Chill": [],
    "Coastal_Flood": [],
    "Avalanche": [],
    "Astronomical_Low_Tide": [],
    "Dense_Fog": [],
    "Drought": [],
    "Dust_Devil": [],
    "Dust_Storm": [],
    "Excessive_Heat": [],
    "Extreme_Cold__FWind_Chill": [],
    "Flash_Flood": [],
    "Flood": [],
    "Freezing_Fog": [],
    "Funnel_Cloud": [],
    "Hail": [],
    "Heat": [],
    "Heavy_Rain": [
      {
        "type": "Heavy+Rain",
        "time": "0",
        "inj": "0",
        "deaths": "0",
        "prop_dmg": "350k",
        "crop_dmg": "0",
        "begin": "01/29/1999",
        "county": "CLALLAM CO.",
        "state": "WA"
      },
      {
        "type": "Heavy+Rain",
        "time": "600",
        "inj": "0",
        "deaths": "0",
        "prop_dmg": "100k",
        "crop_dmg": "0",
        "begin": "02/22/1999",
        "county": "CLALLAM CO.",
        "state": "WA"
      },
      {
        "type": "Heavy+Rain",
        "time": "0",
        "inj": "0",
        "deaths": "0",
        "prop_dmg": "400k",
        "crop_dmg": "0",
        "begin": "10/20/2003",
        "county": "CLALLAM CO.",
        "state": "WA"
      },
      {
        "type": "Heavy+Rain",
        "time": "0",
        "inj": "0",
        "deaths": "0",
        "prop_dmg": "600k",
        "crop_dmg": "0",
        "begin": "01/05/2006",
        "county": "CLALLAM CO.",
        "state": "WA"
      },
      {
        "type": "Heavy+Rain",
        "time": "600",
        "inj": "0",
        "deaths": "0",
        "prop_dmg": "300k",
        "crop_dmg": "0",
        "begin": "01/28/2006",
        "county": "CLALLAM CO.",
        "state": "WA"
      },
      {
        "type": "Heavy+Rain",
        "time": "500",
        "inj": "0",
        "deaths": "0",
        "prop_dmg": "4.00M",
        "crop_dmg": "0",
        "begin": "01/07/2009",
        "county": "CLALLAM CO.",
        "state": "WA"
      }
    ],
    "Heavy_Snow": [
      {
        "type": "Heavy+Snow",
        "time": "1500",
        "inj": "0",
        "deaths": "0",
        "prop_dmg": "1.00M",
        "crop_dmg": "0",
        "begin": "11/26/2006",
        "county": "EASTERN STRAIT OF JUAN DE FUCA ",
        "state": "WA"
      },
      {
        "type": "Heavy+Snow",
        "time": "2000",
        "inj": "0",
        "deaths": "0",
        "prop_dmg": "500k",
        "crop_dmg": "0",
        "begin": "11/26/2006",
        "county": "NORTH COAST ",
        "state": "WA"
      },
      {
        "type": "Heavy+Snow",
        "time": "1000",
        "inj": "0",
        "deaths": "0",
        "prop_dmg": "5.00k",
        "crop_dmg": "0",
        "begin": "01/10/2007",
        "county": "EASTERN STRAIT OF JUAN DE FUCA ",
        "state": "WA"
      }
    ],
    "High_Surf": [],
    "High_Wind": [],
    "Ice_Storm": [],
    "Lakeshore_Flood": [],
    "Landslide": [],
    "Lightning": [],
    "Rip_Current": [],
    "Seiche": [],
    "Sleet": [],
    "Storm_Surge__FTide": [],
    "Strong_Wind": [],
    "Thunderstorm_Wind": [],
    "Tornado": [],
    "Tropical_Depression": [],
    "Tropical_Storm": [],
    "Tsunami": [],
    "Volcanic_Ashfall": [],
    "Waterspout": [],
    "Wildfire": [],
    "Winter_Storm": [],
    "Winter_Weather": []
  },
  "011": {
    "name": "Clark County",
    "fips": "WA",
    "pop10": "425363",
    "lat": 45.771674,
    "lon": -122.485903,
    "geoid": "53011",
    "deaths": 6,
    "prop_dmg": "26.5M",
    "crop_dmg": 0,
    "inj": 300,
    "all": 6,
    "eq": [],
    "Hurricane____Typhoon___": [],
    "Cold__FWind_Chill": [],
    "Coastal_Flood": [],
    "Avalanche": [],
    "Astronomical_Low_Tide": [],
    "Dense_Fog": [],
    "Drought": [],
    "Dust_Devil": [],
    "Dust_Storm": [],
    "Excessive_Heat": [],
    "Extreme_Cold__FWind_Chill": [],
    "Flash_Flood": [],
    "Flood": [
      {
        "type": "Flood",
        "time": "0",
        "inj": "0",
        "deaths": "0",
        "prop_dmg": "1.20M",
        "crop_dmg": "0",
        "begin": "06/01/2011",
        "county": "CLARK CO.",
        "state": "WA"
      }
    ],
    "Freezing_Fog": [],
    "Funnel_Cloud": [],
    "Hail": [],
    "Heat": [],
    "Heavy_Rain": [],
    "Heavy_Snow": [],
    "High_Surf": [],
    "High_Wind": [],
    "Ice_Storm": [
      {
        "type": "Ice+Storm",
        "time": "1400",
        "inj": "0",
        "deaths": "0",
        "prop_dmg": "250k",
        "crop_dmg": "0",
        "begin": "01/11/1998",
        "county": "SW CLARK ",
        "state": "WA"
      }
    ],
    "Lakeshore_Flood": [],
    "Landslide": [],
    "Lightning": [
      {
        "type": "Lightning",
        "time": "1500",
        "inj": "0",
        "deaths": "0",
        "prop_dmg": "10.0k",
        "crop_dmg": "0",
        "begin": "06/21/1997",
        "county": "CLARK CO.",
        "state": "WA"
      },
      {
        "type": "Lightning",
        "time": "1730",
        "inj": "0",
        "deaths": "0",
        "prop_dmg": "15.0k",
        "crop_dmg": "0",
        "begin": "08/04/1999",
        "county": "CLARK CO.",
        "state": "WA"
      },
      {
        "type": "Lightning",
        "time": "1200",
        "inj": "0",
        "deaths": "0",
        "prop_dmg": "6.00k",
        "crop_dmg": "0",
        "begin": "05/20/2005",
        "county": "CLARK CO.",
        "state": "WA"
      }
    ],
    "Rip_Current": [],
    "Seiche": [],
    "Sleet": [],
    "Storm_Surge__FTide": [],
    "Strong_Wind": [],
    "Thunderstorm_Wind": [],
    "Tornado": [
      {
        "type": "Tornado",
        "time": "1450",
        "inj": "300",
        "deaths": "6",
        "prop_dmg": "25.0M",
        "crop_dmg": "0",
        "begin": "04/05/1972",
        "county": "CLARK CO.",
        "state": "WA"
      }
    ],
    "Tropical_Depression": [],
    "Tropical_Storm": [],
    "Tsunami": [],
    "Volcanic_Ashfall": [],
    "Waterspout": [],
    "Wildfire": [],
    "Winter_Storm": [],
    "Winter_Weather": []
  },
  "013": {
    "name": "Columbia County",
    "fips": "WA",
    "pop10": "4078",
    "lat": 46.29285,
    "lon": -117.911634,
    "geoid": "53013",
    "deaths": 1,
    "prop_dmg": "2.50k",
    "crop_dmg": 0,
    "inj": 0,
    "all": 2,
    "eq": [],
    "Hurricane____Typhoon___": [],
    "Cold__FWind_Chill": [],
    "Coastal_Flood": [],
    "Avalanche": [],
    "Astronomical_Low_Tide": [],
    "Dense_Fog": [],
    "Drought": [],
    "Dust_Devil": [],
    "Dust_Storm": [],
    "Excessive_Heat": [
      {
        "type": "Excessive+Heat",
        "time": "1200",
        "inj": "0",
        "deaths": "1",
        "prop_dmg": "0",
        "crop_dmg": "0",
        "begin": "07/25/2010",
        "county": "BLUE MOUNTAIN FOOTHILLS ",
        "state": "WA"
      }
    ],
    "Extreme_Cold__FWind_Chill": [],
    "Flash_Flood": [],
    "Flood": [],
    "Freezing_Fog": [],
    "Funnel_Cloud": [],
    "Hail": [],
    "Heat": [],
    "Heavy_Rain": [],
    "Heavy_Snow": [],
    "High_Surf": [],
    "High_Wind": [],
    "Ice_Storm": [],
    "Lakeshore_Flood": [],
    "Landslide": [],
    "Lightning": [],
    "Rip_Current": [],
    "Seiche": [],
    "Sleet": [],
    "Storm_Surge__FTide": [],
    "Strong_Wind": [],
    "Thunderstorm_Wind": [],
    "Tornado": [
      {
        "type": "Tornado",
        "time": "1330",
        "inj": "0",
        "deaths": "0",
        "prop_dmg": "2.50k",
        "crop_dmg": "0",
        "begin": "03/14/1966",
        "county": "COLUMBIA CO.",
        "state": "WA"
      }
    ],
    "Tropical_Depression": [],
    "Tropical_Storm": [],
    "Tsunami": [],
    "Volcanic_Ashfall": [],
    "Waterspout": [],
    "Wildfire": [],
    "Winter_Storm": [],
    "Winter_Weather": []
  },
  "015": {
    "name": "Cowlitz County",
    "fips": "WA",
    "pop10": "102410",
    "lat": 46.185923,
    "lon": -122.658682,
    "geoid": "53015",
    "deaths": 0,
    "prop_dmg": "34.0k",
    "crop_dmg": 0,
    "inj": 4,
    "all": 2,
    "eq": [],
    "Hurricane____Typhoon___": [],
    "Cold__FWind_Chill": [],
    "Coastal_Flood": [],
    "Avalanche": [],
    "Astronomical_Low_Tide": [],
    "Dense_Fog": [],
    "Drought": [],
    "Dust_Devil": [],
    "Dust_Storm": [],
    "Excessive_Heat": [],
    "Extreme_Cold__FWind_Chill": [],
    "Flash_Flood": [],
    "Flood": [
      {
        "type": "Flood",
        "time": "700",
        "inj": "0",
        "deaths": "0",
        "prop_dmg": "34.0k",
        "crop_dmg": "0",
        "begin": "01/31/2003",
        "county": "LOWER COLUMBIA ",
        "state": "WA"
      }
    ],
    "Freezing_Fog": [],
    "Funnel_Cloud": [],
    "Hail": [],
    "Heat": [],
    "Heavy_Rain": [
      {
        "type": "Heavy+Rain",
        "time": "1540",
        "inj": "4",
        "deaths": "0",
        "prop_dmg": "0",
        "crop_dmg": "0",
        "begin": "05/27/2004",
        "county": "COWLITZ CO.",
        "state": "WA"
      }
    ],
    "Heavy_Snow": [],
    "High_Surf": [],
    "High_Wind": [],
    "Ice_Storm": [],
    "Lakeshore_Flood": [],
    "Landslide": [],
    "Lightning": [],
    "Rip_Current": [],
    "Seiche": [],
    "Sleet": [],
    "Storm_Surge__FTide": [],
    "Strong_Wind": [],
    "Thunderstorm_Wind": [],
    "Tornado": [],
    "Tropical_Depression": [],
    "Tropical_Storm": [],
    "Tsunami": [],
    "Volcanic_Ashfall": [],
    "Waterspout": [],
    "Wildfire": [],
    "Winter_Storm": [],
    "Winter_Weather": []
  },
  "017": {
    "name": "Douglas County",
    "fips": "WA",
    "pop10": "38431",
    "lat": 47.735866,
    "lon": -119.69588,
    "geoid": "53017",
    "deaths": 0,
    "prop_dmg": "8.00M",
    "crop_dmg": "10.0M",
    "inj": 5,
    "all": 11,
    "eq": [],
    "Hurricane____Typhoon___": [],
    "Cold__FWind_Chill": [],
    "Coastal_Flood": [],
    "Avalanche": [],
    "Astronomical_Low_Tide": [],
    "Dense_Fog": [],
    "Drought": [],
    "Dust_Devil": [],
    "Dust_Storm": [],
    "Excessive_Heat": [],
    "Extreme_Cold__FWind_Chill": [],
    "Flash_Flood": [],
    "Flood": [],
    "Freezing_Fog": [],
    "Funnel_Cloud": [],
    "Hail": [],
    "Heat": [],
    "Heavy_Rain": [
      {
        "type": "Heavy+Rain",
        "time": "1800",
        "inj": "0",
        "deaths": "0",
        "prop_dmg": "0",
        "crop_dmg": "10.0M",
        "begin": "06/26/2001",
        "county": "DOUGLAS CO.",
        "state": "WA"
      }
    ],
    "Heavy_Snow": [],
    "High_Surf": [],
    "High_Wind": [],
    "Ice_Storm": [],
    "Lakeshore_Flood": [],
    "Landslide": [],
    "Lightning": [],
    "Rip_Current": [],
    "Seiche": [],
    "Sleet": [],
    "Storm_Surge__FTide": [],
    "Strong_Wind": [],
    "Thunderstorm_Wind": [],
    "Tornado": [],
    "Tropical_Depression": [],
    "Tropical_Storm": [],
    "Tsunami": [],
    "Volcanic_Ashfall": [],
    "Waterspout": [],
    "Wildfire": [
      {
        "type": "Wildfire",
        "time": "0",
        "inj": "0",
        "deaths": "0",
        "prop_dmg": "500",
        "crop_dmg": "0",
        "begin": "07/07/2007",
        "county": "WENATCHEE AREA ",
        "state": "WA"
      },
      {
        "type": "Wildfire",
        "time": "1252",
        "inj": "0",
        "deaths": "0",
        "prop_dmg": "1.00k",
        "crop_dmg": "0",
        "begin": "07/15/2012",
        "county": "WATERVILLE PLATEAU ",
        "state": "WA"
      },
      {
        "type": "Wildfire",
        "time": "2300",
        "inj": "0",
        "deaths": "0",
        "prop_dmg": "0",
        "crop_dmg": "10.0k",
        "begin": "07/12/2012",
        "county": "WATERVILLE PLATEAU ",
        "state": "WA"
      },
      {
        "type": "Wildfire",
        "time": "1127",
        "inj": "0",
        "deaths": "0",
        "prop_dmg": "100k",
        "crop_dmg": "0",
        "begin": "08/01/2012",
        "county": "WATERVILLE PLATEAU ",
        "state": "WA"
      },
      {
        "type": "Wildfire",
        "time": "2000",
        "inj": "0",
        "deaths": "0",
        "prop_dmg": "600k",
        "crop_dmg": "0",
        "begin": "09/08/2012",
        "county": "WATERVILLE PLATEAU ",
        "state": "WA"
      },
      {
        "type": "Wildfire",
        "time": "700",
        "inj": "2",
        "deaths": "0",
        "prop_dmg": "3.50M",
        "crop_dmg": "0",
        "begin": "07/27/2013",
        "county": "WENATCHEE AREA ",
        "state": "WA"
      },
      {
        "type": "Wildfire",
        "time": "0",
        "inj": "0",
        "deaths": "0",
        "prop_dmg": "3.50M",
        "crop_dmg": "0",
        "begin": "08/01/2013",
        "county": "WENATCHEE AREA ",
        "state": "WA"
      },
      {
        "type": "Wildfire",
        "time": "2300",
        "inj": "0",
        "deaths": "0",
        "prop_dmg": "50.0k",
        "crop_dmg": "0",
        "begin": "06/08/2014",
        "county": "WENATCHEE AREA ",
        "state": "WA"
      }
    ],
    "Winter_Storm": [],
    "Winter_Weather": [
      {
        "type": "Winter+Weather",
        "time": "2100",
        "inj": "0",
        "deaths": "0",
        "prop_dmg": "250k",
        "crop_dmg": "0",
        "begin": "11/24/2005",
        "county": "WATERVILLE PLATEAU ",
        "state": "WA"
      },
      {
        "type": "Winter+Weather",
        "time": "630",
        "inj": "3",
        "deaths": "0",
        "prop_dmg": "0",
        "crop_dmg": "0",
        "begin": "02/01/2006",
        "county": "WENATCHEE AREA ",
        "state": "WA"
      }
    ]
  },
  "019": {
    "name": "Ferry County",
    "fips": "WA",
    "pop10": "7551",
    "lat": 48.437246,
    "lon": -118.517074,
    "geoid": "53019",
    "deaths": 0,
    "prop_dmg": "177k",
    "crop_dmg": "60.0k",
    "inj": 0,
    "all": 5,
    "eq": [],
    "Hurricane____Typhoon___": [],
    "Cold__FWind_Chill": [],
    "Coastal_Flood": [],
    "Avalanche": [],
    "Astronomical_Low_Tide": [],
    "Dense_Fog": [],
    "Drought": [],
    "Dust_Devil": [],
    "Dust_Storm": [],
    "Excessive_Heat": [],
    "Extreme_Cold__FWind_Chill": [],
    "Flash_Flood": [],
    "Flood": [
      {
        "type": "Flood",
        "time": "300",
        "inj": "0",
        "deaths": "0",
        "prop_dmg": "100k",
        "crop_dmg": "0",
        "begin": "03/15/2012",
        "county": "FERRY CO.",
        "state": "WA"
      }
    ],
    "Freezing_Fog": [],
    "Funnel_Cloud": [],
    "Hail": [],
    "Heat": [],
    "Heavy_Rain": [
      {
        "type": "Heavy+Rain",
        "time": "1900",
        "inj": "0",
        "deaths": "0",
        "prop_dmg": "5.00k",
        "crop_dmg": "0",
        "begin": "06/24/1999",
        "county": "FERRY CO.",
        "state": "WA"
      }
    ],
    "Heavy_Snow": [],
    "High_Surf": [],
    "High_Wind": [],
    "Ice_Storm": [],
    "Lakeshore_Flood": [],
    "Landslide": [],
    "Lightning": [
      {
        "type": "Lightning",
        "time": "1700",
        "inj": "0",
        "deaths": "0",
        "prop_dmg": "20.0k",
        "crop_dmg": "0",
        "begin": "08/06/1997",
        "county": "FERRY CO.",
        "state": "WA"
      }
    ],
    "Rip_Current": [],
    "Seiche": [],
    "Sleet": [],
    "Storm_Surge__FTide": [],
    "Strong_Wind": [],
    "Thunderstorm_Wind": [],
    "Tornado": [],
    "Tropical_Depression": [],
    "Tropical_Storm": [],
    "Tsunami": [],
    "Volcanic_Ashfall": [],
    "Waterspout": [],
    "Wildfire": [
      {
        "type": "Wildfire",
        "time": "2200",
        "inj": "0",
        "deaths": "0",
        "prop_dmg": "50.0k",
        "crop_dmg": "60.0k",
        "begin": "08/21/1998",
        "county": "FERRY CO.",
        "state": "WA"
      },
      {
        "type": "Wildfire",
        "time": "1845",
        "inj": "0",
        "deaths": "0",
        "prop_dmg": "2.00k",
        "crop_dmg": "0",
        "begin": "08/02/2014",
        "county": "OKANOGAN HIGHLANDS ",
        "state": "WA"
      }
    ],
    "Winter_Storm": [],
    "Winter_Weather": []
  },
  "021": {
    "name": "Franklin County",
    "fips": "WA",
    "pop10": "78163",
    "lat": 46.53458,
    "lon": -118.906944,
    "geoid": "53021",
    "deaths": 1,
    "prop_dmg": "271k",
    "crop_dmg": 0,
    "inj": 37,
    "all": 8,
    "eq": [],
    "Hurricane____Typhoon___": [],
    "Cold__FWind_Chill": [],
    "Coastal_Flood": [],
    "Avalanche": [],
    "Astronomical_Low_Tide": [],
    "Dense_Fog": [
      {
        "type": "Dense+Fog",
        "time": "700",
        "inj": "0",
        "deaths": "0",
        "prop_dmg": "50.0k",
        "crop_dmg": "0",
        "begin": "10/24/2000",
        "county": "BENTON/FRANKLIN/WALLA WALLA T SE/E KLICKITAT ",
        "state": "WA"
      },
      {
        "type": "Dense+Fog",
        "time": "830",
        "inj": "3",
        "deaths": "0",
        "prop_dmg": "140k",
        "crop_dmg": "0",
        "begin": "01/23/2001",
        "county": "LOWER COLUMBIA BASIN ",
        "state": "WA"
      }
    ],
    "Drought": [],
    "Dust_Devil": [],
    "Dust_Storm": [
      {
        "type": "Dust+Storm",
        "time": "1456",
        "inj": "20",
        "deaths": "0",
        "prop_dmg": "0",
        "crop_dmg": "0",
        "begin": "10/28/2003",
        "county": "LOWER COLUMBIA BASIN ",
        "state": "WA"
      },
      {
        "type": "Dust+Storm",
        "time": "1030",
        "inj": "0",
        "deaths": "0",
        "prop_dmg": "30.0k",
        "crop_dmg": "0",
        "begin": "03/15/2009",
        "county": "LOWER COLUMBIA BASIN ",
        "state": "WA"
      },
      {
        "type": "Dust+Storm",
        "time": "1430",
        "inj": "9",
        "deaths": "0",
        "prop_dmg": "0",
        "crop_dmg": "0",
        "begin": "08/30/2014",
        "county": "LOWER COLUMBIA BASIN ",
        "state": "WA"
      }
    ],
    "Excessive_Heat": [],
    "Extreme_Cold__FWind_Chill": [],
    "Flash_Flood": [],
    "Flood": [],
    "Freezing_Fog": [],
    "Funnel_Cloud": [],
    "Hail": [],
    "Heat": [],
    "Heavy_Rain": [],
    "Heavy_Snow": [],
    "High_Surf": [],
    "High_Wind": [],
    "Ice_Storm": [
      {
        "type": "Ice+Storm",
        "time": "1600",
        "inj": "5",
        "deaths": "1",
        "prop_dmg": "0",
        "crop_dmg": "0",
        "begin": "01/16/1997",
        "county": "LOWER COLUMBIA BASIN ",
        "state": "WA"
      }
    ],
    "Lakeshore_Flood": [],
    "Landslide": [],
    "Lightning": [
      {
        "type": "Lightning",
        "time": "145",
        "inj": "0",
        "deaths": "0",
        "prop_dmg": "5.00k",
        "crop_dmg": "0",
        "begin": "06/30/2008",
        "county": "FRANKLIN CO.",
        "state": "WA"
      }
    ],
    "Rip_Current": [],
    "Seiche": [],
    "Sleet": [],
    "Storm_Surge__FTide": [],
    "Strong_Wind": [],
    "Thunderstorm_Wind": [],
    "Tornado": [],
    "Tropical_Depression": [],
    "Tropical_Storm": [],
    "Tsunami": [],
    "Volcanic_Ashfall": [],
    "Waterspout": [],
    "Wildfire": [
      {
        "type": "Wildfire",
        "time": "1600",
        "inj": "0",
        "deaths": "0",
        "prop_dmg": "46.0k",
        "crop_dmg": "0",
        "begin": "06/25/2005",
        "county": "LOWER COLUMBIA BASIN ",
        "state": "WA"
      }
    ],
    "Winter_Storm": [],
    "Winter_Weather": []
  },
  "023": {
    "name": "Garfield County",
    "fips": "WA",
    "pop10": "2266",
    "lat": 46.429474,
    "lon": -117.536714,
    "geoid": "53023",
    "deaths": 0,
    "prop_dmg": 0,
    "crop_dmg": 0,
    "inj": 0,
    "all": 0,
    "eq": [],
    "Hurricane____Typhoon___": [],
    "Cold__FWind_Chill": [],
    "Coastal_Flood": [],
    "Avalanche": [],
    "Astronomical_Low_Tide": [],
    "Dense_Fog": [],
    "Drought": [],
    "Dust_Devil": [],
    "Dust_Storm": [],
    "Excessive_Heat": [],
    "Extreme_Cold__FWind_Chill": [],
    "Flash_Flood": [],
    "Flood": [],
    "Freezing_Fog": [],
    "Funnel_Cloud": [],
    "Hail": [],
    "Heat": [],
    "Heavy_Rain": [],
    "Heavy_Snow": [],
    "High_Surf": [],
    "High_Wind": [],
    "Ice_Storm": [],
    "Lakeshore_Flood": [],
    "Landslide": [],
    "Lightning": [],
    "Rip_Current": [],
    "Seiche": [],
    "Sleet": [],
    "Storm_Surge__FTide": [],
    "Strong_Wind": [],
    "Thunderstorm_Wind": [],
    "Tornado": [],
    "Tropical_Depression": [],
    "Tropical_Storm": [],
    "Tsunami": [],
    "Volcanic_Ashfall": [],
    "Waterspout": [],
    "Wildfire": [],
    "Winter_Storm": [],
    "Winter_Weather": []
  },
  "025": {
    "name": "Grant County",
    "fips": "WA",
    "pop10": "89120",
    "lat": 47.213633,
    "lon": -119.467788,
    "geoid": "53025",
    "deaths": 1,
    "prop_dmg": "1.60M",
    "crop_dmg": "6.24M",
    "inj": 4,
    "all": 13,
    "eq": [],
    "Hurricane____Typhoon___": [],
    "Cold__FWind_Chill": [],
    "Coastal_Flood": [],
    "Avalanche": [],
    "Astronomical_Low_Tide": [],
    "Dense_Fog": [],
    "Drought": [],
    "Dust_Devil": [],
    "Dust_Storm": [
      {
        "type": "Dust+Storm",
        "time": "1300",
        "inj": "4",
        "deaths": "0",
        "prop_dmg": "60.0k",
        "crop_dmg": "0",
        "begin": "09/25/1999",
        "county": "S GRANT & SW ADAMS ",
        "state": "WA"
      }
    ],
    "Excessive_Heat": [],
    "Extreme_Cold__FWind_Chill": [],
    "Flash_Flood": [
      {
        "type": "Flash+Flood",
        "time": "1545",
        "inj": "0",
        "deaths": "0",
        "prop_dmg": "10.0k",
        "crop_dmg": "10.0k",
        "begin": "06/06/2009",
        "county": "GRANT CO.",
        "state": "WA"
      },
      {
        "type": "Flash+Flood",
        "time": "1210",
        "inj": "0",
        "deaths": "0",
        "prop_dmg": "15.0k",
        "crop_dmg": "0",
        "begin": "07/20/2012",
        "county": "GRANT CO.",
        "state": "WA"
      }
    ],
    "Flood": [],
    "Freezing_Fog": [],
    "Funnel_Cloud": [],
    "Hail": [],
    "Heat": [],
    "Heavy_Rain": [
      {
        "type": "Heavy+Rain",
        "time": "1800",
        "inj": "0",
        "deaths": "0",
        "prop_dmg": "0",
        "crop_dmg": "500k",
        "begin": "06/26/2001",
        "county": "GRANT CO.",
        "state": "WA"
      },
      {
        "type": "Heavy+Rain",
        "time": "900",
        "inj": "0",
        "deaths": "0",
        "prop_dmg": "0",
        "crop_dmg": "15.0k",
        "begin": "06/24/2013",
        "county": "GRANT CO.",
        "state": "WA"
      }
    ],
    "Heavy_Snow": [],
    "High_Surf": [],
    "High_Wind": [],
    "Ice_Storm": [
      {
        "type": "Ice+Storm",
        "time": "830",
        "inj": "0",
        "deaths": "1",
        "prop_dmg": "1.30M",
        "crop_dmg": "5.70M",
        "begin": "11/19/1996",
        "county": "MOSES LAKE AREA ",
        "state": "WA"
      }
    ],
    "Lakeshore_Flood": [],
    "Landslide": [],
    "Lightning": [
      {
        "type": "Lightning",
        "time": "0",
        "inj": "0",
        "deaths": "0",
        "prop_dmg": "20.0k",
        "crop_dmg": "0",
        "begin": "08/06/1999",
        "county": "GRANT CO.",
        "state": "WA"
      },
      {
        "type": "Lightning",
        "time": "2200",
        "inj": "0",
        "deaths": "0",
        "prop_dmg": "150k",
        "crop_dmg": "0",
        "begin": "07/07/2002",
        "county": "GRANT CO.",
        "state": "WA"
      },
      {
        "type": "Lightning",
        "time": "1915",
        "inj": "0",
        "deaths": "0",
        "prop_dmg": "7.00k",
        "crop_dmg": "0",
        "begin": "05/18/2006",
        "county": "GRANT CO.",
        "state": "WA"
      }
    ],
    "Rip_Current": [],
    "Seiche": [],
    "Sleet": [],
    "Storm_Surge__FTide": [],
    "Strong_Wind": [],
    "Thunderstorm_Wind": [],
    "Tornado": [
      {
        "type": "Tornado",
        "time": "1830",
        "inj": "0",
        "deaths": "0",
        "prop_dmg": "25.0k",
        "crop_dmg": "0",
        "begin": "04/05/1972",
        "county": "GRANT CO.",
        "state": "WA"
      }
    ],
    "Tropical_Depression": [],
    "Tropical_Storm": [],
    "Tsunami": [],
    "Volcanic_Ashfall": [],
    "Waterspout": [],
    "Wildfire": [
      {
        "type": "Wildfire",
        "time": "0",
        "inj": "0",
        "deaths": "0",
        "prop_dmg": "2.00k",
        "crop_dmg": "0",
        "begin": "07/13/2008",
        "county": "MOSES LAKE AREA ",
        "state": "WA"
      },
      {
        "type": "Wildfire",
        "time": "1300",
        "inj": "0",
        "deaths": "0",
        "prop_dmg": "12.0k",
        "crop_dmg": "0",
        "begin": "05/25/2012",
        "county": "MOSES LAKE AREA ",
        "state": "WA"
      },
      {
        "type": "Wildfire",
        "time": "1500",
        "inj": "0",
        "deaths": "0",
        "prop_dmg": "0",
        "crop_dmg": "10.0k",
        "begin": "07/14/2014",
        "county": "MOSES LAKE AREA ",
        "state": "WA"
      }
    ],
    "Winter_Storm": [],
    "Winter_Weather": []
  },
  "027": {
    "name": "Grays Harbor County",
    "fips": "WA",
    "pop10": "72797",
    "lat": 47.142786,
    "lon": -123.827043,
    "geoid": "53027",
    "deaths": 1,
    "prop_dmg": "6.76M",
    "crop_dmg": 0,
    "inj": 0,
    "all": 8,
    "eq": [],
    "Hurricane____Typhoon___": [],
    "Cold__FWind_Chill": [],
    "Coastal_Flood": [],
    "Avalanche": [],
    "Astronomical_Low_Tide": [],
    "Dense_Fog": [],
    "Drought": [],
    "Dust_Devil": [],
    "Dust_Storm": [],
    "Excessive_Heat": [],
    "Extreme_Cold__FWind_Chill": [],
    "Flash_Flood": [],
    "Flood": [
      {
        "type": "Flood",
        "time": "800",
        "inj": "0",
        "deaths": "0",
        "prop_dmg": "1.20M",
        "crop_dmg": "0",
        "begin": "01/07/2009",
        "county": "GRAYS HARBOR CO.",
        "state": "WA"
      }
    ],
    "Freezing_Fog": [],
    "Funnel_Cloud": [],
    "Hail": [],
    "Heat": [],
    "Heavy_Rain": [
      {
        "type": "Heavy+Rain",
        "time": "400",
        "inj": "0",
        "deaths": "0",
        "prop_dmg": "1.20M",
        "crop_dmg": "0",
        "begin": "03/15/1997",
        "county": "GRAYS HARBOR CO.",
        "state": "WA"
      },
      {
        "type": "Heavy+Rain",
        "time": "0",
        "inj": "0",
        "deaths": "0",
        "prop_dmg": "100k",
        "crop_dmg": "0",
        "begin": "10/20/2003",
        "county": "GRAYS HARBOR CO.",
        "state": "WA"
      },
      {
        "type": "Heavy+Rain",
        "time": "0",
        "inj": "0",
        "deaths": "0",
        "prop_dmg": "2.90M",
        "crop_dmg": "0",
        "begin": "01/05/2006",
        "county": "GRAYS HARBOR CO.",
        "state": "WA"
      }
    ],
    "Heavy_Snow": [],
    "High_Surf": [],
    "High_Wind": [],
    "Ice_Storm": [
      {
        "type": "Ice+Storm",
        "time": "0",
        "inj": "0",
        "deaths": "0",
        "prop_dmg": "350k",
        "crop_dmg": "0",
        "begin": "01/19/2012",
        "county": "CENTRAL COAST ",
        "state": "WA"
      }
    ],
    "Lakeshore_Flood": [],
    "Landslide": [],
    "Lightning": [],
    "Rip_Current": [
      {
        "type": "Rip+Current",
        "time": "2100",
        "inj": "0",
        "deaths": "1",
        "prop_dmg": "0",
        "crop_dmg": "0",
        "begin": "07/26/2014",
        "county": "CENTRAL COAST ",
        "state": "WA"
      }
    ],
    "Seiche": [],
    "Sleet": [],
    "Storm_Surge__FTide": [
      {
        "type": "Storm+Surge%2FTide",
        "time": "0",
        "inj": "0",
        "deaths": "0",
        "prop_dmg": "1.00M",
        "crop_dmg": "0",
        "begin": "03/03/1999",
        "county": "GRAYS HARBOR CO.",
        "state": "WA"
      },
      {
        "type": "Storm+Surge%2FTide",
        "time": "300",
        "inj": "0",
        "deaths": "0",
        "prop_dmg": "5.00k",
        "crop_dmg": "0",
        "begin": "11/08/2002",
        "county": "GRAYS HARBOR CO.",
        "state": "WA"
      }
    ],
    "Strong_Wind": [],
    "Thunderstorm_Wind": [],
    "Tornado": [],
    "Tropical_Depression": [],
    "Tropical_Storm": [],
    "Tsunami": [],
    "Volcanic_Ashfall": [],
    "Waterspout": [],
    "Wildfire": [],
    "Winter_Storm": [],
    "Winter_Weather": []
  },
  "029": {
    "name": "Island County",
    "fips": "WA",
    "pop10": "78506",
    "lat": 48.158436,
    "lon": -122.670503,
    "geoid": "53029",
    "deaths": 0,
    "prop_dmg": "4.00M",
    "crop_dmg": 0,
    "inj": 0,
    "all": 1,
    "eq": [],
    "Hurricane____Typhoon___": [],
    "Cold__FWind_Chill": [],
    "Coastal_Flood": [],
    "Avalanche": [],
    "Astronomical_Low_Tide": [],
    "Dense_Fog": [],
    "Drought": [],
    "Dust_Devil": [],
    "Dust_Storm": [],
    "Excessive_Heat": [],
    "Extreme_Cold__FWind_Chill": [],
    "Flash_Flood": [],
    "Flood": [],
    "Freezing_Fog": [],
    "Funnel_Cloud": [],
    "Hail": [],
    "Heat": [],
    "Heavy_Rain": [],
    "Heavy_Snow": [
      {
        "type": "Heavy+Snow",
        "time": "1500",
        "inj": "0",
        "deaths": "0",
        "prop_dmg": "4.00M",
        "crop_dmg": "0",
        "begin": "11/26/2006",
        "county": "ADMIRALTY INLET AREA ",
        "state": "WA"
      }
    ],
    "High_Surf": [],
    "High_Wind": [],
    "Ice_Storm": [],
    "Lakeshore_Flood": [],
    "Landslide": [],
    "Lightning": [],
    "Rip_Current": [],
    "Seiche": [],
    "Sleet": [],
    "Storm_Surge__FTide": [],
    "Strong_Wind": [],
    "Thunderstorm_Wind": [],
    "Tornado": [],
    "Tropical_Depression": [],
    "Tropical_Storm": [],
    "Tsunami": [],
    "Volcanic_Ashfall": [],
    "Waterspout": [],
    "Wildfire": [],
    "Winter_Storm": [],
    "Winter_Weather": []
  },
  "031": {
    "name": "Jefferson County",
    "fips": "WA",
    "pop10": "29872",
    "lat": 47.802641,
    "lon": -123.52181,
    "geoid": "53031",
    "deaths": 1,
    "prop_dmg": "7.03M",
    "crop_dmg": 0,
    "inj": 0,
    "all": 7,
    "eq": [],
    "Hurricane____Typhoon___": [],
    "Cold__FWind_Chill": [],
    "Coastal_Flood": [],
    "Avalanche": [],
    "Astronomical_Low_Tide": [],
    "Dense_Fog": [],
    "Drought": [],
    "Dust_Devil": [],
    "Dust_Storm": [],
    "Excessive_Heat": [],
    "Extreme_Cold__FWind_Chill": [],
    "Flash_Flood": [],
    "Flood": [],
    "Freezing_Fog": [],
    "Funnel_Cloud": [],
    "Hail": [],
    "Heat": [],
    "Heavy_Rain": [
      {
        "type": "Heavy+Rain",
        "time": "800",
        "inj": "0",
        "deaths": "1",
        "prop_dmg": "0",
        "crop_dmg": "0",
        "begin": "08/21/2001",
        "county": "JEFFERSON CO.",
        "state": "WA"
      },
      {
        "type": "Heavy+Rain",
        "time": "0",
        "inj": "0",
        "deaths": "0",
        "prop_dmg": "800k",
        "crop_dmg": "0",
        "begin": "10/20/2003",
        "county": "JEFFERSON CO.",
        "state": "WA"
      },
      {
        "type": "Heavy+Rain",
        "time": "0",
        "inj": "0",
        "deaths": "0",
        "prop_dmg": "700k",
        "crop_dmg": "0",
        "begin": "01/05/2006",
        "county": "JEFFERSON CO.",
        "state": "WA"
      },
      {
        "type": "Heavy+Rain",
        "time": "900",
        "inj": "0",
        "deaths": "0",
        "prop_dmg": "5.50M",
        "crop_dmg": "0",
        "begin": "11/04/2006",
        "county": "JEFFERSON CO.",
        "state": "WA"
      }
    ],
    "Heavy_Snow": [],
    "High_Surf": [],
    "High_Wind": [],
    "Ice_Storm": [],
    "Lakeshore_Flood": [],
    "Landslide": [],
    "Lightning": [
      {
        "type": "Lightning",
        "time": "200",
        "inj": "0",
        "deaths": "0",
        "prop_dmg": "15.5k",
        "crop_dmg": "0",
        "begin": "08/05/1999",
        "county": "JEFFERSON CO.",
        "state": "WA"
      },
      {
        "type": "Lightning",
        "time": "1000",
        "inj": "0",
        "deaths": "0",
        "prop_dmg": "5.00k",
        "crop_dmg": "0",
        "begin": "08/17/2004",
        "county": "JEFFERSON CO.",
        "state": "WA"
      },
      {
        "type": "Lightning",
        "time": "1200",
        "inj": "0",
        "deaths": "0",
        "prop_dmg": "9.00k",
        "crop_dmg": "0",
        "begin": "07/13/2012",
        "county": "JEFFERSON CO.",
        "state": "WA"
      }
    ],
    "Rip_Current": [],
    "Seiche": [],
    "Sleet": [],
    "Storm_Surge__FTide": [],
    "Strong_Wind": [],
    "Thunderstorm_Wind": [],
    "Tornado": [],
    "Tropical_Depression": [],
    "Tropical_Storm": [],
    "Tsunami": [],
    "Volcanic_Ashfall": [],
    "Waterspout": [],
    "Wildfire": [],
    "Winter_Storm": [],
    "Winter_Weather": []
  },
  "033": {
    "name": "King County",
    "fips": "WA",
    "pop10": "1931249",
    "lat": 47.493554,
    "lon": -121.832375,
    "geoid": "53033",
    "deaths": 7,
    "prop_dmg": "21.4M",
    "crop_dmg": 0,
    "inj": 21,
    "all": 21,
    "eq": [
      {
        "type": "earthquake",
        "begin": "4/29/1965",
        "inj": "",
        "prop_dmg": "      28.000",
        "crop_dmg": "",
        "county": "WASHINGTON:  SEATTLE",
        "state": "WA",
        "deaths": "       7"
      }
    ],
    "Hurricane____Typhoon___": [],
    "Cold__FWind_Chill": [],
    "Coastal_Flood": [],
    "Avalanche": [],
    "Astronomical_Low_Tide": [],
    "Dense_Fog": [],
    "Drought": [],
    "Dust_Devil": [],
    "Dust_Storm": [],
    "Excessive_Heat": [],
    "Extreme_Cold__FWind_Chill": [],
    "Flash_Flood": [],
    "Flood": [
      {
        "type": "Flood",
        "time": "400",
        "inj": "0",
        "deaths": "0",
        "prop_dmg": "14.0M",
        "crop_dmg": "0",
        "begin": "01/07/2009",
        "county": "KING CO.",
        "state": "WA"
      },
      {
        "type": "Flood",
        "time": "1700",
        "inj": "0",
        "deaths": "0",
        "prop_dmg": "20.0k",
        "crop_dmg": "0",
        "begin": "01/16/2011",
        "county": "KING CO.",
        "state": "WA"
      }
    ],
    "Freezing_Fog": [],
    "Funnel_Cloud": [],
    "Hail": [],
    "Heat": [],
    "Heavy_Rain": [
      {
        "type": "Heavy+Rain",
        "time": "0",
        "inj": "0",
        "deaths": "0",
        "prop_dmg": "5.50M",
        "crop_dmg": "0",
        "begin": "03/01/1999",
        "county": "KING CO.",
        "state": "WA"
      },
      {
        "type": "Heavy+Rain",
        "time": "1100",
        "inj": "0",
        "deaths": "0",
        "prop_dmg": "85.0k",
        "crop_dmg": "0",
        "begin": "11/17/1999",
        "county": "KING CO.",
        "state": "WA"
      },
      {
        "type": "Heavy+Rain",
        "time": "1415",
        "inj": "15",
        "deaths": "0",
        "prop_dmg": "0",
        "crop_dmg": "0",
        "begin": "01/14/2000",
        "county": "KING CO.",
        "state": "WA"
      },
      {
        "type": "Heavy+Rain",
        "time": "200",
        "inj": "0",
        "deaths": "0",
        "prop_dmg": "5.00k",
        "crop_dmg": "0",
        "begin": "09/08/2003",
        "county": "KING CO.",
        "state": "WA"
      },
      {
        "type": "Heavy+Rain",
        "time": "0",
        "inj": "0",
        "deaths": "0",
        "prop_dmg": "100k",
        "crop_dmg": "0",
        "begin": "10/20/2003",
        "county": "KING CO.",
        "state": "WA"
      },
      {
        "type": "Heavy+Rain",
        "time": "600",
        "inj": "0",
        "deaths": "0",
        "prop_dmg": "50.0k",
        "crop_dmg": "0",
        "begin": "08/22/2004",
        "county": "KING CO.",
        "state": "WA"
      },
      {
        "type": "Heavy+Rain",
        "time": "0",
        "inj": "0",
        "deaths": "0",
        "prop_dmg": "800k",
        "crop_dmg": "0",
        "begin": "01/05/2006",
        "county": "KING CO.",
        "state": "WA"
      }
    ],
    "Heavy_Snow": [],
    "High_Surf": [],
    "High_Wind": [],
    "Ice_Storm": [],
    "Lakeshore_Flood": [],
    "Landslide": [],
    "Lightning": [
      {
        "type": "Lightning",
        "time": "1500",
        "inj": "1",
        "deaths": "0",
        "prop_dmg": "0",
        "crop_dmg": "0",
        "begin": "04/03/1997",
        "county": "KING CO.",
        "state": "WA"
      },
      {
        "type": "Lightning",
        "time": "1230",
        "inj": "2",
        "deaths": "0",
        "prop_dmg": "0",
        "crop_dmg": "0",
        "begin": "07/05/1997",
        "county": "KING CO.",
        "state": "WA"
      },
      {
        "type": "Lightning",
        "time": "1800",
        "inj": "0",
        "deaths": "0",
        "prop_dmg": "130k",
        "crop_dmg": "0",
        "begin": "07/16/1999",
        "county": "KING CO.",
        "state": "WA"
      },
      {
        "type": "Lightning",
        "time": "1800",
        "inj": "2",
        "deaths": "0",
        "prop_dmg": "650k",
        "crop_dmg": "0",
        "begin": "08/03/1999",
        "county": "KING CO.",
        "state": "WA"
      },
      {
        "type": "Lightning",
        "time": "1800",
        "inj": "0",
        "deaths": "0",
        "prop_dmg": "1.00k",
        "crop_dmg": "0",
        "begin": "02/04/2005",
        "county": "KING CO.",
        "state": "WA"
      },
      {
        "type": "Lightning",
        "time": "820",
        "inj": "0",
        "deaths": "0",
        "prop_dmg": "5.00k",
        "crop_dmg": "0",
        "begin": "07/13/2007",
        "county": "KING CO.",
        "state": "WA"
      },
      {
        "type": "Lightning",
        "time": "1125",
        "inj": "1",
        "deaths": "0",
        "prop_dmg": "1.00k",
        "crop_dmg": "0",
        "begin": "07/13/2012",
        "county": "KING CO.",
        "state": "WA"
      },
      {
        "type": "Lightning",
        "time": "100",
        "inj": "0",
        "deaths": "0",
        "prop_dmg": "5.00k",
        "crop_dmg": "0",
        "begin": "07/17/2013",
        "county": "KING CO.",
        "state": "WA"
      },
      {
        "type": "Lightning",
        "time": "1800",
        "inj": "0",
        "deaths": "0",
        "prop_dmg": "10.0k",
        "crop_dmg": "0",
        "begin": "07/31/2013",
        "county": "KING CO.",
        "state": "WA"
      },
      {
        "type": "Lightning",
        "time": "700",
        "inj": "0",
        "deaths": "0",
        "prop_dmg": "30.0k",
        "crop_dmg": "0",
        "begin": "08/02/2014",
        "county": "KING CO.",
        "state": "WA"
      },
      {
        "type": "Lightning",
        "time": "2200",
        "inj": "0",
        "deaths": "0",
        "prop_dmg": "10.0k",
        "crop_dmg": "0",
        "begin": "08/11/2014",
        "county": "KING CO.",
        "state": "WA"
      }
    ],
    "Rip_Current": [],
    "Seiche": [],
    "Sleet": [],
    "Storm_Surge__FTide": [],
    "Strong_Wind": [],
    "Thunderstorm_Wind": [],
    "Tornado": [],
    "Tropical_Depression": [],
    "Tropical_Storm": [],
    "Tsunami": [],
    "Volcanic_Ashfall": [],
    "Waterspout": [],
    "Wildfire": [],
    "Winter_Storm": [],
    "Winter_Weather": []
  },
  "035": {
    "name": "Kitsap County",
    "fips": "WA",
    "pop10": "251133",
    "lat": 47.639687,
    "lon": -122.649636,
    "geoid": "53035",
    "deaths": 0,
    "prop_dmg": "1.84M",
    "crop_dmg": 0,
    "inj": 4,
    "all": 6,
    "eq": [],
    "Hurricane____Typhoon___": [],
    "Cold__FWind_Chill": [],
    "Coastal_Flood": [],
    "Avalanche": [],
    "Astronomical_Low_Tide": [],
    "Dense_Fog": [],
    "Drought": [],
    "Dust_Devil": [],
    "Dust_Storm": [],
    "Excessive_Heat": [],
    "Extreme_Cold__FWind_Chill": [],
    "Flash_Flood": [],
    "Flood": [],
    "Freezing_Fog": [],
    "Funnel_Cloud": [],
    "Hail": [],
    "Heat": [],
    "Heavy_Rain": [
      {
        "type": "Heavy+Rain",
        "time": "400",
        "inj": "3",
        "deaths": "0",
        "prop_dmg": "750k",
        "crop_dmg": "0",
        "begin": "03/15/1997",
        "county": "KITSAP CO.",
        "state": "WA"
      },
      {
        "type": "Heavy+Rain",
        "time": "600",
        "inj": "0",
        "deaths": "0",
        "prop_dmg": "35.0k",
        "crop_dmg": "0",
        "begin": "02/24/1999",
        "county": "KITSAP CO.",
        "state": "WA"
      },
      {
        "type": "Heavy+Rain",
        "time": "0",
        "inj": "0",
        "deaths": "0",
        "prop_dmg": "200k",
        "crop_dmg": "0",
        "begin": "10/20/2003",
        "county": "KITSAP CO.",
        "state": "WA"
      },
      {
        "type": "Heavy+Rain",
        "time": "0",
        "inj": "0",
        "deaths": "0",
        "prop_dmg": "700k",
        "crop_dmg": "0",
        "begin": "01/05/2006",
        "county": "KITSAP CO.",
        "state": "WA"
      }
    ],
    "Heavy_Snow": [],
    "High_Surf": [],
    "High_Wind": [],
    "Ice_Storm": [],
    "Lakeshore_Flood": [],
    "Landslide": [],
    "Lightning": [
      {
        "type": "Lightning",
        "time": "2000",
        "inj": "1",
        "deaths": "0",
        "prop_dmg": "0",
        "crop_dmg": "0",
        "begin": "07/17/1999",
        "county": "KITSAP CO.",
        "state": "WA"
      },
      {
        "type": "Lightning",
        "time": "1700",
        "inj": "0",
        "deaths": "0",
        "prop_dmg": "150k",
        "crop_dmg": "0",
        "begin": "08/03/1999",
        "county": "KITSAP CO.",
        "state": "WA"
      }
    ],
    "Rip_Current": [],
    "Seiche": [],
    "Sleet": [],
    "Storm_Surge__FTide": [],
    "Strong_Wind": [],
    "Thunderstorm_Wind": [],
    "Tornado": [],
    "Tropical_Depression": [],
    "Tropical_Storm": [],
    "Tsunami": [],
    "Volcanic_Ashfall": [],
    "Waterspout": [],
    "Wildfire": [],
    "Winter_Storm": [],
    "Winter_Weather": []
  },
  "037": {
    "name": "Kittitas County",
    "fips": "WA",
    "pop10": "40915",
    "lat": 47.124444,
    "lon": -120.676714,
    "geoid": "53037",
    "deaths": 0,
    "prop_dmg": "12.5M",
    "crop_dmg": 0,
    "inj": 0,
    "all": 5,
    "eq": [],
    "Hurricane____Typhoon___": [],
    "Cold__FWind_Chill": [],
    "Coastal_Flood": [],
    "Avalanche": [],
    "Astronomical_Low_Tide": [],
    "Dense_Fog": [],
    "Drought": [],
    "Dust_Devil": [],
    "Dust_Storm": [],
    "Excessive_Heat": [],
    "Extreme_Cold__FWind_Chill": [],
    "Flash_Flood": [],
    "Flood": [
      {
        "type": "Flood",
        "time": "1345",
        "inj": "0",
        "deaths": "0",
        "prop_dmg": "3.00k",
        "crop_dmg": "0",
        "begin": "01/31/2003",
        "county": "KITTITAS VALLEY ",
        "state": "WA"
      },
      {
        "type": "Flood",
        "time": "0",
        "inj": "0",
        "deaths": "0",
        "prop_dmg": "10.0M",
        "crop_dmg": "0",
        "begin": "01/07/2009",
        "county": "KITTITAS CO.",
        "state": "WA"
      },
      {
        "type": "Flood",
        "time": "600",
        "inj": "0",
        "deaths": "0",
        "prop_dmg": "2.15M",
        "crop_dmg": "0",
        "begin": "01/15/2011",
        "county": "KITTITAS CO.",
        "state": "WA"
      }
    ],
    "Freezing_Fog": [],
    "Funnel_Cloud": [],
    "Hail": [],
    "Heat": [],
    "Heavy_Rain": [],
    "Heavy_Snow": [],
    "High_Surf": [],
    "High_Wind": [],
    "Ice_Storm": [],
    "Lakeshore_Flood": [],
    "Landslide": [],
    "Lightning": [
      {
        "type": "Lightning",
        "time": "0",
        "inj": "0",
        "deaths": "0",
        "prop_dmg": "300k",
        "crop_dmg": "0",
        "begin": "05/14/2011",
        "county": "KITTITAS CO.",
        "state": "WA"
      }
    ],
    "Rip_Current": [],
    "Seiche": [],
    "Sleet": [],
    "Storm_Surge__FTide": [],
    "Strong_Wind": [],
    "Thunderstorm_Wind": [],
    "Tornado": [],
    "Tropical_Depression": [],
    "Tropical_Storm": [],
    "Tsunami": [],
    "Volcanic_Ashfall": [],
    "Waterspout": [],
    "Wildfire": [
      {
        "type": "Wildfire",
        "time": "1700",
        "inj": "0",
        "deaths": "0",
        "prop_dmg": "1.00k",
        "crop_dmg": "0",
        "begin": "07/01/2004",
        "county": "KITTITAS VALLEY ",
        "state": "WA"
      }
    ],
    "Winter_Storm": [],
    "Winter_Weather": []
  },
  "039": {
    "name": "Klickitat County",
    "fips": "WA",
    "pop10": "20318",
    "lat": 45.869509,
    "lon": -120.780117,
    "geoid": "53039",
    "deaths": 0,
    "prop_dmg": "4.52M",
    "crop_dmg": 0,
    "inj": 1,
    "all": 4,
    "eq": [],
    "Hurricane____Typhoon___": [],
    "Cold__FWind_Chill": [],
    "Coastal_Flood": [],
    "Avalanche": [],
    "Astronomical_Low_Tide": [],
    "Dense_Fog": [],
    "Drought": [],
    "Dust_Devil": [],
    "Dust_Storm": [],
    "Excessive_Heat": [],
    "Extreme_Cold__FWind_Chill": [],
    "Flash_Flood": [],
    "Flood": [],
    "Freezing_Fog": [],
    "Funnel_Cloud": [],
    "Hail": [],
    "Heat": [],
    "Heavy_Rain": [
      {
        "type": "Heavy+Rain",
        "time": "1530",
        "inj": "1",
        "deaths": "0",
        "prop_dmg": "10.0k",
        "crop_dmg": "0",
        "begin": "11/26/1999",
        "county": "KLICKITAT CO.",
        "state": "WA"
      }
    ],
    "Heavy_Snow": [],
    "High_Surf": [],
    "High_Wind": [],
    "Ice_Storm": [],
    "Lakeshore_Flood": [],
    "Landslide": [],
    "Lightning": [
      {
        "type": "Lightning",
        "time": "1700",
        "inj": "0",
        "deaths": "0",
        "prop_dmg": "10.0k",
        "crop_dmg": "0",
        "begin": "08/02/2004",
        "county": "KLICKITAT CO.",
        "state": "WA"
      }
    ],
    "Rip_Current": [],
    "Seiche": [],
    "Sleet": [],
    "Storm_Surge__FTide": [],
    "Strong_Wind": [],
    "Thunderstorm_Wind": [],
    "Tornado": [],
    "Tropical_Depression": [],
    "Tropical_Storm": [],
    "Tsunami": [],
    "Volcanic_Ashfall": [],
    "Waterspout": [],
    "Wildfire": [
      {
        "type": "Wildfire",
        "time": "1100",
        "inj": "0",
        "deaths": "0",
        "prop_dmg": "2.00k",
        "crop_dmg": "0",
        "begin": "07/05/2005",
        "county": "EAST COLUMBIA RIVER GORGE ",
        "state": "WA"
      },
      {
        "type": "Wildfire",
        "time": "1107",
        "inj": "0",
        "deaths": "0",
        "prop_dmg": "4.50M",
        "crop_dmg": "0",
        "begin": "09/07/2011",
        "county": "SIMCOE HIGHLANDS ",
        "state": "WA"
      }
    ],
    "Winter_Storm": [],
    "Winter_Weather": []
  },
  "041": {
    "name": "Lewis County",
    "fips": "WA",
    "pop10": "75455",
    "lat": 46.580071,
    "lon": -122.377444,
    "geoid": "53041",
    "deaths": 0,
    "prop_dmg": "9.58M",
    "crop_dmg": 0,
    "inj": 2,
    "all": 7,
    "eq": [],
    "Hurricane____Typhoon___": [],
    "Cold__FWind_Chill": [],
    "Coastal_Flood": [],
    "Avalanche": [],
    "Astronomical_Low_Tide": [],
    "Dense_Fog": [],
    "Drought": [],
    "Dust_Devil": [],
    "Dust_Storm": [],
    "Excessive_Heat": [],
    "Extreme_Cold__FWind_Chill": [],
    "Flash_Flood": [],
    "Flood": [
      {
        "type": "Flood",
        "time": "2000",
        "inj": "0",
        "deaths": "0",
        "prop_dmg": "8.40M",
        "crop_dmg": "0",
        "begin": "01/07/2009",
        "county": "LEWIS CO.",
        "state": "WA"
      }
    ],
    "Freezing_Fog": [],
    "Funnel_Cloud": [],
    "Hail": [],
    "Heat": [],
    "Heavy_Rain": [
      {
        "type": "Heavy+Rain",
        "time": "0",
        "inj": "0",
        "deaths": "0",
        "prop_dmg": "50.0k",
        "crop_dmg": "0",
        "begin": "01/05/2006",
        "county": "LEWIS CO.",
        "state": "WA"
      }
    ],
    "Heavy_Snow": [],
    "High_Surf": [],
    "High_Wind": [],
    "Ice_Storm": [
      {
        "type": "Ice+Storm",
        "time": "200",
        "inj": "0",
        "deaths": "0",
        "prop_dmg": "1.10M",
        "crop_dmg": "0",
        "begin": "01/19/2012",
        "county": "SOUTHWEST INTERIOR ",
        "state": "WA"
      }
    ],
    "Lakeshore_Flood": [],
    "Landslide": [],
    "Lightning": [
      {
        "type": "Lightning",
        "time": "1700",
        "inj": "0",
        "deaths": "0",
        "prop_dmg": "2.00k",
        "crop_dmg": "0",
        "begin": "08/05/2002",
        "county": "LEWIS CO.",
        "state": "WA"
      },
      {
        "type": "Lightning",
        "time": "1355",
        "inj": "1",
        "deaths": "0",
        "prop_dmg": "0",
        "crop_dmg": "0",
        "begin": "05/27/2004",
        "county": "LEWIS CO.",
        "state": "WA"
      },
      {
        "type": "Lightning",
        "time": "700",
        "inj": "1",
        "deaths": "0",
        "prop_dmg": "0",
        "crop_dmg": "0",
        "begin": "09/05/2013",
        "county": "LEWIS CO.",
        "state": "WA"
      }
    ],
    "Rip_Current": [],
    "Seiche": [],
    "Sleet": [],
    "Storm_Surge__FTide": [],
    "Strong_Wind": [],
    "Thunderstorm_Wind": [],
    "Tornado": [
      {
        "type": "Tornado",
        "time": "1630",
        "inj": "0",
        "deaths": "0",
        "prop_dmg": "25.0k",
        "crop_dmg": "0",
        "begin": "11/10/1965",
        "county": "LEWIS CO.",
        "state": "WA"
      }
    ],
    "Tropical_Depression": [],
    "Tropical_Storm": [],
    "Tsunami": [],
    "Volcanic_Ashfall": [],
    "Waterspout": [],
    "Wildfire": [],
    "Winter_Storm": [],
    "Winter_Weather": []
  },
  "043": {
    "name": "Lincoln County",
    "fips": "WA",
    "pop10": "10570",
    "lat": 47.582718,
    "lon": -118.417667,
    "geoid": "53043",
    "deaths": 1,
    "prop_dmg": "3.18M",
    "crop_dmg": "101k",
    "inj": 1,
    "all": 15,
    "eq": [],
    "Hurricane____Typhoon___": [],
    "Cold__FWind_Chill": [],
    "Coastal_Flood": [],
    "Avalanche": [
      {
        "type": "Avalanche",
        "time": "1200",
        "inj": "0",
        "deaths": "1",
        "prop_dmg": "0",
        "crop_dmg": "0",
        "begin": "03/08/1997",
        "county": "UPPER COLUMBIA BASIN ",
        "state": "WA"
      }
    ],
    "Astronomical_Low_Tide": [],
    "Dense_Fog": [],
    "Drought": [],
    "Dust_Devil": [],
    "Dust_Storm": [
      {
        "type": "Dust+Storm",
        "time": "1630",
        "inj": "0",
        "deaths": "0",
        "prop_dmg": "50.0k",
        "crop_dmg": "0",
        "begin": "08/12/2014",
        "county": "UPPER COLUMBIA BASIN ",
        "state": "WA"
      }
    ],
    "Excessive_Heat": [],
    "Extreme_Cold__FWind_Chill": [],
    "Flash_Flood": [
      {
        "type": "Flash+Flood",
        "time": "800",
        "inj": "0",
        "deaths": "0",
        "prop_dmg": "20.0k",
        "crop_dmg": "0",
        "begin": "02/24/1999",
        "county": "LINCOLN CO.",
        "state": "WA"
      },
      {
        "type": "Flash+Flood",
        "time": "2045",
        "inj": "0",
        "deaths": "0",
        "prop_dmg": "15.0k",
        "crop_dmg": "0",
        "begin": "06/19/2009",
        "county": "LINCOLN CO.",
        "state": "WA"
      }
    ],
    "Flood": [
      {
        "type": "Flood",
        "time": "1200",
        "inj": "0",
        "deaths": "0",
        "prop_dmg": "600k",
        "crop_dmg": "0",
        "begin": "02/12/2014",
        "county": "LINCOLN CO.",
        "state": "WA"
      },
      {
        "type": "Flood",
        "time": "700",
        "inj": "0",
        "deaths": "0",
        "prop_dmg": "200k",
        "crop_dmg": "0",
        "begin": "03/05/2014",
        "county": "LINCOLN CO.",
        "state": "WA"
      }
    ],
    "Freezing_Fog": [
      {
        "type": "Freezing+Fog",
        "time": "0",
        "inj": "0",
        "deaths": "0",
        "prop_dmg": "2.00M",
        "crop_dmg": "0",
        "begin": "01/13/2009",
        "county": "UPPER COLUMBIA BASIN ",
        "state": "WA"
      }
    ],
    "Funnel_Cloud": [],
    "Hail": [],
    "Heat": [],
    "Heavy_Rain": [
      {
        "type": "Heavy+Rain",
        "time": "1600",
        "inj": "0",
        "deaths": "0",
        "prop_dmg": "5.00k",
        "crop_dmg": "0",
        "begin": "07/28/2010",
        "county": "LINCOLN CO.",
        "state": "WA"
      }
    ],
    "Heavy_Snow": [],
    "High_Surf": [],
    "High_Wind": [],
    "Ice_Storm": [],
    "Lakeshore_Flood": [],
    "Landslide": [],
    "Lightning": [
      {
        "type": "Lightning",
        "time": "2100",
        "inj": "0",
        "deaths": "0",
        "prop_dmg": "3.00k",
        "crop_dmg": "0",
        "begin": "05/19/2006",
        "county": "LINCOLN CO.",
        "state": "WA"
      }
    ],
    "Rip_Current": [],
    "Seiche": [],
    "Sleet": [],
    "Storm_Surge__FTide": [],
    "Strong_Wind": [],
    "Thunderstorm_Wind": [],
    "Tornado": [
      {
        "type": "Tornado",
        "time": "1930",
        "inj": "1",
        "deaths": "0",
        "prop_dmg": "250k",
        "crop_dmg": "0",
        "begin": "04/05/1972",
        "county": "LINCOLN CO.",
        "state": "WA"
      }
    ],
    "Tropical_Depression": [],
    "Tropical_Storm": [],
    "Tsunami": [],
    "Volcanic_Ashfall": [],
    "Waterspout": [],
    "Wildfire": [
      {
        "type": "Wildfire",
        "time": "1430",
        "inj": "0",
        "deaths": "0",
        "prop_dmg": "2.00k",
        "crop_dmg": "100k",
        "begin": "08/10/1998",
        "county": "LINCOLN CO.",
        "state": "WA"
      },
      {
        "type": "Wildfire",
        "time": "1200",
        "inj": "0",
        "deaths": "0",
        "prop_dmg": "7.00k",
        "crop_dmg": "1.00k",
        "begin": "08/21/1998",
        "county": "LINCOLN CO.",
        "state": "WA"
      },
      {
        "type": "Wildfire",
        "time": "1100",
        "inj": "0",
        "deaths": "0",
        "prop_dmg": "4.00k",
        "crop_dmg": "0",
        "begin": "08/11/2009",
        "county": "UPPER COLUMBIA BASIN ",
        "state": "WA"
      },
      {
        "type": "Wildfire",
        "time": "1530",
        "inj": "0",
        "deaths": "0",
        "prop_dmg": "1.00k",
        "crop_dmg": "0",
        "begin": "08/26/2010",
        "county": "UPPER COLUMBIA BASIN ",
        "state": "WA"
      },
      {
        "type": "Wildfire",
        "time": "1700",
        "inj": "0",
        "deaths": "0",
        "prop_dmg": "20.0k",
        "crop_dmg": "0",
        "begin": "07/19/2014",
        "county": "UPPER COLUMBIA BASIN ",
        "state": "WA"
      }
    ],
    "Winter_Storm": [],
    "Winter_Weather": []
  },
  "045": {
    "name": "Mason County",
    "fips": "WA",
    "pop10": "60699",
    "lat": 47.354126,
    "lon": -123.17385,
    "geoid": "53045",
    "deaths": 0,
    "prop_dmg": "17.7M",
    "crop_dmg": "1.10M",
    "inj": 1,
    "all": 9,
    "eq": [],
    "Hurricane____Typhoon___": [],
    "Cold__FWind_Chill": [],
    "Coastal_Flood": [],
    "Avalanche": [],
    "Astronomical_Low_Tide": [],
    "Dense_Fog": [],
    "Drought": [],
    "Dust_Devil": [],
    "Dust_Storm": [],
    "Excessive_Heat": [],
    "Extreme_Cold__FWind_Chill": [],
    "Flash_Flood": [],
    "Flood": [
      {
        "type": "Flood",
        "time": "800",
        "inj": "0",
        "deaths": "0",
        "prop_dmg": "900k",
        "crop_dmg": "0",
        "begin": "01/07/2009",
        "county": "MASON CO.",
        "state": "WA"
      }
    ],
    "Freezing_Fog": [],
    "Funnel_Cloud": [],
    "Hail": [],
    "Heat": [],
    "Heavy_Rain": [
      {
        "type": "Heavy+Rain",
        "time": "0",
        "inj": "0",
        "deaths": "0",
        "prop_dmg": "10.2M",
        "crop_dmg": "0",
        "begin": "03/01/1999",
        "county": "MASON CO.",
        "state": "WA"
      },
      {
        "type": "Heavy+Rain",
        "time": "1915",
        "inj": "0",
        "deaths": "0",
        "prop_dmg": "5.00M",
        "crop_dmg": "0",
        "begin": "03/25/1999",
        "county": "MASON CO.",
        "state": "WA"
      },
      {
        "type": "Heavy+Rain",
        "time": "0",
        "inj": "0",
        "deaths": "0",
        "prop_dmg": "300k",
        "crop_dmg": "0",
        "begin": "10/20/2003",
        "county": "MASON CO.",
        "state": "WA"
      },
      {
        "type": "Heavy+Rain",
        "time": "0",
        "inj": "0",
        "deaths": "0",
        "prop_dmg": "700k",
        "crop_dmg": "0",
        "begin": "01/05/2006",
        "county": "MASON CO.",
        "state": "WA"
      }
    ],
    "Heavy_Snow": [
      {
        "type": "Heavy+Snow",
        "time": "1500",
        "inj": "0",
        "deaths": "0",
        "prop_dmg": "500k",
        "crop_dmg": "0",
        "begin": "11/26/2006",
        "county": "HOOD CANAL AREA ",
        "state": "WA"
      }
    ],
    "High_Surf": [],
    "High_Wind": [],
    "Ice_Storm": [],
    "Lakeshore_Flood": [],
    "Landslide": [],
    "Lightning": [
      {
        "type": "Lightning",
        "time": "930",
        "inj": "0",
        "deaths": "0",
        "prop_dmg": "70.0k",
        "crop_dmg": "0",
        "begin": "07/05/1997",
        "county": "MASON CO.",
        "state": "WA"
      },
      {
        "type": "Lightning",
        "time": "1400",
        "inj": "1",
        "deaths": "0",
        "prop_dmg": "2.00k",
        "crop_dmg": "0",
        "begin": "09/05/2013",
        "county": "MASON CO.",
        "state": "WA"
      }
    ],
    "Rip_Current": [],
    "Seiche": [],
    "Sleet": [],
    "Storm_Surge__FTide": [],
    "Strong_Wind": [],
    "Thunderstorm_Wind": [],
    "Tornado": [],
    "Tropical_Depression": [],
    "Tropical_Storm": [],
    "Tsunami": [],
    "Volcanic_Ashfall": [],
    "Waterspout": [],
    "Wildfire": [
      {
        "type": "Wildfire",
        "time": "1400",
        "inj": "0",
        "deaths": "0",
        "prop_dmg": "0",
        "crop_dmg": "1.10M",
        "begin": "10/04/2012",
        "county": "HOOD CANAL AREA ",
        "state": "WA"
      }
    ],
    "Winter_Storm": [],
    "Winter_Weather": []
  },
  "047": {
    "name": "Okanogan County",
    "fips": "WA",
    "pop10": "41120",
    "lat": 48.550971,
    "lon": -119.691035,
    "geoid": "53047",
    "deaths": 7,
    "prop_dmg": "253M",
    "crop_dmg": "1.46M",
    "inj": 7,
    "all": 36,
    "eq": [],
    "Hurricane____Typhoon___": [],
    "Cold__FWind_Chill": [],
    "Coastal_Flood": [],
    "Avalanche": [
      {
        "type": "Avalanche",
        "time": "1530",
        "inj": "0",
        "deaths": "1",
        "prop_dmg": "0",
        "crop_dmg": "0",
        "begin": "01/29/2001",
        "county": "W OKANOGAN/C&W CHELAN ",
        "state": "WA"
      },
      {
        "type": "Avalanche",
        "time": "1330",
        "inj": "1",
        "deaths": "1",
        "prop_dmg": "0",
        "crop_dmg": "0",
        "begin": "03/19/2006",
        "county": "EAST SLOPES NORTHERN CASCADES ",
        "state": "WA"
      },
      {
        "type": "Avalanche",
        "time": "1615",
        "inj": "0",
        "deaths": "0",
        "prop_dmg": "1.10M",
        "crop_dmg": "0",
        "begin": "02/07/2008",
        "county": "EAST SLOPES NORTHERN CASCADES ",
        "state": "WA"
      },
      {
        "type": "Avalanche",
        "time": "1530",
        "inj": "0",
        "deaths": "1",
        "prop_dmg": "0",
        "crop_dmg": "0",
        "begin": "03/05/2011",
        "county": "EAST SLOPES NORTHERN CASCADES ",
        "state": "WA"
      }
    ],
    "Astronomical_Low_Tide": [],
    "Dense_Fog": [],
    "Drought": [],
    "Dust_Devil": [],
    "Dust_Storm": [],
    "Excessive_Heat": [],
    "Extreme_Cold__FWind_Chill": [],
    "Flash_Flood": [
      {
        "type": "Flash+Flood",
        "time": "2000",
        "inj": "0",
        "deaths": "0",
        "prop_dmg": "60.0k",
        "crop_dmg": "0",
        "begin": "04/23/1996",
        "county": "OKANOGAN CO.",
        "state": "WA"
      },
      {
        "type": "Flash+Flood",
        "time": "1300",
        "inj": "0",
        "deaths": "0",
        "prop_dmg": "380k",
        "crop_dmg": "0",
        "begin": "06/27/1996",
        "county": "OKANOGAN CO.",
        "state": "WA"
      },
      {
        "type": "Flash+Flood",
        "time": "600",
        "inj": "0",
        "deaths": "0",
        "prop_dmg": "40.0k",
        "crop_dmg": "0",
        "begin": "06/16/1999",
        "county": "OKANOGAN CO.",
        "state": "WA"
      },
      {
        "type": "Flash+Flood",
        "time": "1418",
        "inj": "0",
        "deaths": "0",
        "prop_dmg": "85.0k",
        "crop_dmg": "0",
        "begin": "07/15/2012",
        "county": "OKANOGAN CO.",
        "state": "WA"
      },
      {
        "type": "Flash+Flood",
        "time": "1400",
        "inj": "0",
        "deaths": "0",
        "prop_dmg": "2.00k",
        "crop_dmg": "0",
        "begin": "07/20/2012",
        "county": "OKANOGAN CO.",
        "state": "WA"
      },
      {
        "type": "Flash+Flood",
        "time": "1430",
        "inj": "0",
        "deaths": "0",
        "prop_dmg": "6.00k",
        "crop_dmg": "0",
        "begin": "07/20/2012",
        "county": "OKANOGAN CO.",
        "state": "WA"
      }
    ],
    "Flood": [
      {
        "type": "Flood",
        "time": "1000",
        "inj": "0",
        "deaths": "0",
        "prop_dmg": "10.0k",
        "crop_dmg": "0",
        "begin": "01/26/2003",
        "county": "W OKANOGAN/C&W CHELAN ",
        "state": "WA"
      },
      {
        "type": "Flood",
        "time": "1800",
        "inj": "0",
        "deaths": "0",
        "prop_dmg": "25.0k",
        "crop_dmg": "0",
        "begin": "01/17/2010",
        "county": "OKANOGAN CO.",
        "state": "WA"
      },
      {
        "type": "Flood",
        "time": "600",
        "inj": "0",
        "deaths": "0",
        "prop_dmg": "2.00k",
        "crop_dmg": "0",
        "begin": "06/01/2011",
        "county": "OKANOGAN CO.",
        "state": "WA"
      },
      {
        "type": "Flood",
        "time": "800",
        "inj": "0",
        "deaths": "0",
        "prop_dmg": "3.00k",
        "crop_dmg": "0",
        "begin": "06/01/2011",
        "county": "OKANOGAN CO.",
        "state": "WA"
      }
    ],
    "Freezing_Fog": [],
    "Funnel_Cloud": [],
    "Hail": [],
    "Heat": [],
    "Heavy_Rain": [],
    "Heavy_Snow": [],
    "High_Surf": [],
    "High_Wind": [],
    "Ice_Storm": [],
    "Lakeshore_Flood": [],
    "Landslide": [],
    "Lightning": [
      {
        "type": "Lightning",
        "time": "1100",
        "inj": "0",
        "deaths": "0",
        "prop_dmg": "2.00k",
        "crop_dmg": "0",
        "begin": "07/06/2009",
        "county": "OKANOGAN CO.",
        "state": "WA"
      }
    ],
    "Rip_Current": [],
    "Seiche": [],
    "Sleet": [],
    "Storm_Surge__FTide": [],
    "Strong_Wind": [],
    "Thunderstorm_Wind": [],
    "Tornado": [],
    "Tropical_Depression": [],
    "Tropical_Storm": [],
    "Tsunami": [],
    "Volcanic_Ashfall": [],
    "Waterspout": [],
    "Wildfire": [
      {
        "type": "Wildfire",
        "time": "2230",
        "inj": "0",
        "deaths": "0",
        "prop_dmg": "50.0k",
        "crop_dmg": "25.0k",
        "begin": "07/27/1998",
        "county": "OKANOGAN CO.",
        "state": "WA"
      },
      {
        "type": "Wildfire",
        "time": "1200",
        "inj": "0",
        "deaths": "0",
        "prop_dmg": "3.30M",
        "crop_dmg": "0",
        "begin": "07/22/2000",
        "county": "OKANOGAN CO.",
        "state": "WA"
      },
      {
        "type": "Wildfire",
        "time": "2000",
        "inj": "4",
        "deaths": "4",
        "prop_dmg": "0",
        "crop_dmg": "0",
        "begin": "07/09/2001",
        "county": "OKANOGAN CO.",
        "state": "WA"
      },
      {
        "type": "Wildfire",
        "time": "900",
        "inj": "2",
        "deaths": "0",
        "prop_dmg": "900k",
        "crop_dmg": "0",
        "begin": "08/12/2001",
        "county": "OKANOGAN CO.",
        "state": "WA"
      },
      {
        "type": "Wildfire",
        "time": "200",
        "inj": "0",
        "deaths": "0",
        "prop_dmg": "200k",
        "crop_dmg": "0",
        "begin": "08/16/2002",
        "county": "OKANOGAN CO.",
        "state": "WA"
      },
      {
        "type": "Wildfire",
        "time": "1352",
        "inj": "0",
        "deaths": "0",
        "prop_dmg": "1.00M",
        "crop_dmg": "0",
        "begin": "07/16/2003",
        "county": "OKANOGAN CO.",
        "state": "WA"
      },
      {
        "type": "Wildfire",
        "time": "1745",
        "inj": "0",
        "deaths": "0",
        "prop_dmg": "20.0k",
        "crop_dmg": "0",
        "begin": "07/01/2008",
        "county": "OKANOGAN VALLEY ",
        "state": "WA"
      },
      {
        "type": "Wildfire",
        "time": "800",
        "inj": "0",
        "deaths": "0",
        "prop_dmg": "1.00k",
        "crop_dmg": "0",
        "begin": "08/09/2011",
        "county": "OKANOGAN VALLEY ",
        "state": "WA"
      },
      {
        "type": "Wildfire",
        "time": "1930",
        "inj": "0",
        "deaths": "0",
        "prop_dmg": "100k",
        "crop_dmg": "0",
        "begin": "08/14/2012",
        "county": "OKANOGAN VALLEY ",
        "state": "WA"
      },
      {
        "type": "Wildfire",
        "time": "1800",
        "inj": "0",
        "deaths": "0",
        "prop_dmg": "1.50k",
        "crop_dmg": "0",
        "begin": "09/08/2012",
        "county": "EAST SLOPES NORTHERN CASCADES ",
        "state": "WA"
      },
      {
        "type": "Wildfire",
        "time": "0",
        "inj": "0",
        "deaths": "0",
        "prop_dmg": "1.50k",
        "crop_dmg": "0",
        "begin": "10/01/2012",
        "county": "EAST SLOPES NORTHERN CASCADES ",
        "state": "WA"
      },
      {
        "type": "Wildfire",
        "time": "1540",
        "inj": "0",
        "deaths": "0",
        "prop_dmg": "500k",
        "crop_dmg": "0",
        "begin": "10/02/2012",
        "county": "OKANOGAN VALLEY ",
        "state": "WA"
      },
      {
        "type": "Wildfire",
        "time": "1151",
        "inj": "0",
        "deaths": "0",
        "prop_dmg": "261k",
        "crop_dmg": "350k",
        "begin": "07/15/2013",
        "county": "OKANOGAN VALLEY ",
        "state": "WA"
      },
      {
        "type": "Wildfire",
        "time": "1800",
        "inj": "0",
        "deaths": "0",
        "prop_dmg": "1.50M",
        "crop_dmg": "0",
        "begin": "07/19/2013",
        "county": "EAST SLOPES NORTHERN CASCADES ",
        "state": "WA"
      },
      {
        "type": "Wildfire",
        "time": "1330",
        "inj": "0",
        "deaths": "0",
        "prop_dmg": "120M",
        "crop_dmg": "1.00M",
        "begin": "07/14/2014",
        "county": "OKANOGAN VALLEY ",
        "state": "WA"
      },
      {
        "type": "Wildfire",
        "time": "1330",
        "inj": "0",
        "deaths": "0",
        "prop_dmg": "800k",
        "crop_dmg": "10.0k",
        "begin": "07/14/2014",
        "county": "EAST SLOPES NORTHERN CASCADES ",
        "state": "WA"
      },
      {
        "type": "Wildfire",
        "time": "600",
        "inj": "0",
        "deaths": "0",
        "prop_dmg": "60.0k",
        "crop_dmg": "0",
        "begin": "07/15/2014",
        "county": "EAST SLOPES NORTHERN CASCADES ",
        "state": "WA"
      },
      {
        "type": "Wildfire",
        "time": "0",
        "inj": "0",
        "deaths": "0",
        "prop_dmg": "120M",
        "crop_dmg": "50.0k",
        "begin": "08/01/2014",
        "county": "OKANOGAN VALLEY ",
        "state": "WA"
      },
      {
        "type": "Wildfire",
        "time": "0",
        "inj": "0",
        "deaths": "0",
        "prop_dmg": "2.00M",
        "crop_dmg": "20.0k",
        "begin": "08/01/2014",
        "county": "EAST SLOPES NORTHERN CASCADES ",
        "state": "WA"
      },
      {
        "type": "Wildfire",
        "time": "0",
        "inj": "0",
        "deaths": "0",
        "prop_dmg": "60.0k",
        "crop_dmg": "0",
        "begin": "08/01/2014",
        "county": "EAST SLOPES NORTHERN CASCADES ",
        "state": "WA"
      },
      {
        "type": "Wildfire",
        "time": "1330",
        "inj": "0",
        "deaths": "0",
        "prop_dmg": "300k",
        "crop_dmg": "0",
        "begin": "08/01/2014",
        "county": "EAST SLOPES NORTHERN CASCADES ",
        "state": "WA"
      }
    ],
    "Winter_Storm": [],
    "Winter_Weather": []
  },
  "049": {
    "name": "Pacific County",
    "fips": "WA",
    "pop10": "20920",
    "lat": 46.556587,
    "lon": -123.782419,
    "geoid": "53049",
    "deaths": 2,
    "prop_dmg": "163k",
    "crop_dmg": "10.0k",
    "inj": 1,
    "all": 7,
    "eq": [],
    "Hurricane____Typhoon___": [],
    "Cold__FWind_Chill": [],
    "Coastal_Flood": [
      {
        "type": "Coastal+Flood",
        "time": "1318",
        "inj": "0",
        "deaths": "0",
        "prop_dmg": "150k",
        "crop_dmg": "0",
        "begin": "10/24/2010",
        "county": "SOUTH COAST ",
        "state": "WA"
      }
    ],
    "Avalanche": [],
    "Astronomical_Low_Tide": [],
    "Dense_Fog": [],
    "Drought": [],
    "Dust_Devil": [],
    "Dust_Storm": [],
    "Excessive_Heat": [],
    "Extreme_Cold__FWind_Chill": [],
    "Flash_Flood": [],
    "Flood": [
      {
        "type": "Flood",
        "time": "1900",
        "inj": "0",
        "deaths": "0",
        "prop_dmg": "1.00k",
        "crop_dmg": "0",
        "begin": "03/02/1999",
        "county": "W PACIFIC ",
        "state": "WA"
      },
      {
        "type": "Flood",
        "time": "1000",
        "inj": "0",
        "deaths": "0",
        "prop_dmg": "10.0k",
        "crop_dmg": "0",
        "begin": "02/16/1999",
        "county": "W PACIFIC ",
        "state": "WA"
      }
    ],
    "Freezing_Fog": [],
    "Funnel_Cloud": [
      {
        "type": "Funnel+Cloud",
        "time": "730",
        "inj": "0",
        "deaths": "0",
        "prop_dmg": "2.00k",
        "crop_dmg": "0",
        "begin": "09/12/1997",
        "county": "PACIFIC CO.",
        "state": "WA"
      }
    ],
    "Hail": [],
    "Heat": [],
    "Heavy_Rain": [],
    "Heavy_Snow": [],
    "High_Surf": [],
    "High_Wind": [],
    "Ice_Storm": [],
    "Lakeshore_Flood": [],
    "Landslide": [],
    "Lightning": [],
    "Rip_Current": [
      {
        "type": "Rip+Current",
        "time": "1700",
        "inj": "0",
        "deaths": "1",
        "prop_dmg": "0",
        "crop_dmg": "0",
        "begin": "07/27/2007",
        "county": "SOUTH COAST ",
        "state": "WA"
      },
      {
        "type": "Rip+Current",
        "time": "1350",
        "inj": "1",
        "deaths": "1",
        "prop_dmg": "0",
        "crop_dmg": "0",
        "begin": "07/03/2014",
        "county": "SOUTH COAST ",
        "state": "WA"
      }
    ],
    "Seiche": [],
    "Sleet": [],
    "Storm_Surge__FTide": [],
    "Strong_Wind": [],
    "Thunderstorm_Wind": [],
    "Tornado": [],
    "Tropical_Depression": [],
    "Tropical_Storm": [],
    "Tsunami": [],
    "Volcanic_Ashfall": [],
    "Waterspout": [],
    "Wildfire": [
      {
        "type": "Wildfire",
        "time": "0",
        "inj": "0",
        "deaths": "0",
        "prop_dmg": "0",
        "crop_dmg": "10.0k",
        "begin": "10/20/1998",
        "county": "PACIFIC CO.",
        "state": "WA"
      }
    ],
    "Winter_Storm": [],
    "Winter_Weather": []
  },
  "051": {
    "name": "Pend Oreille County",
    "fips": "WA",
    "pop10": "13001",
    "lat": 48.543877,
    "lon": -117.232183,
    "geoid": "53051",
    "deaths": 0,
    "prop_dmg": "446k",
    "crop_dmg": 0,
    "inj": 0,
    "all": 7,
    "eq": [],
    "Hurricane____Typhoon___": [],
    "Cold__FWind_Chill": [],
    "Coastal_Flood": [],
    "Avalanche": [],
    "Astronomical_Low_Tide": [],
    "Dense_Fog": [],
    "Drought": [],
    "Dust_Devil": [],
    "Dust_Storm": [],
    "Excessive_Heat": [],
    "Extreme_Cold__FWind_Chill": [],
    "Flash_Flood": [],
    "Flood": [
      {
        "type": "Flood",
        "time": "0",
        "inj": "0",
        "deaths": "0",
        "prop_dmg": "10.0k",
        "crop_dmg": "0",
        "begin": "06/07/2011",
        "county": "PEND OREILLE CO.",
        "state": "WA"
      },
      {
        "type": "Flood",
        "time": "0",
        "inj": "0",
        "deaths": "0",
        "prop_dmg": "10.0k",
        "crop_dmg": "0",
        "begin": "06/07/2011",
        "county": "PEND OREILLE CO.",
        "state": "WA"
      },
      {
        "type": "Flood",
        "time": "400",
        "inj": "0",
        "deaths": "0",
        "prop_dmg": "400k",
        "crop_dmg": "0",
        "begin": "06/07/2011",
        "county": "PEND OREILLE CO.",
        "state": "WA"
      },
      {
        "type": "Flood",
        "time": "0",
        "inj": "0",
        "deaths": "0",
        "prop_dmg": "10.0k",
        "crop_dmg": "0",
        "begin": "07/01/2011",
        "county": "PEND OREILLE CO.",
        "state": "WA"
      },
      {
        "type": "Flood",
        "time": "0",
        "inj": "0",
        "deaths": "0",
        "prop_dmg": "10.0k",
        "crop_dmg": "0",
        "begin": "07/01/2011",
        "county": "PEND OREILLE CO.",
        "state": "WA"
      }
    ],
    "Freezing_Fog": [],
    "Funnel_Cloud": [],
    "Hail": [],
    "Heat": [],
    "Heavy_Rain": [
      {
        "type": "Heavy+Rain",
        "time": "2000",
        "inj": "0",
        "deaths": "0",
        "prop_dmg": "5.00k",
        "crop_dmg": "0",
        "begin": "06/24/1999",
        "county": "PEND OREILLE CO.",
        "state": "WA"
      },
      {
        "type": "Heavy+Rain",
        "time": "1450",
        "inj": "0",
        "deaths": "0",
        "prop_dmg": "500",
        "crop_dmg": "0",
        "begin": "06/02/2011",
        "county": "PEND OREILLE CO.",
        "state": "WA"
      }
    ],
    "Heavy_Snow": [],
    "High_Surf": [],
    "High_Wind": [],
    "Ice_Storm": [],
    "Lakeshore_Flood": [],
    "Landslide": [],
    "Lightning": [],
    "Rip_Current": [],
    "Seiche": [],
    "Sleet": [],
    "Storm_Surge__FTide": [],
    "Strong_Wind": [],
    "Thunderstorm_Wind": [],
    "Tornado": [],
    "Tropical_Depression": [],
    "Tropical_Storm": [],
    "Tsunami": [],
    "Volcanic_Ashfall": [],
    "Waterspout": [],
    "Wildfire": [],
    "Winter_Storm": [],
    "Winter_Weather": []
  },
  "053": {
    "name": "Pierce County",
    "fips": "WA",
    "pop10": "795225",
    "lat": 47.040716,
    "lon": -122.144709,
    "geoid": "53053",
    "deaths": 2,
    "prop_dmg": "46.6M",
    "crop_dmg": 0,
    "inj": 401,
    "all": 12,
    "eq": [
      {
        "type": "earthquake",
        "begin": "2/28/2001",
        "inj": "400",
        "prop_dmg": "    2000.000",
        "crop_dmg": "",
        "county": "WASHINGTON:  OLYMPIA, SEATTLE, TACOMA",
        "state": "WA",
        "deaths": "       1"
      }
    ],
    "Hurricane____Typhoon___": [],
    "Cold__FWind_Chill": [],
    "Coastal_Flood": [],
    "Avalanche": [],
    "Astronomical_Low_Tide": [],
    "Dense_Fog": [],
    "Drought": [],
    "Dust_Devil": [],
    "Dust_Storm": [],
    "Excessive_Heat": [
      {
        "type": "Excessive+Heat",
        "time": "1300",
        "inj": "0",
        "deaths": "1",
        "prop_dmg": "0",
        "crop_dmg": "0",
        "begin": "07/27/2009",
        "county": "TACOMA AREA ",
        "state": "WA"
      }
    ],
    "Extreme_Cold__FWind_Chill": [],
    "Flash_Flood": [],
    "Flood": [
      {
        "type": "Flood",
        "time": "500",
        "inj": "0",
        "deaths": "0",
        "prop_dmg": "8.80M",
        "crop_dmg": "0",
        "begin": "01/07/2009",
        "county": "PIERCE CO.",
        "state": "WA"
      }
    ],
    "Freezing_Fog": [],
    "Funnel_Cloud": [],
    "Hail": [],
    "Heat": [],
    "Heavy_Rain": [
      {
        "type": "Heavy+Rain",
        "time": "0",
        "inj": "0",
        "deaths": "0",
        "prop_dmg": "800k",
        "crop_dmg": "0",
        "begin": "10/20/2003",
        "county": "PIERCE CO.",
        "state": "WA"
      },
      {
        "type": "Heavy+Rain",
        "time": "400",
        "inj": "0",
        "deaths": "0",
        "prop_dmg": "200k",
        "crop_dmg": "0",
        "begin": "09/29/2005",
        "county": "PIERCE CO.",
        "state": "WA"
      },
      {
        "type": "Heavy+Rain",
        "time": "0",
        "inj": "0",
        "deaths": "0",
        "prop_dmg": "100k",
        "crop_dmg": "0",
        "begin": "01/05/2006",
        "county": "PIERCE CO.",
        "state": "WA"
      },
      {
        "type": "Heavy+Rain",
        "time": "900",
        "inj": "0",
        "deaths": "0",
        "prop_dmg": "36.0M",
        "crop_dmg": "0",
        "begin": "11/04/2006",
        "county": "PIERCE CO.",
        "state": "WA"
      }
    ],
    "Heavy_Snow": [
      {
        "type": "Heavy+Snow",
        "time": "1500",
        "inj": "0",
        "deaths": "0",
        "prop_dmg": "5.00k",
        "crop_dmg": "0",
        "begin": "01/10/2007",
        "county": "TACOMA AREA ",
        "state": "WA"
      }
    ],
    "High_Surf": [],
    "High_Wind": [],
    "Ice_Storm": [
      {
        "type": "Ice+Storm",
        "time": "200",
        "inj": "0",
        "deaths": "0",
        "prop_dmg": "700k",
        "crop_dmg": "0",
        "begin": "01/19/2012",
        "county": "TACOMA AREA ",
        "state": "WA"
      }
    ],
    "Lakeshore_Flood": [],
    "Landslide": [],
    "Lightning": [
      {
        "type": "Lightning",
        "time": "1130",
        "inj": "0",
        "deaths": "0",
        "prop_dmg": "1.30k",
        "crop_dmg": "0",
        "begin": "02/19/1997",
        "county": "PIERCE CO.",
        "state": "WA"
      },
      {
        "type": "Lightning",
        "time": "1200",
        "inj": "1",
        "deaths": "0",
        "prop_dmg": "2.00k",
        "crop_dmg": "0",
        "begin": "09/01/2004",
        "county": "PIERCE CO.",
        "state": "WA"
      },
      {
        "type": "Lightning",
        "time": "600",
        "inj": "0",
        "deaths": "0",
        "prop_dmg": "5.00k",
        "crop_dmg": "0",
        "begin": "09/05/2013",
        "county": "PIERCE CO.",
        "state": "WA"
      }
    ],
    "Rip_Current": [],
    "Seiche": [],
    "Sleet": [],
    "Storm_Surge__FTide": [],
    "Strong_Wind": [],
    "Thunderstorm_Wind": [],
    "Tornado": [],
    "Tropical_Depression": [],
    "Tropical_Storm": [],
    "Tsunami": [],
    "Volcanic_Ashfall": [],
    "Waterspout": [],
    "Wildfire": [],
    "Winter_Storm": [],
    "Winter_Weather": []
  },
  "055": {
    "name": "San Juan County",
    "fips": "WA",
    "pop10": "15769",
    "lat": 48.508861,
    "lon": -123.100616,
    "geoid": "53055",
    "deaths": 0,
    "prop_dmg": "1.01M",
    "crop_dmg": 0,
    "inj": 0,
    "all": 3,
    "eq": [],
    "Hurricane____Typhoon___": [],
    "Cold__FWind_Chill": [],
    "Coastal_Flood": [],
    "Avalanche": [],
    "Astronomical_Low_Tide": [],
    "Dense_Fog": [],
    "Drought": [],
    "Dust_Devil": [],
    "Dust_Storm": [],
    "Excessive_Heat": [],
    "Extreme_Cold__FWind_Chill": [],
    "Flash_Flood": [],
    "Flood": [],
    "Freezing_Fog": [],
    "Funnel_Cloud": [],
    "Hail": [],
    "Heat": [],
    "Heavy_Rain": [],
    "Heavy_Snow": [
      {
        "type": "Heavy+Snow",
        "time": "1500",
        "inj": "0",
        "deaths": "0",
        "prop_dmg": "1.00M",
        "crop_dmg": "0",
        "begin": "11/26/2006",
        "county": "SAN JUAN ",
        "state": "WA"
      },
      {
        "type": "Heavy+Snow",
        "time": "900",
        "inj": "0",
        "deaths": "0",
        "prop_dmg": "5.00k",
        "crop_dmg": "0",
        "begin": "01/10/2007",
        "county": "SAN JUAN ",
        "state": "WA"
      }
    ],
    "High_Surf": [],
    "High_Wind": [],
    "Ice_Storm": [],
    "Lakeshore_Flood": [],
    "Landslide": [],
    "Lightning": [],
    "Rip_Current": [],
    "Seiche": [],
    "Sleet": [],
    "Storm_Surge__FTide": [
      {
        "type": "Storm+Surge%2FTide",
        "time": "300",
        "inj": "0",
        "deaths": "0",
        "prop_dmg": "10.0k",
        "crop_dmg": "0",
        "begin": "01/02/2003",
        "county": "SAN JUAN ",
        "state": "WA"
      }
    ],
    "Strong_Wind": [],
    "Thunderstorm_Wind": [],
    "Tornado": [],
    "Tropical_Depression": [],
    "Tropical_Storm": [],
    "Tsunami": [],
    "Volcanic_Ashfall": [],
    "Waterspout": [],
    "Wildfire": [],
    "Winter_Storm": [],
    "Winter_Weather": []
  },
  "057": {
    "name": "Skagit County",
    "fips": "WA",
    "pop10": "116901",
    "lat": 48.493066,
    "lon": -121.816278,
    "geoid": "53057",
    "deaths": 0,
    "prop_dmg": "3.05M",
    "crop_dmg": 0,
    "inj": 5,
    "all": 6,
    "eq": [],
    "Hurricane____Typhoon___": [],
    "Cold__FWind_Chill": [],
    "Coastal_Flood": [],
    "Avalanche": [],
    "Astronomical_Low_Tide": [],
    "Dense_Fog": [],
    "Drought": [],
    "Dust_Devil": [],
    "Dust_Storm": [],
    "Excessive_Heat": [],
    "Extreme_Cold__FWind_Chill": [],
    "Flash_Flood": [],
    "Flood": [
      {
        "type": "Flood",
        "time": "1400",
        "inj": "0",
        "deaths": "0",
        "prop_dmg": "2.00M",
        "crop_dmg": "0",
        "begin": "01/08/2009",
        "county": "SKAGIT CO.",
        "state": "WA"
      }
    ],
    "Freezing_Fog": [],
    "Funnel_Cloud": [],
    "Hail": [],
    "Heat": [],
    "Heavy_Rain": [
      {
        "type": "Heavy+Rain",
        "time": "600",
        "inj": "0",
        "deaths": "0",
        "prop_dmg": "25.0k",
        "crop_dmg": "0",
        "begin": "08/24/2004",
        "county": "SKAGIT CO.",
        "state": "WA"
      },
      {
        "type": "Heavy+Rain",
        "time": "0",
        "inj": "0",
        "deaths": "0",
        "prop_dmg": "20.0k",
        "crop_dmg": "0",
        "begin": "01/05/2006",
        "county": "SKAGIT CO.",
        "state": "WA"
      }
    ],
    "Heavy_Snow": [
      {
        "type": "Heavy+Snow",
        "time": "900",
        "inj": "0",
        "deaths": "0",
        "prop_dmg": "1.00M",
        "crop_dmg": "0",
        "begin": "11/26/2006",
        "county": "WESTERN SKAGIT COUNTY ",
        "state": "WA"
      },
      {
        "type": "Heavy+Snow",
        "time": "900",
        "inj": "0",
        "deaths": "0",
        "prop_dmg": "5.00k",
        "crop_dmg": "0",
        "begin": "01/10/2007",
        "county": "WESTERN SKAGIT COUNTY ",
        "state": "WA"
      }
    ],
    "High_Surf": [],
    "High_Wind": [],
    "Ice_Storm": [],
    "Lakeshore_Flood": [],
    "Landslide": [],
    "Lightning": [
      {
        "type": "Lightning",
        "time": "1646",
        "inj": "5",
        "deaths": "0",
        "prop_dmg": "0",
        "crop_dmg": "0",
        "begin": "06/24/2007",
        "county": "SKAGIT CO.",
        "state": "WA"
      }
    ],
    "Rip_Current": [],
    "Seiche": [],
    "Sleet": [],
    "Storm_Surge__FTide": [],
    "Strong_Wind": [],
    "Thunderstorm_Wind": [],
    "Tornado": [],
    "Tropical_Depression": [],
    "Tropical_Storm": [],
    "Tsunami": [],
    "Volcanic_Ashfall": [],
    "Waterspout": [],
    "Wildfire": [],
    "Winter_Storm": [],
    "Winter_Weather": []
  },
  "059": {
    "name": "Skamania County",
    "fips": "WA",
    "pop10": "11066",
    "lat": 46.024782,
    "lon": -121.953227,
    "geoid": "53059",
    "deaths": 0,
    "prop_dmg": "2.00k",
    "crop_dmg": 0,
    "inj": 0,
    "all": 1,
    "eq": [
      {
        "type": "earthquake",
        "begin": "5/18/1980",
        "inj": "",
        "prop_dmg": "    2000.000",
        "crop_dmg": "",
        "county": "WASHINGTON:  MT ST HELENS",
        "state": "WA",
        "deaths": ""
      }
    ],
    "Hurricane____Typhoon___": [],
    "Cold__FWind_Chill": [],
    "Coastal_Flood": [],
    "Avalanche": [],
    "Astronomical_Low_Tide": [],
    "Dense_Fog": [],
    "Drought": [],
    "Dust_Devil": [],
    "Dust_Storm": [],
    "Excessive_Heat": [],
    "Extreme_Cold__FWind_Chill": [],
    "Flash_Flood": [],
    "Flood": [],
    "Freezing_Fog": [],
    "Funnel_Cloud": [],
    "Hail": [],
    "Heat": [],
    "Heavy_Rain": [],
    "Heavy_Snow": [],
    "High_Surf": [],
    "High_Wind": [],
    "Ice_Storm": [],
    "Lakeshore_Flood": [],
    "Landslide": [],
    "Lightning": [],
    "Rip_Current": [],
    "Seiche": [],
    "Sleet": [],
    "Storm_Surge__FTide": [],
    "Strong_Wind": [],
    "Thunderstorm_Wind": [],
    "Tornado": [],
    "Tropical_Depression": [],
    "Tropical_Storm": [],
    "Tsunami": [],
    "Volcanic_Ashfall": [],
    "Waterspout": [],
    "Wildfire": [],
    "Winter_Storm": [],
    "Winter_Weather": []
  },
  "061": {
    "name": "Snohomish County",
    "fips": "WA",
    "pop10": "713335",
    "lat": 48.054913,
    "lon": -121.766412,
    "geoid": "53061",
    "deaths": 0,
    "prop_dmg": "8.64M",
    "crop_dmg": 0,
    "inj": 1,
    "all": 8,
    "eq": [],
    "Hurricane____Typhoon___": [],
    "Cold__FWind_Chill": [],
    "Coastal_Flood": [],
    "Avalanche": [],
    "Astronomical_Low_Tide": [],
    "Dense_Fog": [],
    "Drought": [],
    "Dust_Devil": [],
    "Dust_Storm": [],
    "Excessive_Heat": [],
    "Extreme_Cold__FWind_Chill": [],
    "Flash_Flood": [],
    "Flood": [
      {
        "type": "Flood",
        "time": "1500",
        "inj": "0",
        "deaths": "0",
        "prop_dmg": "6.50M",
        "crop_dmg": "0",
        "begin": "01/07/2009",
        "county": "SNOHOMISH CO.",
        "state": "WA"
      },
      {
        "type": "Flood",
        "time": "1500",
        "inj": "0",
        "deaths": "0",
        "prop_dmg": "50.0k",
        "crop_dmg": "0",
        "begin": "01/16/2011",
        "county": "SNOHOMISH CO.",
        "state": "WA"
      }
    ],
    "Freezing_Fog": [],
    "Funnel_Cloud": [],
    "Hail": [],
    "Heat": [],
    "Heavy_Rain": [
      {
        "type": "Heavy+Rain",
        "time": "1100",
        "inj": "0",
        "deaths": "0",
        "prop_dmg": "20.0k",
        "crop_dmg": "0",
        "begin": "08/06/2004",
        "county": "SNOHOMISH CO.",
        "state": "WA"
      }
    ],
    "Heavy_Snow": [
      {
        "type": "Heavy+Snow",
        "time": "1500",
        "inj": "0",
        "deaths": "0",
        "prop_dmg": "2.00M",
        "crop_dmg": "0",
        "begin": "11/26/2006",
        "county": "EVERETT AND VICINITY ",
        "state": "WA"
      }
    ],
    "High_Surf": [],
    "High_Wind": [],
    "Ice_Storm": [],
    "Lakeshore_Flood": [],
    "Landslide": [],
    "Lightning": [
      {
        "type": "Lightning",
        "time": "1600",
        "inj": "0",
        "deaths": "0",
        "prop_dmg": "35.0k",
        "crop_dmg": "0",
        "begin": "04/10/1997",
        "county": "SNOHOMISH CO.",
        "state": "WA"
      },
      {
        "type": "Lightning",
        "time": "1400",
        "inj": "1",
        "deaths": "0",
        "prop_dmg": "0",
        "crop_dmg": "0",
        "begin": "08/06/1997",
        "county": "SNOHOMISH CO.",
        "state": "WA"
      },
      {
        "type": "Lightning",
        "time": "1400",
        "inj": "0",
        "deaths": "0",
        "prop_dmg": "5.00k",
        "crop_dmg": "0",
        "begin": "09/01/2004",
        "county": "SNOHOMISH CO.",
        "state": "WA"
      }
    ],
    "Rip_Current": [],
    "Seiche": [],
    "Sleet": [],
    "Storm_Surge__FTide": [],
    "Strong_Wind": [],
    "Thunderstorm_Wind": [],
    "Tornado": [
      {
        "type": "Tornado",
        "time": "800",
        "inj": "0",
        "deaths": "0",
        "prop_dmg": "25.0k",
        "crop_dmg": "0",
        "begin": "11/24/1970",
        "county": "SNOHOMISH CO.",
        "state": "WA"
      }
    ],
    "Tropical_Depression": [],
    "Tropical_Storm": [],
    "Tsunami": [],
    "Volcanic_Ashfall": [],
    "Waterspout": [],
    "Wildfire": [],
    "Winter_Storm": [],
    "Winter_Weather": []
  },
  "063": {
    "name": "Spokane County",
    "fips": "WA",
    "pop10": "471221",
    "lat": 47.620379,
    "lon": -117.404392,
    "geoid": "53063",
    "deaths": 0,
    "prop_dmg": "17.0M",
    "crop_dmg": "10.0k",
    "inj": 1,
    "all": 27,
    "eq": [],
    "Hurricane____Typhoon___": [],
    "Cold__FWind_Chill": [],
    "Coastal_Flood": [],
    "Avalanche": [],
    "Astronomical_Low_Tide": [],
    "Dense_Fog": [],
    "Drought": [],
    "Dust_Devil": [],
    "Dust_Storm": [],
    "Excessive_Heat": [],
    "Extreme_Cold__FWind_Chill": [],
    "Flash_Flood": [
      {
        "type": "Flash+Flood",
        "time": "1500",
        "inj": "0",
        "deaths": "0",
        "prop_dmg": "500k",
        "crop_dmg": "0",
        "begin": "02/25/1999",
        "county": "SPOKANE CO.",
        "state": "WA"
      },
      {
        "type": "Flash+Flood",
        "time": "1",
        "inj": "0",
        "deaths": "0",
        "prop_dmg": "200k",
        "crop_dmg": "0",
        "begin": "03/01/1999",
        "county": "SPOKANE CO.",
        "state": "WA"
      },
      {
        "type": "Flash+Flood",
        "time": "600",
        "inj": "0",
        "deaths": "0",
        "prop_dmg": "60.0k",
        "crop_dmg": "0",
        "begin": "04/14/2000",
        "county": "SPOKANE CO.",
        "state": "WA"
      },
      {
        "type": "Flash+Flood",
        "time": "1910",
        "inj": "0",
        "deaths": "0",
        "prop_dmg": "200k",
        "crop_dmg": "0",
        "begin": "06/01/2011",
        "county": "SPOKANE CO.",
        "state": "WA"
      },
      {
        "type": "Flash+Flood",
        "time": "1525",
        "inj": "0",
        "deaths": "0",
        "prop_dmg": "5.00k",
        "crop_dmg": "0",
        "begin": "07/14/2012",
        "county": "SPOKANE CO.",
        "state": "WA"
      }
    ],
    "Flood": [
      {
        "type": "Flood",
        "time": "600",
        "inj": "0",
        "deaths": "0",
        "prop_dmg": "1.00k",
        "crop_dmg": "0",
        "begin": "01/11/2014",
        "county": "SPOKANE CO.",
        "state": "WA"
      },
      {
        "type": "Flood",
        "time": "1200",
        "inj": "0",
        "deaths": "0",
        "prop_dmg": "2.00M",
        "crop_dmg": "0",
        "begin": "02/12/2014",
        "county": "SPOKANE CO.",
        "state": "WA"
      },
      {
        "type": "Flood",
        "time": "800",
        "inj": "0",
        "deaths": "0",
        "prop_dmg": "600k",
        "crop_dmg": "0",
        "begin": "03/05/2014",
        "county": "SPOKANE CO.",
        "state": "WA"
      }
    ],
    "Freezing_Fog": [],
    "Funnel_Cloud": [],
    "Hail": [],
    "Heat": [],
    "Heavy_Rain": [
      {
        "type": "Heavy+Rain",
        "time": "1251",
        "inj": "0",
        "deaths": "0",
        "prop_dmg": "20.0k",
        "crop_dmg": "0",
        "begin": "05/31/1997",
        "county": "SPOKANE CO.",
        "state": "WA"
      },
      {
        "type": "Heavy+Rain",
        "time": "1800",
        "inj": "0",
        "deaths": "0",
        "prop_dmg": "5.00k",
        "crop_dmg": "0",
        "begin": "06/24/1999",
        "county": "SPOKANE CO.",
        "state": "WA"
      },
      {
        "type": "Heavy+Rain",
        "time": "0",
        "inj": "0",
        "deaths": "0",
        "prop_dmg": "0",
        "crop_dmg": "10.0k",
        "begin": "06/24/2013",
        "county": "SPOKANE CO.",
        "state": "WA"
      },
      {
        "type": "Heavy+Rain",
        "time": "1300",
        "inj": "0",
        "deaths": "0",
        "prop_dmg": "13.0k",
        "crop_dmg": "0",
        "begin": "06/26/2014",
        "county": "SPOKANE CO.",
        "state": "WA"
      }
    ],
    "Heavy_Snow": [
      {
        "type": "Heavy+Snow",
        "time": "2130",
        "inj": "0",
        "deaths": "0",
        "prop_dmg": "10.0M",
        "crop_dmg": "0",
        "begin": "01/04/2009",
        "county": "SPOKANE AREA ",
        "state": "WA"
      }
    ],
    "High_Surf": [],
    "High_Wind": [],
    "Ice_Storm": [],
    "Lakeshore_Flood": [],
    "Landslide": [],
    "Lightning": [
      {
        "type": "Lightning",
        "time": "1600",
        "inj": "0",
        "deaths": "0",
        "prop_dmg": "2.00k",
        "crop_dmg": "0",
        "begin": "06/30/1997",
        "county": "SPOKANE CO.",
        "state": "WA"
      },
      {
        "type": "Lightning",
        "time": "0",
        "inj": "0",
        "deaths": "0",
        "prop_dmg": "15.0k",
        "crop_dmg": "0",
        "begin": "07/07/2002",
        "county": "SPOKANE CO.",
        "state": "WA"
      },
      {
        "type": "Lightning",
        "time": "240",
        "inj": "0",
        "deaths": "0",
        "prop_dmg": "6.00k",
        "crop_dmg": "0",
        "begin": "07/08/2002",
        "county": "SPOKANE CO.",
        "state": "WA"
      },
      {
        "type": "Lightning",
        "time": "1100",
        "inj": "1",
        "deaths": "0",
        "prop_dmg": "0",
        "crop_dmg": "0",
        "begin": "08/06/2004",
        "county": "SPOKANE CO.",
        "state": "WA"
      },
      {
        "type": "Lightning",
        "time": "1100",
        "inj": "0",
        "deaths": "0",
        "prop_dmg": "4.00k",
        "crop_dmg": "0",
        "begin": "06/29/2013",
        "county": "SPOKANE CO.",
        "state": "WA"
      },
      {
        "type": "Lightning",
        "time": "1445",
        "inj": "0",
        "deaths": "0",
        "prop_dmg": "6.00k",
        "crop_dmg": "0",
        "begin": "06/29/2013",
        "county": "SPOKANE CO.",
        "state": "WA"
      }
    ],
    "Rip_Current": [],
    "Seiche": [],
    "Sleet": [],
    "Storm_Surge__FTide": [],
    "Strong_Wind": [],
    "Thunderstorm_Wind": [],
    "Tornado": [
      {
        "type": "Tornado",
        "time": "1530",
        "inj": "0",
        "deaths": "0",
        "prop_dmg": "25.0k",
        "crop_dmg": "0",
        "begin": "06/15/1954",
        "county": "SPOKANE CO.",
        "state": "WA"
      },
      {
        "type": "Tornado",
        "time": "2200",
        "inj": "0",
        "deaths": "0",
        "prop_dmg": "250",
        "crop_dmg": "0",
        "begin": "05/06/1957",
        "county": "SPOKANE CO.",
        "state": "WA"
      }
    ],
    "Tropical_Depression": [],
    "Tropical_Storm": [],
    "Tsunami": [],
    "Volcanic_Ashfall": [],
    "Waterspout": [],
    "Wildfire": [
      {
        "type": "Wildfire",
        "time": "1200",
        "inj": "0",
        "deaths": "0",
        "prop_dmg": "800k",
        "crop_dmg": "0",
        "begin": "08/14/1997",
        "county": "SPOKANE CO.",
        "state": "WA"
      },
      {
        "type": "Wildfire",
        "time": "1600",
        "inj": "0",
        "deaths": "0",
        "prop_dmg": "2.50M",
        "crop_dmg": "0",
        "begin": "07/10/2008",
        "county": "SPOKANE AREA ",
        "state": "WA"
      },
      {
        "type": "Wildfire",
        "time": "1600",
        "inj": "0",
        "deaths": "0",
        "prop_dmg": "35.0k",
        "crop_dmg": "0",
        "begin": "07/20/2013",
        "county": "SPOKANE AREA ",
        "state": "WA"
      },
      {
        "type": "Wildfire",
        "time": "1200",
        "inj": "0",
        "deaths": "0",
        "prop_dmg": "2.00k",
        "crop_dmg": "0",
        "begin": "08/20/2013",
        "county": "SPOKANE AREA ",
        "state": "WA"
      },
      {
        "type": "Wildfire",
        "time": "1400",
        "inj": "0",
        "deaths": "0",
        "prop_dmg": "4.00k",
        "crop_dmg": "0",
        "begin": "07/14/2014",
        "county": "SPOKANE AREA ",
        "state": "WA"
      },
      {
        "type": "Wildfire",
        "time": "1700",
        "inj": "0",
        "deaths": "0",
        "prop_dmg": "2.00k",
        "crop_dmg": "0",
        "begin": "07/19/2014",
        "county": "SPOKANE AREA ",
        "state": "WA"
      }
    ],
    "Winter_Storm": [],
    "Winter_Weather": []
  },
  "065": {
    "name": "Stevens County",
    "fips": "WA",
    "pop10": "43531",
    "lat": 48.390648,
    "lon": -117.854897,
    "geoid": "53065",
    "deaths": 1,
    "prop_dmg": "1.05M",
    "crop_dmg": "50.0k",
    "inj": 7,
    "all": 12,
    "eq": [],
    "Hurricane____Typhoon___": [],
    "Cold__FWind_Chill": [],
    "Coastal_Flood": [],
    "Avalanche": [],
    "Astronomical_Low_Tide": [],
    "Dense_Fog": [],
    "Drought": [],
    "Dust_Devil": [
      {
        "type": "Dust+Devil",
        "time": "1632",
        "inj": "0",
        "deaths": "0",
        "prop_dmg": "3.00k",
        "crop_dmg": "0",
        "begin": "05/18/2011",
        "county": "STEVENS CO.",
        "state": "WA"
      },
      {
        "type": "Dust+Devil",
        "time": "1632",
        "inj": "0",
        "deaths": "0",
        "prop_dmg": "3.00k",
        "crop_dmg": "0",
        "begin": "05/18/2011",
        "county": "STEVENS CO.",
        "state": "WA"
      }
    ],
    "Dust_Storm": [],
    "Excessive_Heat": [],
    "Extreme_Cold__FWind_Chill": [],
    "Flash_Flood": [
      {
        "type": "Flash+Flood",
        "time": "1530",
        "inj": "0",
        "deaths": "0",
        "prop_dmg": "5.00k",
        "crop_dmg": "0",
        "begin": "06/15/2009",
        "county": "STEVENS CO.",
        "state": "WA"
      },
      {
        "type": "Flash+Flood",
        "time": "2100",
        "inj": "0",
        "deaths": "0",
        "prop_dmg": "10.0k",
        "crop_dmg": "0",
        "begin": "06/15/2009",
        "county": "STEVENS CO.",
        "state": "WA"
      }
    ],
    "Flood": [
      {
        "type": "Flood",
        "time": "600",
        "inj": "0",
        "deaths": "0",
        "prop_dmg": "20.0k",
        "crop_dmg": "0",
        "begin": "01/17/2006",
        "county": "STEVENS CO.",
        "state": "WA"
      }
    ],
    "Freezing_Fog": [],
    "Funnel_Cloud": [],
    "Hail": [],
    "Heat": [],
    "Heavy_Rain": [
      {
        "type": "Heavy+Rain",
        "time": "1900",
        "inj": "0",
        "deaths": "0",
        "prop_dmg": "5.00k",
        "crop_dmg": "0",
        "begin": "06/24/1999",
        "county": "STEVENS CO.",
        "state": "WA"
      }
    ],
    "Heavy_Snow": [
      {
        "type": "Heavy+Snow",
        "time": "1400",
        "inj": "7",
        "deaths": "1",
        "prop_dmg": "100k",
        "crop_dmg": "0",
        "begin": "01/06/1998",
        "county": "DOUGLAS/SE CHELAN ",
        "state": "WA"
      }
    ],
    "High_Surf": [],
    "High_Wind": [],
    "Ice_Storm": [],
    "Lakeshore_Flood": [],
    "Landslide": [],
    "Lightning": [],
    "Rip_Current": [],
    "Seiche": [],
    "Sleet": [],
    "Storm_Surge__FTide": [],
    "Strong_Wind": [],
    "Thunderstorm_Wind": [],
    "Tornado": [
      {
        "type": "Tornado",
        "time": "2000",
        "inj": "0",
        "deaths": "0",
        "prop_dmg": "25.0k",
        "crop_dmg": "0",
        "begin": "04/05/1972",
        "county": "STEVENS CO.",
        "state": "WA"
      }
    ],
    "Tropical_Depression": [],
    "Tropical_Storm": [],
    "Tsunami": [],
    "Volcanic_Ashfall": [],
    "Waterspout": [],
    "Wildfire": [
      {
        "type": "Wildfire",
        "time": "1200",
        "inj": "0",
        "deaths": "0",
        "prop_dmg": "400k",
        "crop_dmg": "0",
        "begin": "08/14/1997",
        "county": "STEVENS CO.",
        "state": "WA"
      },
      {
        "type": "Wildfire",
        "time": "1800",
        "inj": "0",
        "deaths": "0",
        "prop_dmg": "50.0k",
        "crop_dmg": "50.0k",
        "begin": "07/03/1998",
        "county": "STEVENS CO.",
        "state": "WA"
      },
      {
        "type": "Wildfire",
        "time": "1400",
        "inj": "0",
        "deaths": "0",
        "prop_dmg": "130k",
        "crop_dmg": "0",
        "begin": "08/27/2014",
        "county": "NORTHEAST MOUNTAINS ",
        "state": "WA"
      }
    ],
    "Winter_Storm": [
      {
        "type": "Winter+Storm",
        "time": "0",
        "inj": "0",
        "deaths": "0",
        "prop_dmg": "300k",
        "crop_dmg": "0",
        "begin": "12/01/2001",
        "county": "STEVENS/PEND OREILLE/X N SPOKANE ",
        "state": "WA"
      }
    ],
    "Winter_Weather": []
  },
  "067": {
    "name": "Thurston County",
    "fips": "WA",
    "pop10": "252264",
    "lat": 46.932598,
    "lon": -122.829441,
    "geoid": "53067",
    "deaths": 0,
    "prop_dmg": "10.5M",
    "crop_dmg": 0,
    "inj": 2,
    "all": 7,
    "eq": [],
    "Hurricane____Typhoon___": [],
    "Cold__FWind_Chill": [],
    "Coastal_Flood": [],
    "Avalanche": [],
    "Astronomical_Low_Tide": [],
    "Dense_Fog": [],
    "Drought": [],
    "Dust_Devil": [],
    "Dust_Storm": [],
    "Excessive_Heat": [],
    "Extreme_Cold__FWind_Chill": [],
    "Flash_Flood": [],
    "Flood": [
      {
        "type": "Flood",
        "time": "1800",
        "inj": "0",
        "deaths": "0",
        "prop_dmg": "3.20M",
        "crop_dmg": "0",
        "begin": "01/07/2009",
        "county": "THURSTON CO.",
        "state": "WA"
      }
    ],
    "Freezing_Fog": [],
    "Funnel_Cloud": [],
    "Hail": [],
    "Heat": [],
    "Heavy_Rain": [
      {
        "type": "Heavy+Rain",
        "time": "0",
        "inj": "0",
        "deaths": "0",
        "prop_dmg": "7.00M",
        "crop_dmg": "0",
        "begin": "03/30/1999",
        "county": "THURSTON CO.",
        "state": "WA"
      },
      {
        "type": "Heavy+Rain",
        "time": "0",
        "inj": "0",
        "deaths": "0",
        "prop_dmg": "100k",
        "crop_dmg": "0",
        "begin": "10/20/2003",
        "county": "THURSTON CO.",
        "state": "WA"
      },
      {
        "type": "Heavy+Rain",
        "time": "0",
        "inj": "0",
        "deaths": "0",
        "prop_dmg": "200k",
        "crop_dmg": "0",
        "begin": "01/05/2006",
        "county": "THURSTON CO.",
        "state": "WA"
      },
      {
        "type": "Heavy+Rain",
        "time": "600",
        "inj": "0",
        "deaths": "0",
        "prop_dmg": "30.0k",
        "crop_dmg": "0",
        "begin": "01/28/2006",
        "county": "THURSTON CO.",
        "state": "WA"
      }
    ],
    "Heavy_Snow": [],
    "High_Surf": [],
    "High_Wind": [],
    "Ice_Storm": [],
    "Lakeshore_Flood": [],
    "Landslide": [],
    "Lightning": [
      {
        "type": "Lightning",
        "time": "1430",
        "inj": "1",
        "deaths": "0",
        "prop_dmg": "0",
        "crop_dmg": "0",
        "begin": "06/07/2002",
        "county": "THURSTON CO.",
        "state": "WA"
      },
      {
        "type": "Lightning",
        "time": "1630",
        "inj": "1",
        "deaths": "0",
        "prop_dmg": "1.00k",
        "crop_dmg": "0",
        "begin": "05/17/2003",
        "county": "THURSTON CO.",
        "state": "WA"
      }
    ],
    "Rip_Current": [],
    "Seiche": [],
    "Sleet": [],
    "Storm_Surge__FTide": [],
    "Strong_Wind": [],
    "Thunderstorm_Wind": [],
    "Tornado": [],
    "Tropical_Depression": [],
    "Tropical_Storm": [],
    "Tsunami": [],
    "Volcanic_Ashfall": [],
    "Waterspout": [],
    "Wildfire": [],
    "Winter_Storm": [],
    "Winter_Weather": []
  },
  "069": {
    "name": "Wahkiakum County",
    "fips": "WA",
    "pop10": "3978",
    "lat": 46.294638,
    "lon": -123.424458,
    "geoid": "53069",
    "deaths": 0,
    "prop_dmg": 0,
    "crop_dmg": 0,
    "inj": 0,
    "all": 0,
    "eq": [],
    "Hurricane____Typhoon___": [],
    "Cold__FWind_Chill": [],
    "Coastal_Flood": [],
    "Avalanche": [],
    "Astronomical_Low_Tide": [],
    "Dense_Fog": [],
    "Drought": [],
    "Dust_Devil": [],
    "Dust_Storm": [],
    "Excessive_Heat": [],
    "Extreme_Cold__FWind_Chill": [],
    "Flash_Flood": [],
    "Flood": [],
    "Freezing_Fog": [],
    "Funnel_Cloud": [],
    "Hail": [],
    "Heat": [],
    "Heavy_Rain": [],
    "Heavy_Snow": [],
    "High_Surf": [],
    "High_Wind": [],
    "Ice_Storm": [],
    "Lakeshore_Flood": [],
    "Landslide": [],
    "Lightning": [],
    "Rip_Current": [],
    "Seiche": [],
    "Sleet": [],
    "Storm_Surge__FTide": [],
    "Strong_Wind": [],
    "Thunderstorm_Wind": [],
    "Tornado": [],
    "Tropical_Depression": [],
    "Tropical_Storm": [],
    "Tsunami": [],
    "Volcanic_Ashfall": [],
    "Waterspout": [],
    "Wildfire": [],
    "Winter_Storm": [],
    "Winter_Weather": []
  },
  "071": {
    "name": "Walla Walla County",
    "fips": "WA",
    "pop10": "58781",
    "lat": 46.254606,
    "lon": -118.480374,
    "geoid": "53071",
    "deaths": 0,
    "prop_dmg": "1.37M",
    "crop_dmg": 0,
    "inj": 0,
    "all": 5,
    "eq": [],
    "Hurricane____Typhoon___": [],
    "Cold__FWind_Chill": [],
    "Coastal_Flood": [],
    "Avalanche": [],
    "Astronomical_Low_Tide": [],
    "Dense_Fog": [],
    "Drought": [],
    "Dust_Devil": [],
    "Dust_Storm": [],
    "Excessive_Heat": [],
    "Extreme_Cold__FWind_Chill": [],
    "Flash_Flood": [
      {
        "type": "Flash+Flood",
        "time": "0",
        "inj": "0",
        "deaths": "0",
        "prop_dmg": "1.25M",
        "crop_dmg": "0",
        "begin": "07/16/2012",
        "county": "WALLA WALLA CO.",
        "state": "WA"
      }
    ],
    "Flood": [],
    "Freezing_Fog": [],
    "Funnel_Cloud": [],
    "Hail": [],
    "Heat": [],
    "Heavy_Rain": [
      {
        "type": "Heavy+Rain",
        "time": "1000",
        "inj": "0",
        "deaths": "0",
        "prop_dmg": "3.00k",
        "crop_dmg": "0",
        "begin": "05/30/2000",
        "county": "WALLA WALLA CO.",
        "state": "WA"
      },
      {
        "type": "Heavy+Rain",
        "time": "0",
        "inj": "0",
        "deaths": "0",
        "prop_dmg": "90.0k",
        "crop_dmg": "0",
        "begin": "10/01/2000",
        "county": "WALLA WALLA CO.",
        "state": "WA"
      }
    ],
    "Heavy_Snow": [],
    "High_Surf": [],
    "High_Wind": [],
    "Ice_Storm": [],
    "Lakeshore_Flood": [],
    "Landslide": [],
    "Lightning": [
      {
        "type": "Lightning",
        "time": "1958",
        "inj": "0",
        "deaths": "0",
        "prop_dmg": "1.00k",
        "crop_dmg": "0",
        "begin": "04/16/2003",
        "county": "WALLA WALLA CO.",
        "state": "WA"
      }
    ],
    "Rip_Current": [],
    "Seiche": [],
    "Sleet": [],
    "Storm_Surge__FTide": [],
    "Strong_Wind": [],
    "Thunderstorm_Wind": [],
    "Tornado": [
      {
        "type": "Tornado",
        "time": "2000",
        "inj": "0",
        "deaths": "0",
        "prop_dmg": "25.0k",
        "crop_dmg": "0",
        "begin": "06/26/1958",
        "county": "WALLA WALLA CO.",
        "state": "WA"
      }
    ],
    "Tropical_Depression": [],
    "Tropical_Storm": [],
    "Tsunami": [],
    "Volcanic_Ashfall": [],
    "Waterspout": [],
    "Wildfire": [],
    "Winter_Storm": [],
    "Winter_Weather": []
  },
  "073": {
    "name": "Whatcom County",
    "fips": "WA",
    "pop10": "201140",
    "lat": 48.842653,
    "lon": -121.836432,
    "geoid": "53073",
    "deaths": 0,
    "prop_dmg": "7.23M",
    "crop_dmg": 0,
    "inj": 0,
    "all": 5,
    "eq": [],
    "Hurricane____Typhoon___": [],
    "Cold__FWind_Chill": [],
    "Coastal_Flood": [
      {
        "type": "Coastal+Flood",
        "time": "700",
        "inj": "0",
        "deaths": "0",
        "prop_dmg": "1.00k",
        "crop_dmg": "0",
        "begin": "01/03/2014",
        "county": "WESTERN WHATCOM COUNTY ",
        "state": "WA"
      }
    ],
    "Avalanche": [],
    "Astronomical_Low_Tide": [],
    "Dense_Fog": [],
    "Drought": [],
    "Dust_Devil": [],
    "Dust_Storm": [],
    "Excessive_Heat": [],
    "Extreme_Cold__FWind_Chill": [],
    "Flash_Flood": [],
    "Flood": [
      {
        "type": "Flood",
        "time": "900",
        "inj": "0",
        "deaths": "0",
        "prop_dmg": "5.60M",
        "crop_dmg": "0",
        "begin": "01/07/2009",
        "county": "WHATCOM CO.",
        "state": "WA"
      }
    ],
    "Freezing_Fog": [],
    "Funnel_Cloud": [],
    "Hail": [],
    "Heat": [],
    "Heavy_Rain": [
      {
        "type": "Heavy+Rain",
        "time": "0",
        "inj": "0",
        "deaths": "0",
        "prop_dmg": "100k",
        "crop_dmg": "0",
        "begin": "10/20/2003",
        "county": "WHATCOM CO.",
        "state": "WA"
      }
    ],
    "Heavy_Snow": [
      {
        "type": "Heavy+Snow",
        "time": "900",
        "inj": "0",
        "deaths": "0",
        "prop_dmg": "1.50M",
        "crop_dmg": "0",
        "begin": "11/26/2006",
        "county": "WESTERN WHATCOM COUNTY ",
        "state": "WA"
      },
      {
        "type": "Heavy+Snow",
        "time": "900",
        "inj": "0",
        "deaths": "0",
        "prop_dmg": "25.0k",
        "crop_dmg": "0",
        "begin": "01/10/2007",
        "county": "WESTERN WHATCOM COUNTY ",
        "state": "WA"
      }
    ],
    "High_Surf": [],
    "High_Wind": [],
    "Ice_Storm": [],
    "Lakeshore_Flood": [],
    "Landslide": [],
    "Lightning": [],
    "Rip_Current": [],
    "Seiche": [],
    "Sleet": [],
    "Storm_Surge__FTide": [],
    "Strong_Wind": [],
    "Thunderstorm_Wind": [],
    "Tornado": [],
    "Tropical_Depression": [],
    "Tropical_Storm": [],
    "Tsunami": [],
    "Volcanic_Ashfall": [],
    "Waterspout": [],
    "Wildfire": [],
    "Winter_Storm": [],
    "Winter_Weather": []
  },
  "075": {
    "name": "Whitman County",
    "fips": "WA",
    "pop10": "44776",
    "lat": 46.903322,
    "lon": -117.522962,
    "geoid": "53075",
    "deaths": 0,
    "prop_dmg": "1.84M",
    "crop_dmg": "510k",
    "inj": 0,
    "all": 18,
    "eq": [],
    "Hurricane____Typhoon___": [],
    "Cold__FWind_Chill": [],
    "Coastal_Flood": [],
    "Avalanche": [],
    "Astronomical_Low_Tide": [],
    "Dense_Fog": [],
    "Drought": [],
    "Dust_Devil": [],
    "Dust_Storm": [
      {
        "type": "Dust+Storm",
        "time": "1519",
        "inj": "0",
        "deaths": "0",
        "prop_dmg": "15.0k",
        "crop_dmg": "0",
        "begin": "08/12/2014",
        "county": "WASHINGTON PALOUSE ",
        "state": "WA"
      }
    ],
    "Excessive_Heat": [],
    "Extreme_Cold__FWind_Chill": [],
    "Flash_Flood": [
      {
        "type": "Flash+Flood",
        "time": "1130",
        "inj": "0",
        "deaths": "0",
        "prop_dmg": "500k",
        "crop_dmg": "0",
        "begin": "06/07/1998",
        "county": "WHITMAN CO.",
        "state": "WA"
      },
      {
        "type": "Flash+Flood",
        "time": "100",
        "inj": "0",
        "deaths": "0",
        "prop_dmg": "250k",
        "crop_dmg": "0",
        "begin": "02/24/1999",
        "county": "WHITMAN CO.",
        "state": "WA"
      }
    ],
    "Flood": [
      {
        "type": "Flood",
        "time": "430",
        "inj": "0",
        "deaths": "0",
        "prop_dmg": "50.0k",
        "crop_dmg": "0",
        "begin": "02/02/2000",
        "county": "WHITMAN CO.",
        "state": "WA"
      },
      {
        "type": "Flood",
        "time": "0",
        "inj": "0",
        "deaths": "0",
        "prop_dmg": "10.0k",
        "crop_dmg": "0",
        "begin": "02/01/2003",
        "county": "WASHINGTON PALOUSE ",
        "state": "WA"
      },
      {
        "type": "Flood",
        "time": "0",
        "inj": "0",
        "deaths": "0",
        "prop_dmg": "20.0k",
        "crop_dmg": "0",
        "begin": "01/03/2007",
        "county": "WHITMAN CO.",
        "state": "WA"
      },
      {
        "type": "Flood",
        "time": "0",
        "inj": "0",
        "deaths": "0",
        "prop_dmg": "5.00k",
        "crop_dmg": "0",
        "begin": "01/03/2007",
        "county": "WHITMAN CO.",
        "state": "WA"
      },
      {
        "type": "Flood",
        "time": "1500",
        "inj": "0",
        "deaths": "0",
        "prop_dmg": "10.0k",
        "crop_dmg": "0",
        "begin": "01/07/2009",
        "county": "WHITMAN CO.",
        "state": "WA"
      },
      {
        "type": "Flood",
        "time": "2000",
        "inj": "0",
        "deaths": "0",
        "prop_dmg": "25.0k",
        "crop_dmg": "0",
        "begin": "01/16/2011",
        "county": "WHITMAN CO.",
        "state": "WA"
      },
      {
        "type": "Flood",
        "time": "0",
        "inj": "0",
        "deaths": "0",
        "prop_dmg": "5.00k",
        "crop_dmg": "0",
        "begin": "04/01/2012",
        "county": "WHITMAN CO.",
        "state": "WA"
      },
      {
        "type": "Flood",
        "time": "1200",
        "inj": "0",
        "deaths": "0",
        "prop_dmg": "600k",
        "crop_dmg": "0",
        "begin": "02/12/2014",
        "county": "WHITMAN CO.",
        "state": "WA"
      },
      {
        "type": "Flood",
        "time": "800",
        "inj": "0",
        "deaths": "0",
        "prop_dmg": "200k",
        "crop_dmg": "0",
        "begin": "03/05/2014",
        "county": "WHITMAN CO.",
        "state": "WA"
      }
    ],
    "Freezing_Fog": [],
    "Funnel_Cloud": [],
    "Hail": [],
    "Heat": [],
    "Heavy_Rain": [
      {
        "type": "Heavy+Rain",
        "time": "1400",
        "inj": "0",
        "deaths": "0",
        "prop_dmg": "1.00k",
        "crop_dmg": "0",
        "begin": "06/10/2010",
        "county": "WHITMAN CO.",
        "state": "WA"
      }
    ],
    "Heavy_Snow": [],
    "High_Surf": [],
    "High_Wind": [],
    "Ice_Storm": [],
    "Lakeshore_Flood": [],
    "Landslide": [],
    "Lightning": [
      {
        "type": "Lightning",
        "time": "1400",
        "inj": "0",
        "deaths": "0",
        "prop_dmg": "2.00k",
        "crop_dmg": "0",
        "begin": "06/10/2010",
        "county": "WHITMAN CO.",
        "state": "WA"
      }
    ],
    "Rip_Current": [],
    "Seiche": [],
    "Sleet": [],
    "Storm_Surge__FTide": [],
    "Strong_Wind": [],
    "Thunderstorm_Wind": [],
    "Tornado": [
      {
        "type": "Tornado",
        "time": "1830",
        "inj": "0",
        "deaths": "0",
        "prop_dmg": "25.0k",
        "crop_dmg": "0",
        "begin": "08/30/1971",
        "county": "WHITMAN CO.",
        "state": "WA"
      }
    ],
    "Tropical_Depression": [],
    "Tropical_Storm": [],
    "Tsunami": [],
    "Volcanic_Ashfall": [],
    "Waterspout": [],
    "Wildfire": [
      {
        "type": "Wildfire",
        "time": "1130",
        "inj": "0",
        "deaths": "0",
        "prop_dmg": "70.0k",
        "crop_dmg": "500k",
        "begin": "07/27/1998",
        "county": "WHITMAN CO.",
        "state": "WA"
      },
      {
        "type": "Wildfire",
        "time": "130",
        "inj": "0",
        "deaths": "0",
        "prop_dmg": "50.0k",
        "crop_dmg": "10.0k",
        "begin": "08/06/1998",
        "county": "WHITMAN CO.",
        "state": "WA"
      }
    ],
    "Winter_Storm": [],
    "Winter_Weather": [
      {
        "type": "Winter+Weather",
        "time": "600",
        "inj": "0",
        "deaths": "0",
        "prop_dmg": "2.00k",
        "crop_dmg": "0",
        "begin": "06/10/2008",
        "county": "WASHINGTON PALOUSE ",
        "state": "WA"
      }
    ]
  },
  "077": {
    "name": "Yakima County",
    "fips": "WA",
    "pop10": "243231",
    "lat": 46.456558,
    "lon": -120.740145,
    "geoid": "53077",
    "deaths": 3,
    "prop_dmg": "15.2M",
    "crop_dmg": "65.6M",
    "inj": 4,
    "all": 20,
    "eq": [],
    "Hurricane____Typhoon___": [],
    "Cold__FWind_Chill": [],
    "Coastal_Flood": [],
    "Avalanche": [],
    "Astronomical_Low_Tide": [],
    "Dense_Fog": [
      {
        "type": "Dense+Fog",
        "time": "950",
        "inj": "1",
        "deaths": "1",
        "prop_dmg": "0",
        "crop_dmg": "0",
        "begin": "12/01/2002",
        "county": "YAKIMA VALLEY ",
        "state": "WA"
      }
    ],
    "Drought": [],
    "Dust_Devil": [
      {
        "type": "Dust+Devil",
        "time": "1045",
        "inj": "0",
        "deaths": "0",
        "prop_dmg": "1.00k",
        "crop_dmg": "0",
        "begin": "02/27/2003",
        "county": "YAKIMA CO.",
        "state": "WA"
      },
      {
        "type": "Dust+Devil",
        "time": "1045",
        "inj": "0",
        "deaths": "0",
        "prop_dmg": "1.00k",
        "crop_dmg": "0",
        "begin": "02/27/2003",
        "county": "YAKIMA CO.",
        "state": "WA"
      }
    ],
    "Dust_Storm": [
      {
        "type": "Dust+Storm",
        "time": "1215",
        "inj": "1",
        "deaths": "0",
        "prop_dmg": "0",
        "crop_dmg": "0",
        "begin": "03/16/2005",
        "county": "YAKIMA VALLEY ",
        "state": "WA"
      },
      {
        "type": "Dust+Storm",
        "time": "1145",
        "inj": "0",
        "deaths": "0",
        "prop_dmg": "100k",
        "crop_dmg": "0",
        "begin": "03/11/2012",
        "county": "YAKIMA VALLEY ",
        "state": "WA"
      }
    ],
    "Excessive_Heat": [],
    "Extreme_Cold__FWind_Chill": [
      {
        "type": "Extreme+Cold%2FWind+Chill",
        "time": "0",
        "inj": "0",
        "deaths": "0",
        "prop_dmg": "0",
        "crop_dmg": "65.0M",
        "begin": "11/01/2002",
        "county": "E YAKIMA ",
        "state": "WA"
      }
    ],
    "Flash_Flood": [],
    "Flood": [
      {
        "type": "Flood",
        "time": "1600",
        "inj": "0",
        "deaths": "0",
        "prop_dmg": "1.57M",
        "crop_dmg": "0",
        "begin": "01/07/2009",
        "county": "YAKIMA CO.",
        "state": "WA"
      },
      {
        "type": "Flood",
        "time": "1800",
        "inj": "0",
        "deaths": "0",
        "prop_dmg": "1.00k",
        "crop_dmg": "0",
        "begin": "01/16/2011",
        "county": "YAKIMA CO.",
        "state": "WA"
      }
    ],
    "Freezing_Fog": [],
    "Funnel_Cloud": [],
    "Hail": [],
    "Heat": [
      {
        "type": "Heat",
        "time": "1100",
        "inj": "0",
        "deaths": "1",
        "prop_dmg": "0",
        "crop_dmg": "0",
        "begin": "07/19/2005",
        "county": "YAKIMA VALLEY ",
        "state": "WA"
      }
    ],
    "Heavy_Rain": [
      {
        "type": "Heavy+Rain",
        "time": "400",
        "inj": "0",
        "deaths": "0",
        "prop_dmg": "0",
        "crop_dmg": "450k",
        "begin": "08/22/2004",
        "county": "YAKIMA CO.",
        "state": "WA"
      }
    ],
    "Heavy_Snow": [
      {
        "type": "Heavy+Snow",
        "time": "0",
        "inj": "0",
        "deaths": "1",
        "prop_dmg": "0",
        "crop_dmg": "0",
        "begin": "11/19/1996",
        "county": "YAKIMA VALLEY ",
        "state": "WA"
      },
      {
        "type": "Heavy+Snow",
        "time": "0",
        "inj": "0",
        "deaths": "0",
        "prop_dmg": "100k",
        "crop_dmg": "0",
        "begin": "11/28/2001",
        "county": "YAKIMA VALLEY ",
        "state": "WA"
      }
    ],
    "High_Surf": [],
    "High_Wind": [],
    "Ice_Storm": [],
    "Lakeshore_Flood": [],
    "Landslide": [],
    "Lightning": [
      {
        "type": "Lightning",
        "time": "2030",
        "inj": "0",
        "deaths": "0",
        "prop_dmg": "900k",
        "crop_dmg": "100k",
        "begin": "08/23/2000",
        "county": "YAKIMA CO.",
        "state": "WA"
      },
      {
        "type": "Lightning",
        "time": "1530",
        "inj": "0",
        "deaths": "0",
        "prop_dmg": "35.0k",
        "crop_dmg": "0",
        "begin": "05/18/2006",
        "county": "YAKIMA CO.",
        "state": "WA"
      }
    ],
    "Rip_Current": [],
    "Seiche": [],
    "Sleet": [],
    "Storm_Surge__FTide": [],
    "Strong_Wind": [],
    "Thunderstorm_Wind": [],
    "Tornado": [
      {
        "type": "Tornado",
        "time": "2040",
        "inj": "0",
        "deaths": "0",
        "prop_dmg": "2.50k",
        "crop_dmg": "0",
        "begin": "04/30/1957",
        "county": "YAKIMA CO.",
        "state": "WA"
      }
    ],
    "Tropical_Depression": [],
    "Tropical_Storm": [],
    "Tsunami": [],
    "Volcanic_Ashfall": [],
    "Waterspout": [],
    "Wildfire": [
      {
        "type": "Wildfire",
        "time": "1300",
        "inj": "0",
        "deaths": "0",
        "prop_dmg": "0",
        "crop_dmg": "3.00k",
        "begin": "03/16/2005",
        "county": "E YAKIMA ",
        "state": "WA"
      },
      {
        "type": "Wildfire",
        "time": "1335",
        "inj": "2",
        "deaths": "0",
        "prop_dmg": "4.00M",
        "crop_dmg": "0",
        "begin": "02/12/2011",
        "county": "YAKIMA VALLEY ",
        "state": "WA"
      },
      {
        "type": "Wildfire",
        "time": "1300",
        "inj": "0",
        "deaths": "0",
        "prop_dmg": "180k",
        "crop_dmg": "0",
        "begin": "04/06/2011",
        "county": "YAKIMA VALLEY ",
        "state": "WA"
      },
      {
        "type": "Wildfire",
        "time": "1345",
        "inj": "0",
        "deaths": "0",
        "prop_dmg": "15.0k",
        "crop_dmg": "0",
        "begin": "06/16/2011",
        "county": "YAKIMA VALLEY ",
        "state": "WA"
      },
      {
        "type": "Wildfire",
        "time": "1200",
        "inj": "0",
        "deaths": "0",
        "prop_dmg": "8.30M",
        "crop_dmg": "0",
        "begin": "08/13/2012",
        "county": "EAST SLOPES OF THE WASHINGTON CASCADES ",
        "state": "WA"
      }
    ],
    "Winter_Storm": [],
    "Winter_Weather": []
  }
}