{
  "001": {
    "name": "Albany County",
    "fips": "WY",
    "pop10": "36299",
    "lat": 41.665514,
    "lon": -105.721883,
    "geoid": "56001",
    "deaths": 2,
    "prop_dmg": "606k",
    "crop_dmg": 0,
    "inj": 1,
    "all": 6,
    "eq": [
      {
        "type": "earthquake",
        "begin": "10/18/1984",
        "inj": "",
        "prop_dmg": "",
        "crop_dmg": "",
        "county": "WYOMING:  DOUGLAS, MEDICINE BOW",
        "state": "WY",
        "deaths": ""
      }
    ],
    "Hurricane____Typhoon___": [],
    "Cold__FWind_Chill": [],
    "Coastal_Flood": [],
    "Avalanche": [],
    "Astronomical_Low_Tide": [],
    "Dense_Fog": [],
    "Drought": [],
    "Dust_Devil": [],
    "Dust_Storm": [],
    "Excessive_Heat": [],
    "Extreme_Cold__FWind_Chill": [],
    "Flash_Flood": [],
    "Flood": [],
    "Freezing_Fog": [],
    "Funnel_Cloud": [],
    "Hail": [],
    "Heat": [],
    "Heavy_Rain": [],
    "Heavy_Snow": [],
    "High_Surf": [],
    "High_Wind": [],
    "Ice_Storm": [],
    "Lakeshore_Flood": [],
    "Landslide": [],
    "Lightning": [
      {
        "type": "Lightning",
        "time": "1900",
        "inj": "0",
        "deaths": "0",
        "prop_dmg": "4.00k",
        "crop_dmg": "0",
        "begin": "06/26/1996",
        "county": "ALBANY CO.",
        "state": "WY"
      },
      {
        "type": "Lightning",
        "time": "1615",
        "inj": "0",
        "deaths": "0",
        "prop_dmg": "2.00k",
        "crop_dmg": "0",
        "begin": "07/07/1996",
        "county": "ALBANY CO.",
        "state": "WY"
      },
      {
        "type": "Lightning",
        "time": "1330",
        "inj": "0",
        "deaths": "0",
        "prop_dmg": "300k",
        "crop_dmg": "0",
        "begin": "08/05/1996",
        "county": "ALBANY CO.",
        "state": "WY"
      },
      {
        "type": "Lightning",
        "time": "1715",
        "inj": "0",
        "deaths": "2",
        "prop_dmg": "0",
        "crop_dmg": "0",
        "begin": "07/24/1999",
        "county": "ALBANY CO.",
        "state": "WY"
      }
    ],
    "Rip_Current": [],
    "Seiche": [],
    "Sleet": [],
    "Storm_Surge__FTide": [],
    "Strong_Wind": [],
    "Thunderstorm_Wind": [],
    "Tornado": [
      {
        "type": "Tornado",
        "time": "1158",
        "inj": "1",
        "deaths": "0",
        "prop_dmg": "300k",
        "crop_dmg": "0",
        "begin": "05/22/2008",
        "county": "ALBANY CO.",
        "state": "WY"
      }
    ],
    "Tropical_Depression": [],
    "Tropical_Storm": [],
    "Tsunami": [],
    "Volcanic_Ashfall": [],
    "Waterspout": [],
    "Wildfire": [],
    "Winter_Storm": [],
    "Winter_Weather": []
  },
  "003": {
    "name": "Big Horn County",
    "fips": "WY",
    "pop10": "11668",
    "lat": 44.525654,
    "lon": -107.99332,
    "geoid": "56003",
    "deaths": 1,
    "prop_dmg": "2.34M",
    "crop_dmg": "180k",
    "inj": 2,
    "all": 17,
    "eq": [],
    "Hurricane____Typhoon___": [],
    "Cold__FWind_Chill": [],
    "Coastal_Flood": [],
    "Avalanche": [],
    "Astronomical_Low_Tide": [],
    "Dense_Fog": [],
    "Drought": [],
    "Dust_Devil": [],
    "Dust_Storm": [],
    "Excessive_Heat": [],
    "Extreme_Cold__FWind_Chill": [],
    "Flash_Flood": [
      {
        "type": "Flash+Flood",
        "time": "1830",
        "inj": "0",
        "deaths": "0",
        "prop_dmg": "91.0k",
        "crop_dmg": "0",
        "begin": "06/13/1997",
        "county": "BIG HORN CO.",
        "state": "WY"
      }
    ],
    "Flood": [
      {
        "type": "Flood",
        "time": "800",
        "inj": "0",
        "deaths": "0",
        "prop_dmg": "0",
        "crop_dmg": "15.0k",
        "begin": "06/10/2011",
        "county": "BIG HORN CO.",
        "state": "WY"
      },
      {
        "type": "Flood",
        "time": "100",
        "inj": "0",
        "deaths": "0",
        "prop_dmg": "150k",
        "crop_dmg": "50.0k",
        "begin": "06/24/2011",
        "county": "BIG HORN CO.",
        "state": "WY"
      },
      {
        "type": "Flood",
        "time": "100",
        "inj": "0",
        "deaths": "0",
        "prop_dmg": "440k",
        "crop_dmg": "100k",
        "begin": "06/24/2011",
        "county": "BIG HORN CO.",
        "state": "WY"
      },
      {
        "type": "Flood",
        "time": "2000",
        "inj": "0",
        "deaths": "0",
        "prop_dmg": "145k",
        "crop_dmg": "0",
        "begin": "06/28/2011",
        "county": "BIG HORN CO.",
        "state": "WY"
      },
      {
        "type": "Flood",
        "time": "2000",
        "inj": "0",
        "deaths": "0",
        "prop_dmg": "25.0k",
        "crop_dmg": "0",
        "begin": "06/28/2011",
        "county": "BIG HORN CO.",
        "state": "WY"
      },
      {
        "type": "Flood",
        "time": "2000",
        "inj": "0",
        "deaths": "0",
        "prop_dmg": "300k",
        "crop_dmg": "0",
        "begin": "06/28/2011",
        "county": "BIG HORN CO.",
        "state": "WY"
      },
      {
        "type": "Flood",
        "time": "0",
        "inj": "0",
        "deaths": "0",
        "prop_dmg": "50.0k",
        "crop_dmg": "15.0k",
        "begin": "07/01/2011",
        "county": "BIG HORN CO.",
        "state": "WY"
      },
      {
        "type": "Flood",
        "time": "1600",
        "inj": "0",
        "deaths": "0",
        "prop_dmg": "250k",
        "crop_dmg": "0",
        "begin": "03/07/2014",
        "county": "BIG HORN CO.",
        "state": "WY"
      },
      {
        "type": "Flood",
        "time": "1800",
        "inj": "0",
        "deaths": "0",
        "prop_dmg": "500k",
        "crop_dmg": "0",
        "begin": "03/07/2014",
        "county": "BIG HORN CO.",
        "state": "WY"
      }
    ],
    "Freezing_Fog": [],
    "Funnel_Cloud": [],
    "Hail": [],
    "Heat": [],
    "Heavy_Rain": [],
    "Heavy_Snow": [],
    "High_Surf": [],
    "High_Wind": [],
    "Ice_Storm": [],
    "Lakeshore_Flood": [],
    "Landslide": [],
    "Lightning": [],
    "Rip_Current": [],
    "Seiche": [],
    "Sleet": [],
    "Storm_Surge__FTide": [],
    "Strong_Wind": [],
    "Thunderstorm_Wind": [],
    "Tornado": [
      {
        "type": "Tornado",
        "time": "1600",
        "inj": "0",
        "deaths": "0",
        "prop_dmg": "25.0k",
        "crop_dmg": "0",
        "begin": "06/03/1958",
        "county": "BIG HORN CO.",
        "state": "WY"
      },
      {
        "type": "Tornado",
        "time": "1600",
        "inj": "1",
        "deaths": "1",
        "prop_dmg": "2.50k",
        "crop_dmg": "0",
        "begin": "06/26/1959",
        "county": "BIG HORN CO.",
        "state": "WY"
      },
      {
        "type": "Tornado",
        "time": "1600",
        "inj": "0",
        "deaths": "0",
        "prop_dmg": "2.50k",
        "crop_dmg": "0",
        "begin": "06/12/1962",
        "county": "BIG HORN CO.",
        "state": "WY"
      },
      {
        "type": "Tornado",
        "time": "1600",
        "inj": "0",
        "deaths": "0",
        "prop_dmg": "2.50k",
        "crop_dmg": "0",
        "begin": "07/09/1962",
        "county": "BIG HORN CO.",
        "state": "WY"
      },
      {
        "type": "Tornado",
        "time": "1600",
        "inj": "0",
        "deaths": "0",
        "prop_dmg": "2.50k",
        "crop_dmg": "0",
        "begin": "07/24/1967",
        "county": "BIG HORN CO.",
        "state": "WY"
      },
      {
        "type": "Tornado",
        "time": "1430",
        "inj": "1",
        "deaths": "0",
        "prop_dmg": "250k",
        "crop_dmg": "0",
        "begin": "07/04/1978",
        "county": "BIG HORN CO.",
        "state": "WY"
      }
    ],
    "Tropical_Depression": [],
    "Tropical_Storm": [],
    "Tsunami": [],
    "Volcanic_Ashfall": [],
    "Waterspout": [],
    "Wildfire": [
      {
        "type": "Wildfire",
        "time": "0",
        "inj": "0",
        "deaths": "0",
        "prop_dmg": "100k",
        "crop_dmg": "0",
        "begin": "09/01/2007",
        "county": "BIGHORN MOUNTAINS WEST ",
        "state": "WY"
      }
    ],
    "Winter_Storm": [],
    "Winter_Weather": []
  },
  "005": {
    "name": "Campbell County",
    "fips": "WY",
    "pop10": "46133",
    "lat": 44.241321,
    "lon": -105.552029,
    "geoid": "56005",
    "deaths": 2,
    "prop_dmg": "7.83M",
    "crop_dmg": 0,
    "inj": 23,
    "all": 11,
    "eq": [],
    "Hurricane____Typhoon___": [],
    "Cold__FWind_Chill": [],
    "Coastal_Flood": [],
    "Avalanche": [],
    "Astronomical_Low_Tide": [],
    "Dense_Fog": [],
    "Drought": [],
    "Dust_Devil": [],
    "Dust_Storm": [],
    "Excessive_Heat": [],
    "Extreme_Cold__FWind_Chill": [],
    "Flash_Flood": [],
    "Flood": [],
    "Freezing_Fog": [],
    "Funnel_Cloud": [],
    "Hail": [],
    "Heat": [],
    "Heavy_Rain": [],
    "Heavy_Snow": [],
    "High_Surf": [],
    "High_Wind": [],
    "Ice_Storm": [],
    "Lakeshore_Flood": [],
    "Landslide": [],
    "Lightning": [
      {
        "type": "Lightning",
        "time": "1838",
        "inj": "1",
        "deaths": "0",
        "prop_dmg": "0",
        "crop_dmg": "0",
        "begin": "06/30/2010",
        "county": "CAMPBELL CO.",
        "state": "WY"
      }
    ],
    "Rip_Current": [],
    "Seiche": [],
    "Sleet": [],
    "Storm_Surge__FTide": [],
    "Strong_Wind": [],
    "Thunderstorm_Wind": [],
    "Tornado": [
      {
        "type": "Tornado",
        "time": "1800",
        "inj": "0",
        "deaths": "0",
        "prop_dmg": "2.50k",
        "crop_dmg": "0",
        "begin": "06/12/1953",
        "county": "CAMPBELL CO.",
        "state": "WY"
      },
      {
        "type": "Tornado",
        "time": "1225",
        "inj": "0",
        "deaths": "0",
        "prop_dmg": "25.0k",
        "crop_dmg": "0",
        "begin": "05/27/1959",
        "county": "CAMPBELL CO.",
        "state": "WY"
      },
      {
        "type": "Tornado",
        "time": "1800",
        "inj": "6",
        "deaths": "0",
        "prop_dmg": "25.0k",
        "crop_dmg": "0",
        "begin": "07/22/1966",
        "county": "CAMPBELL CO.",
        "state": "WY"
      },
      {
        "type": "Tornado",
        "time": "1530",
        "inj": "1",
        "deaths": "0",
        "prop_dmg": "0",
        "crop_dmg": "0",
        "begin": "06/25/1975",
        "county": "CAMPBELL CO.",
        "state": "WY"
      },
      {
        "type": "Tornado",
        "time": "1447",
        "inj": "2",
        "deaths": "0",
        "prop_dmg": "2.50M",
        "crop_dmg": "0",
        "begin": "05/06/1988",
        "county": "CAMPBELL CO.",
        "state": "WY"
      },
      {
        "type": "Tornado",
        "time": "1540",
        "inj": "13",
        "deaths": "2",
        "prop_dmg": "5.00M",
        "crop_dmg": "0",
        "begin": "08/12/2005",
        "county": "CAMPBELL CO.",
        "state": "WY"
      }
    ],
    "Tropical_Depression": [],
    "Tropical_Storm": [],
    "Tsunami": [],
    "Volcanic_Ashfall": [],
    "Waterspout": [],
    "Wildfire": [],
    "Winter_Storm": [
      {
        "type": "Winter+Storm",
        "time": "400",
        "inj": "0",
        "deaths": "0",
        "prop_dmg": "25.0k",
        "crop_dmg": "0",
        "begin": "10/26/1996",
        "county": "GILLETTE ",
        "state": "WY"
      },
      {
        "type": "Winter+Storm",
        "time": "400",
        "inj": "0",
        "deaths": "0",
        "prop_dmg": "5.00k",
        "crop_dmg": "0",
        "begin": "10/26/1996",
        "county": "SOUTH CAMPBELL ",
        "state": "WY"
      },
      {
        "type": "Winter+Storm",
        "time": "1500",
        "inj": "0",
        "deaths": "0",
        "prop_dmg": "50.0k",
        "crop_dmg": "0",
        "begin": "10/04/2005",
        "county": "SOUTH CAMPBELL ",
        "state": "WY"
      },
      {
        "type": "Winter+Storm",
        "time": "1600",
        "inj": "0",
        "deaths": "0",
        "prop_dmg": "200k",
        "crop_dmg": "0",
        "begin": "10/04/2005",
        "county": "NORTHERN CAMPBELL ",
        "state": "WY"
      }
    ],
    "Winter_Weather": []
  },
  "007": {
    "name": "Carbon County",
    "fips": "WY",
    "pop10": "15885",
    "lat": 41.70359,
    "lon": -106.933153,
    "geoid": "56007",
    "deaths": 1,
    "prop_dmg": "250k",
    "crop_dmg": 0,
    "inj": 2,
    "all": 3,
    "eq": [],
    "Hurricane____Typhoon___": [],
    "Cold__FWind_Chill": [],
    "Coastal_Flood": [],
    "Avalanche": [],
    "Astronomical_Low_Tide": [],
    "Dense_Fog": [],
    "Drought": [],
    "Dust_Devil": [],
    "Dust_Storm": [],
    "Excessive_Heat": [],
    "Extreme_Cold__FWind_Chill": [],
    "Flash_Flood": [],
    "Flood": [],
    "Freezing_Fog": [],
    "Funnel_Cloud": [],
    "Hail": [],
    "Heat": [],
    "Heavy_Rain": [],
    "Heavy_Snow": [],
    "High_Surf": [],
    "High_Wind": [],
    "Ice_Storm": [],
    "Lakeshore_Flood": [],
    "Landslide": [],
    "Lightning": [
      {
        "type": "Lightning",
        "time": "1606",
        "inj": "1",
        "deaths": "0",
        "prop_dmg": "0",
        "crop_dmg": "0",
        "begin": "06/14/1998",
        "county": "CARBON CO.",
        "state": "WY"
      },
      {
        "type": "Lightning",
        "time": "1430",
        "inj": "1",
        "deaths": "1",
        "prop_dmg": "0",
        "crop_dmg": "0",
        "begin": "08/10/1998",
        "county": "CARBON CO.",
        "state": "WY"
      }
    ],
    "Rip_Current": [],
    "Seiche": [],
    "Sleet": [],
    "Storm_Surge__FTide": [],
    "Strong_Wind": [],
    "Thunderstorm_Wind": [],
    "Tornado": [
      {
        "type": "Tornado",
        "time": "1400",
        "inj": "0",
        "deaths": "0",
        "prop_dmg": "250k",
        "crop_dmg": "0",
        "begin": "07/02/1976",
        "county": "CARBON CO.",
        "state": "WY"
      }
    ],
    "Tropical_Depression": [],
    "Tropical_Storm": [],
    "Tsunami": [],
    "Volcanic_Ashfall": [],
    "Waterspout": [],
    "Wildfire": [],
    "Winter_Storm": [],
    "Winter_Weather": []
  },
  "009": {
    "name": "Converse County",
    "fips": "WY",
    "pop10": "13833",
    "lat": 42.972839,
    "lon": -105.507367,
    "geoid": "56009",
    "deaths": 0,
    "prop_dmg": "25.0k",
    "crop_dmg": "5.00k",
    "inj": 1,
    "all": 2,
    "eq": [],
    "Hurricane____Typhoon___": [],
    "Cold__FWind_Chill": [],
    "Coastal_Flood": [],
    "Avalanche": [],
    "Astronomical_Low_Tide": [],
    "Dense_Fog": [],
    "Drought": [],
    "Dust_Devil": [],
    "Dust_Storm": [],
    "Excessive_Heat": [],
    "Extreme_Cold__FWind_Chill": [],
    "Flash_Flood": [],
    "Flood": [],
    "Freezing_Fog": [],
    "Funnel_Cloud": [],
    "Hail": [],
    "Heat": [],
    "Heavy_Rain": [],
    "Heavy_Snow": [],
    "High_Surf": [],
    "High_Wind": [],
    "Ice_Storm": [],
    "Lakeshore_Flood": [],
    "Landslide": [],
    "Lightning": [
      {
        "type": "Lightning",
        "time": "1530",
        "inj": "0",
        "deaths": "0",
        "prop_dmg": "0",
        "crop_dmg": "5.00k",
        "begin": "07/21/1997",
        "county": "CONVERSE CO.",
        "state": "WY"
      }
    ],
    "Rip_Current": [],
    "Seiche": [],
    "Sleet": [],
    "Storm_Surge__FTide": [],
    "Strong_Wind": [],
    "Thunderstorm_Wind": [],
    "Tornado": [
      {
        "type": "Tornado",
        "time": "1925",
        "inj": "1",
        "deaths": "0",
        "prop_dmg": "25.0k",
        "crop_dmg": "0",
        "begin": "06/05/1982",
        "county": "CONVERSE CO.",
        "state": "WY"
      }
    ],
    "Tropical_Depression": [],
    "Tropical_Storm": [],
    "Tsunami": [],
    "Volcanic_Ashfall": [],
    "Waterspout": [],
    "Wildfire": [],
    "Winter_Storm": [],
    "Winter_Weather": []
  },
  "011": {
    "name": "Crook County",
    "fips": "WY",
    "pop10": "7083",
    "lat": 44.589266,
    "lon": -104.567298,
    "geoid": "56011",
    "deaths": 0,
    "prop_dmg": "1.53M",
    "crop_dmg": 0,
    "inj": 5,
    "all": 17,
    "eq": [],
    "Hurricane____Typhoon___": [],
    "Cold__FWind_Chill": [],
    "Coastal_Flood": [],
    "Avalanche": [],
    "Astronomical_Low_Tide": [],
    "Dense_Fog": [],
    "Drought": [],
    "Dust_Devil": [],
    "Dust_Storm": [],
    "Excessive_Heat": [],
    "Extreme_Cold__FWind_Chill": [],
    "Flash_Flood": [],
    "Flood": [
      {
        "type": "Flood",
        "time": "700",
        "inj": "0",
        "deaths": "0",
        "prop_dmg": "100k",
        "crop_dmg": "0",
        "begin": "06/05/2008",
        "county": "CROOK CO.",
        "state": "WY"
      },
      {
        "type": "Flood",
        "time": "0",
        "inj": "0",
        "deaths": "0",
        "prop_dmg": "100k",
        "crop_dmg": "0",
        "begin": "06/01/2013",
        "county": "CROOK CO.",
        "state": "WY"
      }
    ],
    "Freezing_Fog": [],
    "Funnel_Cloud": [],
    "Hail": [],
    "Heat": [],
    "Heavy_Rain": [
      {
        "type": "Heavy+Rain",
        "time": "1300",
        "inj": "0",
        "deaths": "0",
        "prop_dmg": "3.50k",
        "crop_dmg": "0",
        "begin": "08/03/2011",
        "county": "CROOK CO.",
        "state": "WY"
      }
    ],
    "Heavy_Snow": [],
    "High_Surf": [],
    "High_Wind": [],
    "Ice_Storm": [],
    "Lakeshore_Flood": [],
    "Landslide": [],
    "Lightning": [
      {
        "type": "Lightning",
        "time": "1430",
        "inj": "2",
        "deaths": "0",
        "prop_dmg": "0",
        "crop_dmg": "0",
        "begin": "07/08/2001",
        "county": "CROOK CO.",
        "state": "WY"
      },
      {
        "type": "Lightning",
        "time": "1430",
        "inj": "0",
        "deaths": "0",
        "prop_dmg": "250k",
        "crop_dmg": "0",
        "begin": "07/09/2001",
        "county": "CROOK CO.",
        "state": "WY"
      }
    ],
    "Rip_Current": [],
    "Seiche": [],
    "Sleet": [],
    "Storm_Surge__FTide": [],
    "Strong_Wind": [],
    "Thunderstorm_Wind": [],
    "Tornado": [
      {
        "type": "Tornado",
        "time": "1700",
        "inj": "0",
        "deaths": "0",
        "prop_dmg": "25.0k",
        "crop_dmg": "0",
        "begin": "06/25/1959",
        "county": "CROOK CO.",
        "state": "WY"
      },
      {
        "type": "Tornado",
        "time": "2300",
        "inj": "0",
        "deaths": "0",
        "prop_dmg": "25.0k",
        "crop_dmg": "0",
        "begin": "05/18/1961",
        "county": "CROOK CO.",
        "state": "WY"
      },
      {
        "type": "Tornado",
        "time": "1840",
        "inj": "0",
        "deaths": "0",
        "prop_dmg": "250k",
        "crop_dmg": "0",
        "begin": "07/12/1965",
        "county": "CROOK CO.",
        "state": "WY"
      },
      {
        "type": "Tornado",
        "time": "1815",
        "inj": "0",
        "deaths": "0",
        "prop_dmg": "25.0k",
        "crop_dmg": "0",
        "begin": "06/25/1975",
        "county": "CROOK CO.",
        "state": "WY"
      },
      {
        "type": "Tornado",
        "time": "1900",
        "inj": "0",
        "deaths": "0",
        "prop_dmg": "25.0k",
        "crop_dmg": "0",
        "begin": "05/31/1984",
        "county": "CROOK CO.",
        "state": "WY"
      },
      {
        "type": "Tornado",
        "time": "1830",
        "inj": "0",
        "deaths": "0",
        "prop_dmg": "2.50k",
        "crop_dmg": "0",
        "begin": "05/10/1985",
        "county": "CROOK CO.",
        "state": "WY"
      },
      {
        "type": "Tornado",
        "time": "1710",
        "inj": "2",
        "deaths": "0",
        "prop_dmg": "300k",
        "crop_dmg": "0",
        "begin": "07/13/2009",
        "county": "CROOK CO.",
        "state": "WY"
      },
      {
        "type": "Tornado",
        "time": "1541",
        "inj": "1",
        "deaths": "0",
        "prop_dmg": "100k",
        "crop_dmg": "0",
        "begin": "06/13/2014",
        "county": "CROOK CO.",
        "state": "WY"
      }
    ],
    "Tropical_Depression": [],
    "Tropical_Storm": [],
    "Tsunami": [],
    "Volcanic_Ashfall": [],
    "Waterspout": [],
    "Wildfire": [],
    "Winter_Storm": [
      {
        "type": "Winter+Storm",
        "time": "400",
        "inj": "0",
        "deaths": "0",
        "prop_dmg": "2.00k",
        "crop_dmg": "0",
        "begin": "10/26/1996",
        "county": "WYOMING BLACK HILLS ",
        "state": "WY"
      },
      {
        "type": "Winter+Storm",
        "time": "400",
        "inj": "0",
        "deaths": "0",
        "prop_dmg": "25.0k",
        "crop_dmg": "0",
        "begin": "10/26/1996",
        "county": "MOORCROFT ",
        "state": "WY"
      },
      {
        "type": "Winter+Storm",
        "time": "1600",
        "inj": "0",
        "deaths": "0",
        "prop_dmg": "200k",
        "crop_dmg": "0",
        "begin": "10/04/2005",
        "county": "WYOMING BLACK HILLS ",
        "state": "WY"
      },
      {
        "type": "Winter+Storm",
        "time": "1700",
        "inj": "0",
        "deaths": "0",
        "prop_dmg": "100k",
        "crop_dmg": "0",
        "begin": "10/04/2005",
        "county": "WESTERN CROOK ",
        "state": "WY"
      }
    ],
    "Winter_Weather": []
  },
  "013": {
    "name": "Fremont County",
    "fips": "WY",
    "pop10": "40123",
    "lat": 43.055303,
    "lon": -108.605531,
    "geoid": "56013",
    "deaths": 0,
    "prop_dmg": "16.4M",
    "crop_dmg": "790k",
    "inj": 13,
    "all": 19,
    "eq": [],
    "Hurricane____Typhoon___": [],
    "Cold__FWind_Chill": [],
    "Coastal_Flood": [],
    "Avalanche": [],
    "Astronomical_Low_Tide": [],
    "Dense_Fog": [],
    "Drought": [],
    "Dust_Devil": [],
    "Dust_Storm": [],
    "Excessive_Heat": [],
    "Extreme_Cold__FWind_Chill": [],
    "Flash_Flood": [],
    "Flood": [
      {
        "type": "Flood",
        "time": "0",
        "inj": "0",
        "deaths": "0",
        "prop_dmg": "25.0k",
        "crop_dmg": "0",
        "begin": "06/05/2008",
        "county": "FREMONT CO.",
        "state": "WY"
      },
      {
        "type": "Flood",
        "time": "2200",
        "inj": "0",
        "deaths": "0",
        "prop_dmg": "12.0M",
        "crop_dmg": "0",
        "begin": "06/04/2010",
        "county": "FREMONT CO.",
        "state": "WY"
      },
      {
        "type": "Flood",
        "time": "145",
        "inj": "0",
        "deaths": "0",
        "prop_dmg": "415k",
        "crop_dmg": "250k",
        "begin": "06/24/2011",
        "county": "FREMONT CO.",
        "state": "WY"
      },
      {
        "type": "Flood",
        "time": "0",
        "inj": "0",
        "deaths": "0",
        "prop_dmg": "100k",
        "crop_dmg": "500k",
        "begin": "07/01/2011",
        "county": "FREMONT CO.",
        "state": "WY"
      }
    ],
    "Freezing_Fog": [],
    "Funnel_Cloud": [],
    "Hail": [],
    "Heat": [],
    "Heavy_Rain": [],
    "Heavy_Snow": [],
    "High_Surf": [],
    "High_Wind": [],
    "Ice_Storm": [],
    "Lakeshore_Flood": [],
    "Landslide": [],
    "Lightning": [
      {
        "type": "Lightning",
        "time": "1800",
        "inj": "0",
        "deaths": "0",
        "prop_dmg": "40.0k",
        "crop_dmg": "0",
        "begin": "07/02/2009",
        "county": "FREMONT CO.",
        "state": "WY"
      },
      {
        "type": "Lightning",
        "time": "1525",
        "inj": "0",
        "deaths": "0",
        "prop_dmg": "0",
        "crop_dmg": "40.0k",
        "begin": "08/06/2010",
        "county": "FREMONT CO.",
        "state": "WY"
      },
      {
        "type": "Lightning",
        "time": "1630",
        "inj": "0",
        "deaths": "0",
        "prop_dmg": "200k",
        "crop_dmg": "0",
        "begin": "06/13/2011",
        "county": "FREMONT CO.",
        "state": "WY"
      },
      {
        "type": "Lightning",
        "time": "1300",
        "inj": "1",
        "deaths": "0",
        "prop_dmg": "0",
        "crop_dmg": "0",
        "begin": "06/04/2012",
        "county": "FREMONT CO.",
        "state": "WY"
      }
    ],
    "Rip_Current": [],
    "Seiche": [],
    "Sleet": [],
    "Storm_Surge__FTide": [],
    "Strong_Wind": [],
    "Thunderstorm_Wind": [],
    "Tornado": [
      {
        "type": "Tornado",
        "time": "1650",
        "inj": "0",
        "deaths": "0",
        "prop_dmg": "2.50k",
        "crop_dmg": "0",
        "begin": "06/16/1962",
        "county": "FREMONT CO.",
        "state": "WY"
      },
      {
        "type": "Tornado",
        "time": "1430",
        "inj": "2",
        "deaths": "0",
        "prop_dmg": "250",
        "crop_dmg": "0",
        "begin": "06/06/1967",
        "county": "FREMONT CO.",
        "state": "WY"
      },
      {
        "type": "Tornado",
        "time": "1530",
        "inj": "0",
        "deaths": "0",
        "prop_dmg": "25.0k",
        "crop_dmg": "0",
        "begin": "08/27/1973",
        "county": "FREMONT CO.",
        "state": "WY"
      },
      {
        "type": "Tornado",
        "time": "1630",
        "inj": "0",
        "deaths": "0",
        "prop_dmg": "250k",
        "crop_dmg": "0",
        "begin": "06/07/1986",
        "county": "FREMONT CO.",
        "state": "WY"
      }
    ],
    "Tropical_Depression": [],
    "Tropical_Storm": [],
    "Tsunami": [],
    "Volcanic_Ashfall": [],
    "Waterspout": [],
    "Wildfire": [
      {
        "type": "Wildfire",
        "time": "1300",
        "inj": "0",
        "deaths": "0",
        "prop_dmg": "70.0k",
        "crop_dmg": "0",
        "begin": "07/04/2001",
        "county": "FREMONT CO.",
        "state": "WY"
      },
      {
        "type": "Wildfire",
        "time": "1300",
        "inj": "9",
        "deaths": "0",
        "prop_dmg": "1.00M",
        "crop_dmg": "0",
        "begin": "09/18/2004",
        "county": "WIND RIVER BASIN ",
        "state": "WY"
      },
      {
        "type": "Wildfire",
        "time": "1200",
        "inj": "1",
        "deaths": "0",
        "prop_dmg": "500k",
        "crop_dmg": "0",
        "begin": "04/17/2005",
        "county": "WIND RIVER BASIN ",
        "state": "WY"
      },
      {
        "type": "Wildfire",
        "time": "1325",
        "inj": "0",
        "deaths": "0",
        "prop_dmg": "65.0k",
        "crop_dmg": "0",
        "begin": "03/09/2006",
        "county": "WIND RIVER BASIN ",
        "state": "WY"
      },
      {
        "type": "Wildfire",
        "time": "900",
        "inj": "0",
        "deaths": "0",
        "prop_dmg": "1.00M",
        "crop_dmg": "0",
        "begin": "04/10/2006",
        "county": "LANDER FOOTHILLS ",
        "state": "WY"
      }
    ],
    "Winter_Storm": [
      {
        "type": "Winter+Storm",
        "time": "2000",
        "inj": "0",
        "deaths": "0",
        "prop_dmg": "500k",
        "crop_dmg": "0",
        "begin": "09/26/2013",
        "county": "WIND RIVER BASIN ",
        "state": "WY"
      },
      {
        "type": "Winter+Storm",
        "time": "1900",
        "inj": "0",
        "deaths": "0",
        "prop_dmg": "250k",
        "crop_dmg": "0",
        "begin": "09/26/2013",
        "county": "LANDER FOOTHILLS ",
        "state": "WY"
      }
    ],
    "Winter_Weather": []
  },
  "015": {
    "name": "Goshen County",
    "fips": "WY",
    "pop10": "13249",
    "lat": 42.08958,
    "lon": -104.353482,
    "geoid": "56015",
    "deaths": 0,
    "prop_dmg": "310k",
    "crop_dmg": 0,
    "inj": 0,
    "all": 6,
    "eq": [],
    "Hurricane____Typhoon___": [],
    "Cold__FWind_Chill": [],
    "Coastal_Flood": [],
    "Avalanche": [],
    "Astronomical_Low_Tide": [],
    "Dense_Fog": [],
    "Drought": [],
    "Dust_Devil": [],
    "Dust_Storm": [],
    "Excessive_Heat": [],
    "Extreme_Cold__FWind_Chill": [],
    "Flash_Flood": [],
    "Flood": [],
    "Freezing_Fog": [],
    "Funnel_Cloud": [],
    "Hail": [],
    "Heat": [],
    "Heavy_Rain": [],
    "Heavy_Snow": [],
    "High_Surf": [],
    "High_Wind": [],
    "Ice_Storm": [],
    "Lakeshore_Flood": [],
    "Landslide": [],
    "Lightning": [],
    "Rip_Current": [],
    "Seiche": [],
    "Sleet": [],
    "Storm_Surge__FTide": [],
    "Strong_Wind": [],
    "Thunderstorm_Wind": [],
    "Tornado": [
      {
        "type": "Tornado",
        "time": "2100",
        "inj": "0",
        "deaths": "0",
        "prop_dmg": "30.0",
        "crop_dmg": "0",
        "begin": "06/26/1955",
        "county": "GOSHEN CO.",
        "state": "WY"
      },
      {
        "type": "Tornado",
        "time": "1500",
        "inj": "0",
        "deaths": "0",
        "prop_dmg": "250",
        "crop_dmg": "0",
        "begin": "08/21/1960",
        "county": "GOSHEN CO.",
        "state": "WY"
      },
      {
        "type": "Tornado",
        "time": "1900",
        "inj": "0",
        "deaths": "0",
        "prop_dmg": "25.0k",
        "crop_dmg": "0",
        "begin": "06/14/1963",
        "county": "GOSHEN CO.",
        "state": "WY"
      },
      {
        "type": "Tornado",
        "time": "1800",
        "inj": "0",
        "deaths": "0",
        "prop_dmg": "25.0k",
        "crop_dmg": "0",
        "begin": "04/12/1967",
        "county": "GOSHEN CO.",
        "state": "WY"
      },
      {
        "type": "Tornado",
        "time": "1930",
        "inj": "0",
        "deaths": "0",
        "prop_dmg": "250k",
        "crop_dmg": "0",
        "begin": "07/28/1978",
        "county": "GOSHEN CO.",
        "state": "WY"
      },
      {
        "type": "Tornado",
        "time": "1507",
        "inj": "0",
        "deaths": "0",
        "prop_dmg": "10.0k",
        "crop_dmg": "0",
        "begin": "06/05/2009",
        "county": "GOSHEN CO.",
        "state": "WY"
      }
    ],
    "Tropical_Depression": [],
    "Tropical_Storm": [],
    "Tsunami": [],
    "Volcanic_Ashfall": [],
    "Waterspout": [],
    "Wildfire": [],
    "Winter_Storm": [],
    "Winter_Weather": []
  },
  "017": {
    "name": "Hot Springs County",
    "fips": "WY",
    "pop10": "4812",
    "lat": 43.720871,
    "lon": -108.435652,
    "geoid": "56017",
    "deaths": 1,
    "prop_dmg": 0,
    "crop_dmg": 0,
    "inj": 1,
    "all": 1,
    "eq": [],
    "Hurricane____Typhoon___": [],
    "Cold__FWind_Chill": [],
    "Coastal_Flood": [],
    "Avalanche": [],
    "Astronomical_Low_Tide": [],
    "Dense_Fog": [],
    "Drought": [],
    "Dust_Devil": [],
    "Dust_Storm": [],
    "Excessive_Heat": [],
    "Extreme_Cold__FWind_Chill": [],
    "Flash_Flood": [],
    "Flood": [],
    "Freezing_Fog": [],
    "Funnel_Cloud": [],
    "Hail": [],
    "Heat": [],
    "Heavy_Rain": [],
    "Heavy_Snow": [],
    "High_Surf": [],
    "High_Wind": [],
    "Ice_Storm": [],
    "Lakeshore_Flood": [],
    "Landslide": [],
    "Lightning": [],
    "Rip_Current": [],
    "Seiche": [],
    "Sleet": [],
    "Storm_Surge__FTide": [],
    "Strong_Wind": [],
    "Thunderstorm_Wind": [],
    "Tornado": [],
    "Tropical_Depression": [],
    "Tropical_Storm": [],
    "Tsunami": [],
    "Volcanic_Ashfall": [],
    "Waterspout": [],
    "Wildfire": [
      {
        "type": "Wildfire",
        "time": "900",
        "inj": "1",
        "deaths": "1",
        "prop_dmg": "0",
        "crop_dmg": "0",
        "begin": "08/07/2000",
        "county": "HOT SPRINGS CO.",
        "state": "WY"
      }
    ],
    "Winter_Storm": [],
    "Winter_Weather": []
  },
  "019": {
    "name": "Johnson County",
    "fips": "WY",
    "pop10": "8569",
    "lat": 44.044048,
    "lon": -106.588541,
    "geoid": "56019",
    "deaths": 2,
    "prop_dmg": "65.0k",
    "crop_dmg": 0,
    "inj": 0,
    "all": 2,
    "eq": [],
    "Hurricane____Typhoon___": [],
    "Cold__FWind_Chill": [],
    "Coastal_Flood": [],
    "Avalanche": [],
    "Astronomical_Low_Tide": [],
    "Dense_Fog": [],
    "Drought": [],
    "Dust_Devil": [],
    "Dust_Storm": [],
    "Excessive_Heat": [],
    "Extreme_Cold__FWind_Chill": [],
    "Flash_Flood": [],
    "Flood": [],
    "Freezing_Fog": [],
    "Funnel_Cloud": [],
    "Hail": [],
    "Heat": [],
    "Heavy_Rain": [],
    "Heavy_Snow": [],
    "High_Surf": [],
    "High_Wind": [],
    "Ice_Storm": [],
    "Lakeshore_Flood": [],
    "Landslide": [],
    "Lightning": [],
    "Rip_Current": [],
    "Seiche": [],
    "Sleet": [],
    "Storm_Surge__FTide": [],
    "Strong_Wind": [],
    "Thunderstorm_Wind": [],
    "Tornado": [],
    "Tropical_Depression": [],
    "Tropical_Storm": [],
    "Tsunami": [],
    "Volcanic_Ashfall": [],
    "Waterspout": [],
    "Wildfire": [
      {
        "type": "Wildfire",
        "time": "1200",
        "inj": "0",
        "deaths": "0",
        "prop_dmg": "65.0k",
        "crop_dmg": "0",
        "begin": "08/22/2006",
        "county": "SOUTHEAST JOHNSON COUNTY ",
        "state": "WY"
      }
    ],
    "Winter_Storm": [
      {
        "type": "Winter+Storm",
        "time": "2100",
        "inj": "0",
        "deaths": "2",
        "prop_dmg": "0",
        "crop_dmg": "0",
        "begin": "10/29/2003",
        "county": "SOUTHEAST JOHNSON COUNTY ",
        "state": "WY"
      }
    ],
    "Winter_Weather": []
  },
  "021": {
    "name": "Laramie County",
    "fips": "WY",
    "pop10": "91738",
    "lat": 41.29283,
    "lon": -104.660395,
    "geoid": "56021",
    "deaths": 1,
    "prop_dmg": "25.1M",
    "crop_dmg": 0,
    "inj": 41,
    "all": 11,
    "eq": [],
    "Hurricane____Typhoon___": [],
    "Cold__FWind_Chill": [],
    "Coastal_Flood": [],
    "Avalanche": [],
    "Astronomical_Low_Tide": [],
    "Dense_Fog": [],
    "Drought": [],
    "Dust_Devil": [],
    "Dust_Storm": [],
    "Excessive_Heat": [],
    "Extreme_Cold__FWind_Chill": [],
    "Flash_Flood": [
      {
        "type": "Flash+Flood",
        "time": "1344",
        "inj": "0",
        "deaths": "0",
        "prop_dmg": "20.0k",
        "crop_dmg": "0",
        "begin": "07/01/2006",
        "county": "LARAMIE CO.",
        "state": "WY"
      }
    ],
    "Flood": [
      {
        "type": "Flood",
        "time": "1730",
        "inj": "0",
        "deaths": "0",
        "prop_dmg": "10.0k",
        "crop_dmg": "0",
        "begin": "07/31/1996",
        "county": "LARAMIE CO.",
        "state": "WY"
      },
      {
        "type": "Flood",
        "time": "1440",
        "inj": "0",
        "deaths": "0",
        "prop_dmg": "10.0k",
        "crop_dmg": "0",
        "begin": "08/15/1996",
        "county": "LARAMIE CO.",
        "state": "WY"
      },
      {
        "type": "Flood",
        "time": "1540",
        "inj": "0",
        "deaths": "0",
        "prop_dmg": "30.0k",
        "crop_dmg": "0",
        "begin": "08/29/1996",
        "county": "LARAMIE CO.",
        "state": "WY"
      },
      {
        "type": "Flood",
        "time": "1710",
        "inj": "0",
        "deaths": "0",
        "prop_dmg": "1.00k",
        "crop_dmg": "0",
        "begin": "08/16/1997",
        "county": "LARAMIE CO.",
        "state": "WY"
      }
    ],
    "Freezing_Fog": [],
    "Funnel_Cloud": [],
    "Hail": [],
    "Heat": [],
    "Heavy_Rain": [],
    "Heavy_Snow": [],
    "High_Surf": [],
    "High_Wind": [],
    "Ice_Storm": [],
    "Lakeshore_Flood": [],
    "Landslide": [],
    "Lightning": [],
    "Rip_Current": [],
    "Seiche": [],
    "Sleet": [],
    "Storm_Surge__FTide": [],
    "Strong_Wind": [],
    "Thunderstorm_Wind": [],
    "Tornado": [
      {
        "type": "Tornado",
        "time": "1130",
        "inj": "1",
        "deaths": "0",
        "prop_dmg": "25.0k",
        "crop_dmg": "0",
        "begin": "04/23/1960",
        "county": "LARAMIE CO.",
        "state": "WY"
      },
      {
        "type": "Tornado",
        "time": "1515",
        "inj": "0",
        "deaths": "0",
        "prop_dmg": "250",
        "crop_dmg": "0",
        "begin": "05/29/1976",
        "county": "LARAMIE CO.",
        "state": "WY"
      },
      {
        "type": "Tornado",
        "time": "1550",
        "inj": "0",
        "deaths": "0",
        "prop_dmg": "250",
        "crop_dmg": "0",
        "begin": "05/29/1976",
        "county": "LARAMIE CO.",
        "state": "WY"
      },
      {
        "type": "Tornado",
        "time": "1525",
        "inj": "40",
        "deaths": "1",
        "prop_dmg": "25.0M",
        "crop_dmg": "0",
        "begin": "07/16/1979",
        "county": "LARAMIE CO.",
        "state": "WY"
      },
      {
        "type": "Tornado",
        "time": "1655",
        "inj": "0",
        "deaths": "0",
        "prop_dmg": "2.50k",
        "crop_dmg": "0",
        "begin": "05/24/1990",
        "county": "LARAMIE CO.",
        "state": "WY"
      },
      {
        "type": "Tornado",
        "time": "1755",
        "inj": "0",
        "deaths": "0",
        "prop_dmg": "50.0k",
        "crop_dmg": "0",
        "begin": "05/18/2010",
        "county": "LARAMIE CO.",
        "state": "WY"
      }
    ],
    "Tropical_Depression": [],
    "Tropical_Storm": [],
    "Tsunami": [],
    "Volcanic_Ashfall": [],
    "Waterspout": [],
    "Wildfire": [],
    "Winter_Storm": [],
    "Winter_Weather": []
  },
  "023": {
    "name": "Lincoln County",
    "fips": "WY",
    "pop10": "18106",
    "lat": 42.228788,
    "lon": -110.679842,
    "geoid": "56023",
    "deaths": 5,
    "prop_dmg": "242k",
    "crop_dmg": 0,
    "inj": 1,
    "all": 7,
    "eq": [
      {
        "type": "earthquake",
        "begin": "2/3/1994",
        "inj": "",
        "prop_dmg": "",
        "crop_dmg": "",
        "county": "WYOMING:  AFTON",
        "state": "WY",
        "deaths": ""
      }
    ],
    "Hurricane____Typhoon___": [],
    "Cold__FWind_Chill": [],
    "Coastal_Flood": [],
    "Avalanche": [
      {
        "type": "Avalanche",
        "time": "1330",
        "inj": "0",
        "deaths": "3",
        "prop_dmg": "0",
        "crop_dmg": "0",
        "begin": "01/12/2008",
        "county": "SALT RIVER & WYOMING RANGES ",
        "state": "WY"
      },
      {
        "type": "Avalanche",
        "time": "1530",
        "inj": "1",
        "deaths": "0",
        "prop_dmg": "0",
        "crop_dmg": "0",
        "begin": "02/06/2010",
        "county": "SALT RIVER & WYOMING RANGES ",
        "state": "WY"
      },
      {
        "type": "Avalanche",
        "time": "1625",
        "inj": "0",
        "deaths": "1",
        "prop_dmg": "0",
        "crop_dmg": "0",
        "begin": "02/06/2010",
        "county": "SALT RIVER & WYOMING RANGES ",
        "state": "WY"
      },
      {
        "type": "Avalanche",
        "time": "1525",
        "inj": "0",
        "deaths": "1",
        "prop_dmg": "0",
        "crop_dmg": "0",
        "begin": "01/27/2013",
        "county": "SALT RIVER & WYOMING RANGES ",
        "state": "WY"
      }
    ],
    "Astronomical_Low_Tide": [],
    "Dense_Fog": [],
    "Drought": [],
    "Dust_Devil": [],
    "Dust_Storm": [],
    "Excessive_Heat": [],
    "Extreme_Cold__FWind_Chill": [],
    "Flash_Flood": [],
    "Flood": [
      {
        "type": "Flood",
        "time": "2000",
        "inj": "0",
        "deaths": "0",
        "prop_dmg": "167k",
        "crop_dmg": "0",
        "begin": "06/25/2011",
        "county": "LINCOLN CO.",
        "state": "WY"
      },
      {
        "type": "Flood",
        "time": "2000",
        "inj": "0",
        "deaths": "0",
        "prop_dmg": "75.0k",
        "crop_dmg": "0",
        "begin": "07/02/2011",
        "county": "LINCOLN CO.",
        "state": "WY"
      }
    ],
    "Freezing_Fog": [],
    "Funnel_Cloud": [],
    "Hail": [],
    "Heat": [],
    "Heavy_Rain": [],
    "Heavy_Snow": [],
    "High_Surf": [],
    "High_Wind": [],
    "Ice_Storm": [],
    "Lakeshore_Flood": [],
    "Landslide": [],
    "Lightning": [],
    "Rip_Current": [],
    "Seiche": [],
    "Sleet": [],
    "Storm_Surge__FTide": [],
    "Strong_Wind": [],
    "Thunderstorm_Wind": [],
    "Tornado": [],
    "Tropical_Depression": [],
    "Tropical_Storm": [],
    "Tsunami": [],
    "Volcanic_Ashfall": [],
    "Waterspout": [],
    "Wildfire": [],
    "Winter_Storm": [],
    "Winter_Weather": []
  },
  "025": {
    "name": "Natrona County",
    "fips": "WY",
    "pop10": "75450",
    "lat": 42.973641,
    "lon": -106.764877,
    "geoid": "56025",
    "deaths": 2,
    "prop_dmg": "8.79M",
    "crop_dmg": 0,
    "inj": 12,
    "all": 16,
    "eq": [],
    "Hurricane____Typhoon___": [],
    "Cold__FWind_Chill": [],
    "Coastal_Flood": [],
    "Avalanche": [
      {
        "type": "Avalanche",
        "time": "900",
        "inj": "2",
        "deaths": "0",
        "prop_dmg": "0",
        "crop_dmg": "0",
        "begin": "02/23/2008",
        "county": "CASPER MOUNTAIN ",
        "state": "WY"
      },
      {
        "type": "Avalanche",
        "time": "950",
        "inj": "1",
        "deaths": "0",
        "prop_dmg": "0",
        "crop_dmg": "0",
        "begin": "03/30/2010",
        "county": "CASPER MOUNTAIN ",
        "state": "WY"
      }
    ],
    "Astronomical_Low_Tide": [],
    "Dense_Fog": [],
    "Drought": [],
    "Dust_Devil": [
      {
        "type": "Dust+Devil",
        "time": "1620",
        "inj": "0",
        "deaths": "1",
        "prop_dmg": "1.00k",
        "crop_dmg": "0",
        "begin": "06/18/2008",
        "county": "NATRONA CO.",
        "state": "WY"
      },
      {
        "type": "Dust+Devil",
        "time": "1620",
        "inj": "0",
        "deaths": "1",
        "prop_dmg": "1.00k",
        "crop_dmg": "0",
        "begin": "06/18/2008",
        "county": "NATRONA CO.",
        "state": "WY"
      }
    ],
    "Dust_Storm": [],
    "Excessive_Heat": [],
    "Extreme_Cold__FWind_Chill": [],
    "Flash_Flood": [
      {
        "type": "Flash+Flood",
        "time": "2030",
        "inj": "0",
        "deaths": "0",
        "prop_dmg": "2.00k",
        "crop_dmg": "0",
        "begin": "06/13/2009",
        "county": "NATRONA CO.",
        "state": "WY"
      }
    ],
    "Flood": [],
    "Freezing_Fog": [],
    "Funnel_Cloud": [],
    "Hail": [],
    "Heat": [],
    "Heavy_Rain": [],
    "Heavy_Snow": [],
    "High_Surf": [],
    "High_Wind": [],
    "Ice_Storm": [],
    "Lakeshore_Flood": [],
    "Landslide": [],
    "Lightning": [
      {
        "type": "Lightning",
        "time": "1410",
        "inj": "0",
        "deaths": "0",
        "prop_dmg": "65.0k",
        "crop_dmg": "0",
        "begin": "05/08/2006",
        "county": "NATRONA CO.",
        "state": "WY"
      },
      {
        "type": "Lightning",
        "time": "1300",
        "inj": "0",
        "deaths": "0",
        "prop_dmg": "150k",
        "crop_dmg": "0",
        "begin": "05/30/2009",
        "county": "NATRONA CO.",
        "state": "WY"
      },
      {
        "type": "Lightning",
        "time": "1330",
        "inj": "0",
        "deaths": "0",
        "prop_dmg": "35.0k",
        "crop_dmg": "0",
        "begin": "08/12/2013",
        "county": "NATRONA CO.",
        "state": "WY"
      }
    ],
    "Rip_Current": [],
    "Seiche": [],
    "Sleet": [],
    "Storm_Surge__FTide": [],
    "Strong_Wind": [],
    "Thunderstorm_Wind": [],
    "Tornado": [
      {
        "type": "Tornado",
        "time": "1630",
        "inj": "4",
        "deaths": "0",
        "prop_dmg": "25.0k",
        "crop_dmg": "0",
        "begin": "06/11/1962",
        "county": "NATRONA CO.",
        "state": "WY"
      },
      {
        "type": "Tornado",
        "time": "200",
        "inj": "3",
        "deaths": "0",
        "prop_dmg": "0",
        "crop_dmg": "0",
        "begin": "05/29/1971",
        "county": "NATRONA CO.",
        "state": "WY"
      },
      {
        "type": "Tornado",
        "time": "1840",
        "inj": "1",
        "deaths": "0",
        "prop_dmg": "25.0k",
        "crop_dmg": "0",
        "begin": "07/20/1978",
        "county": "NATRONA CO.",
        "state": "WY"
      },
      {
        "type": "Tornado",
        "time": "1520",
        "inj": "0",
        "deaths": "0",
        "prop_dmg": "250k",
        "crop_dmg": "0",
        "begin": "06/18/1987",
        "county": "NATRONA CO.",
        "state": "WY"
      }
    ],
    "Tropical_Depression": [],
    "Tropical_Storm": [],
    "Tsunami": [],
    "Volcanic_Ashfall": [],
    "Waterspout": [],
    "Wildfire": [
      {
        "type": "Wildfire",
        "time": "1030",
        "inj": "0",
        "deaths": "0",
        "prop_dmg": "1.24M",
        "crop_dmg": "0",
        "begin": "08/12/2006",
        "county": "NATRONA COUNTY LOWER ELEVATIONS ",
        "state": "WY"
      },
      {
        "type": "Wildfire",
        "time": "1530",
        "inj": "0",
        "deaths": "0",
        "prop_dmg": "4.00M",
        "crop_dmg": "0",
        "begin": "09/09/2012",
        "county": "CASPER MOUNTAIN ",
        "state": "WY"
      }
    ],
    "Winter_Storm": [
      {
        "type": "Winter+Storm",
        "time": "0",
        "inj": "1",
        "deaths": "0",
        "prop_dmg": "0",
        "crop_dmg": "0",
        "begin": "02/15/2006",
        "county": "NATRONA COUNTY LOWER ELEVATIONS ",
        "state": "WY"
      },
      {
        "type": "Winter+Storm",
        "time": "1830",
        "inj": "0",
        "deaths": "0",
        "prop_dmg": "3.00M",
        "crop_dmg": "0",
        "begin": "10/03/2013",
        "county": "NATRONA COUNTY LOWER ELEVATIONS ",
        "state": "WY"
      }
    ],
    "Winter_Weather": []
  },
  "027": {
    "name": "Niobrara County",
    "fips": "WY",
    "pop10": "2484",
    "lat": 43.062159,
    "lon": -104.468373,
    "geoid": "56027",
    "deaths": 0,
    "prop_dmg": "755k",
    "crop_dmg": "3.00k",
    "inj": 4,
    "all": 4,
    "eq": [],
    "Hurricane____Typhoon___": [],
    "Cold__FWind_Chill": [],
    "Coastal_Flood": [],
    "Avalanche": [],
    "Astronomical_Low_Tide": [],
    "Dense_Fog": [],
    "Drought": [],
    "Dust_Devil": [],
    "Dust_Storm": [],
    "Excessive_Heat": [],
    "Extreme_Cold__FWind_Chill": [],
    "Flash_Flood": [],
    "Flood": [],
    "Freezing_Fog": [],
    "Funnel_Cloud": [],
    "Hail": [],
    "Heat": [],
    "Heavy_Rain": [],
    "Heavy_Snow": [],
    "High_Surf": [],
    "High_Wind": [],
    "Ice_Storm": [],
    "Lakeshore_Flood": [],
    "Landslide": [],
    "Lightning": [
      {
        "type": "Lightning",
        "time": "2000",
        "inj": "0",
        "deaths": "0",
        "prop_dmg": "5.00k",
        "crop_dmg": "3.00k",
        "begin": "07/24/1997",
        "county": "NIOBRARA CO.",
        "state": "WY"
      }
    ],
    "Rip_Current": [],
    "Seiche": [],
    "Sleet": [],
    "Storm_Surge__FTide": [],
    "Strong_Wind": [],
    "Thunderstorm_Wind": [],
    "Tornado": [
      {
        "type": "Tornado",
        "time": "1900",
        "inj": "0",
        "deaths": "0",
        "prop_dmg": "250k",
        "crop_dmg": "0",
        "begin": "07/28/1978",
        "county": "NIOBRARA CO.",
        "state": "WY"
      },
      {
        "type": "Tornado",
        "time": "2030",
        "inj": "3",
        "deaths": "0",
        "prop_dmg": "250k",
        "crop_dmg": "0",
        "begin": "06/05/1982",
        "county": "NIOBRARA CO.",
        "state": "WY"
      },
      {
        "type": "Tornado",
        "time": "1900",
        "inj": "1",
        "deaths": "0",
        "prop_dmg": "250k",
        "crop_dmg": "0",
        "begin": "06/13/1984",
        "county": "NIOBRARA CO.",
        "state": "WY"
      }
    ],
    "Tropical_Depression": [],
    "Tropical_Storm": [],
    "Tsunami": [],
    "Volcanic_Ashfall": [],
    "Waterspout": [],
    "Wildfire": [],
    "Winter_Storm": [],
    "Winter_Weather": []
  },
  "029": {
    "name": "Park County",
    "fips": "WY",
    "pop10": "28205",
    "lat": 44.492387,
    "lon": -109.593597,
    "geoid": "56029",
    "deaths": 2,
    "prop_dmg": "1.23M",
    "crop_dmg": 0,
    "inj": 10,
    "all": 10,
    "eq": [],
    "Hurricane____Typhoon___": [],
    "Cold__FWind_Chill": [],
    "Coastal_Flood": [],
    "Avalanche": [
      {
        "type": "Avalanche",
        "time": "1500",
        "inj": "0",
        "deaths": "1",
        "prop_dmg": "0",
        "crop_dmg": "0",
        "begin": "01/02/2009",
        "county": "ABSAROKA MOUNTAINS ",
        "state": "WY"
      },
      {
        "type": "Avalanche",
        "time": "1545",
        "inj": "1",
        "deaths": "0",
        "prop_dmg": "0",
        "crop_dmg": "0",
        "begin": "02/13/2010",
        "county": "ABSAROKA MOUNTAINS ",
        "state": "WY"
      }
    ],
    "Astronomical_Low_Tide": [],
    "Dense_Fog": [],
    "Drought": [],
    "Dust_Devil": [],
    "Dust_Storm": [],
    "Excessive_Heat": [],
    "Extreme_Cold__FWind_Chill": [],
    "Flash_Flood": [],
    "Flood": [
      {
        "type": "Flood",
        "time": "1900",
        "inj": "0",
        "deaths": "0",
        "prop_dmg": "160k",
        "crop_dmg": "0",
        "begin": "06/24/2011",
        "county": "PARK CO.",
        "state": "WY"
      }
    ],
    "Freezing_Fog": [],
    "Funnel_Cloud": [],
    "Hail": [],
    "Heat": [],
    "Heavy_Rain": [],
    "Heavy_Snow": [],
    "High_Surf": [],
    "High_Wind": [],
    "Ice_Storm": [],
    "Lakeshore_Flood": [],
    "Landslide": [],
    "Lightning": [
      {
        "type": "Lightning",
        "time": "2145",
        "inj": "5",
        "deaths": "0",
        "prop_dmg": "0",
        "crop_dmg": "0",
        "begin": "08/01/2000",
        "county": "PARK CO.",
        "state": "WY"
      },
      {
        "type": "Lightning",
        "time": "1400",
        "inj": "0",
        "deaths": "0",
        "prop_dmg": "20.0k",
        "crop_dmg": "0",
        "begin": "06/16/2010",
        "county": "PARK CO.",
        "state": "WY"
      },
      {
        "type": "Lightning",
        "time": "1215",
        "inj": "0",
        "deaths": "1",
        "prop_dmg": "0",
        "crop_dmg": "0",
        "begin": "06/20/2010",
        "county": "PARK CO.",
        "state": "WY"
      },
      {
        "type": "Lightning",
        "time": "1854",
        "inj": "4",
        "deaths": "0",
        "prop_dmg": "0",
        "crop_dmg": "0",
        "begin": "06/25/2014",
        "county": "PARK CO.",
        "state": "WY"
      }
    ],
    "Rip_Current": [],
    "Seiche": [],
    "Sleet": [],
    "Storm_Surge__FTide": [],
    "Strong_Wind": [],
    "Thunderstorm_Wind": [],
    "Tornado": [
      {
        "type": "Tornado",
        "time": "1600",
        "inj": "0",
        "deaths": "0",
        "prop_dmg": "25.0k",
        "crop_dmg": "0",
        "begin": "06/26/1964",
        "county": "PARK CO.",
        "state": "WY"
      },
      {
        "type": "Tornado",
        "time": "1620",
        "inj": "0",
        "deaths": "0",
        "prop_dmg": "25.0k",
        "crop_dmg": "0",
        "begin": "07/11/1978",
        "county": "PARK CO.",
        "state": "WY"
      }
    ],
    "Tropical_Depression": [],
    "Tropical_Storm": [],
    "Tsunami": [],
    "Volcanic_Ashfall": [],
    "Waterspout": [],
    "Wildfire": [],
    "Winter_Storm": [
      {
        "type": "Winter+Storm",
        "time": "2100",
        "inj": "0",
        "deaths": "0",
        "prop_dmg": "1.00M",
        "crop_dmg": "0",
        "begin": "10/15/1998",
        "county": "YELLOWSTONE NATIONAL PARK MT ID / W PARK / N TETON ",
        "state": "WY"
      }
    ],
    "Winter_Weather": []
  },
  "031": {
    "name": "Platte County",
    "fips": "WY",
    "pop10": "8667",
    "lat": 42.130319,
    "lon": -104.960809,
    "geoid": "56031",
    "deaths": 0,
    "prop_dmg": "7.50k",
    "crop_dmg": "1.00k",
    "inj": 4,
    "all": 4,
    "eq": [],
    "Hurricane____Typhoon___": [],
    "Cold__FWind_Chill": [],
    "Coastal_Flood": [],
    "Avalanche": [],
    "Astronomical_Low_Tide": [],
    "Dense_Fog": [],
    "Drought": [],
    "Dust_Devil": [],
    "Dust_Storm": [],
    "Excessive_Heat": [],
    "Extreme_Cold__FWind_Chill": [],
    "Flash_Flood": [],
    "Flood": [
      {
        "type": "Flood",
        "time": "1300",
        "inj": "0",
        "deaths": "0",
        "prop_dmg": "5.00k",
        "crop_dmg": "0",
        "begin": "07/19/1997",
        "county": "PLATTE CO.",
        "state": "WY"
      }
    ],
    "Freezing_Fog": [],
    "Funnel_Cloud": [],
    "Hail": [],
    "Heat": [],
    "Heavy_Rain": [],
    "Heavy_Snow": [],
    "High_Surf": [],
    "High_Wind": [],
    "Ice_Storm": [],
    "Lakeshore_Flood": [],
    "Landslide": [],
    "Lightning": [
      {
        "type": "Lightning",
        "time": "2000",
        "inj": "0",
        "deaths": "0",
        "prop_dmg": "0",
        "crop_dmg": "1.00k",
        "begin": "07/24/1997",
        "county": "PLATTE CO.",
        "state": "WY"
      }
    ],
    "Rip_Current": [],
    "Seiche": [],
    "Sleet": [],
    "Storm_Surge__FTide": [],
    "Strong_Wind": [],
    "Thunderstorm_Wind": [],
    "Tornado": [
      {
        "type": "Tornado",
        "time": "1400",
        "inj": "3",
        "deaths": "0",
        "prop_dmg": "2.50k",
        "crop_dmg": "0",
        "begin": "06/27/1955",
        "county": "PLATTE CO.",
        "state": "WY"
      },
      {
        "type": "Tornado",
        "time": "1407",
        "inj": "1",
        "deaths": "0",
        "prop_dmg": "0",
        "crop_dmg": "0",
        "begin": "06/07/2012",
        "county": "PLATTE CO.",
        "state": "WY"
      }
    ],
    "Tropical_Depression": [],
    "Tropical_Storm": [],
    "Tsunami": [],
    "Volcanic_Ashfall": [],
    "Waterspout": [],
    "Wildfire": [],
    "Winter_Storm": [],
    "Winter_Weather": []
  },
  "033": {
    "name": "Sheridan County",
    "fips": "WY",
    "pop10": "29116",
    "lat": 44.781369,
    "lon": -106.881211,
    "geoid": "56033",
    "deaths": 1,
    "prop_dmg": "1.00k",
    "crop_dmg": 0,
    "inj": 0,
    "all": 2,
    "eq": [],
    "Hurricane____Typhoon___": [],
    "Cold__FWind_Chill": [],
    "Coastal_Flood": [],
    "Avalanche": [],
    "Astronomical_Low_Tide": [],
    "Dense_Fog": [],
    "Drought": [],
    "Dust_Devil": [],
    "Dust_Storm": [],
    "Excessive_Heat": [],
    "Extreme_Cold__FWind_Chill": [],
    "Flash_Flood": [],
    "Flood": [],
    "Freezing_Fog": [],
    "Funnel_Cloud": [],
    "Hail": [],
    "Heat": [],
    "Heavy_Rain": [],
    "Heavy_Snow": [
      {
        "type": "Heavy+Snow",
        "time": "600",
        "inj": "0",
        "deaths": "0",
        "prop_dmg": "1.00k",
        "crop_dmg": "0",
        "begin": "09/22/2000",
        "county": "E SHERIDAN ",
        "state": "WY"
      }
    ],
    "High_Surf": [],
    "High_Wind": [],
    "Ice_Storm": [],
    "Lakeshore_Flood": [],
    "Landslide": [],
    "Lightning": [
      {
        "type": "Lightning",
        "time": "0",
        "inj": "0",
        "deaths": "1",
        "prop_dmg": "0",
        "crop_dmg": "0",
        "begin": "07/11/2010",
        "county": "SHERIDAN CO.",
        "state": "WY"
      }
    ],
    "Rip_Current": [],
    "Seiche": [],
    "Sleet": [],
    "Storm_Surge__FTide": [],
    "Strong_Wind": [],
    "Thunderstorm_Wind": [],
    "Tornado": [],
    "Tropical_Depression": [],
    "Tropical_Storm": [],
    "Tsunami": [],
    "Volcanic_Ashfall": [],
    "Waterspout": [],
    "Wildfire": [],
    "Winter_Storm": [],
    "Winter_Weather": []
  },
  "035": {
    "name": "Sublette County",
    "fips": "WY",
    "pop10": "10247",
    "lat": 42.767928,
    "lon": -109.91617,
    "geoid": "56035",
    "deaths": 1,
    "prop_dmg": "53.0k",
    "crop_dmg": "42.0k",
    "inj": 7,
    "all": 6,
    "eq": [],
    "Hurricane____Typhoon___": [],
    "Cold__FWind_Chill": [],
    "Coastal_Flood": [],
    "Avalanche": [],
    "Astronomical_Low_Tide": [],
    "Dense_Fog": [],
    "Drought": [],
    "Dust_Devil": [],
    "Dust_Storm": [],
    "Excessive_Heat": [],
    "Extreme_Cold__FWind_Chill": [],
    "Flash_Flood": [],
    "Flood": [
      {
        "type": "Flood",
        "time": "1900",
        "inj": "0",
        "deaths": "0",
        "prop_dmg": "50.0k",
        "crop_dmg": "0",
        "begin": "07/01/2011",
        "county": "SUBLETTE CO.",
        "state": "WY"
      }
    ],
    "Freezing_Fog": [],
    "Funnel_Cloud": [],
    "Hail": [],
    "Heat": [],
    "Heavy_Rain": [],
    "Heavy_Snow": [
      {
        "type": "Heavy+Snow",
        "time": "200",
        "inj": "2",
        "deaths": "0",
        "prop_dmg": "0",
        "crop_dmg": "0",
        "begin": "11/23/2002",
        "county": "WIND RIVER MOUNTAINS WEST ",
        "state": "WY"
      }
    ],
    "High_Surf": [],
    "High_Wind": [],
    "Ice_Storm": [],
    "Lakeshore_Flood": [],
    "Landslide": [],
    "Lightning": [
      {
        "type": "Lightning",
        "time": "1400",
        "inj": "4",
        "deaths": "0",
        "prop_dmg": "0",
        "crop_dmg": "0",
        "begin": "06/08/2001",
        "county": "SUBLETTE CO.",
        "state": "WY"
      },
      {
        "type": "Lightning",
        "time": "1400",
        "inj": "1",
        "deaths": "1",
        "prop_dmg": "0",
        "crop_dmg": "0",
        "begin": "06/16/2003",
        "county": "SUBLETTE CO.",
        "state": "WY"
      },
      {
        "type": "Lightning",
        "time": "1230",
        "inj": "0",
        "deaths": "0",
        "prop_dmg": "3.00k",
        "crop_dmg": "0",
        "begin": "06/10/2009",
        "county": "SUBLETTE CO.",
        "state": "WY"
      },
      {
        "type": "Lightning",
        "time": "1700",
        "inj": "0",
        "deaths": "0",
        "prop_dmg": "0",
        "crop_dmg": "42.0k",
        "begin": "05/18/2010",
        "county": "SUBLETTE CO.",
        "state": "WY"
      }
    ],
    "Rip_Current": [],
    "Seiche": [],
    "Sleet": [],
    "Storm_Surge__FTide": [],
    "Strong_Wind": [],
    "Thunderstorm_Wind": [],
    "Tornado": [],
    "Tropical_Depression": [],
    "Tropical_Storm": [],
    "Tsunami": [],
    "Volcanic_Ashfall": [],
    "Waterspout": [],
    "Wildfire": [],
    "Winter_Storm": [],
    "Winter_Weather": []
  },
  "037": {
    "name": "Sweetwater County",
    "fips": "WY",
    "pop10": "43806",
    "lat": 41.660339,
    "lon": -108.875676,
    "geoid": "56037",
    "deaths": 0,
    "prop_dmg": "263k",
    "crop_dmg": 0,
    "inj": 1,
    "all": 4,
    "eq": [],
    "Hurricane____Typhoon___": [],
    "Cold__FWind_Chill": [],
    "Coastal_Flood": [],
    "Avalanche": [],
    "Astronomical_Low_Tide": [],
    "Dense_Fog": [],
    "Drought": [],
    "Dust_Devil": [
      {
        "type": "Dust+Devil",
        "time": "1330",
        "inj": "0",
        "deaths": "0",
        "prop_dmg": "1.00k",
        "crop_dmg": "0",
        "begin": "05/18/2008",
        "county": "SWEETWATER CO.",
        "state": "WY"
      },
      {
        "type": "Dust+Devil",
        "time": "1330",
        "inj": "0",
        "deaths": "0",
        "prop_dmg": "1.00k",
        "crop_dmg": "0",
        "begin": "05/18/2008",
        "county": "SWEETWATER CO.",
        "state": "WY"
      }
    ],
    "Dust_Storm": [],
    "Excessive_Heat": [],
    "Extreme_Cold__FWind_Chill": [],
    "Flash_Flood": [],
    "Flood": [],
    "Freezing_Fog": [],
    "Funnel_Cloud": [],
    "Hail": [],
    "Heat": [],
    "Heavy_Rain": [],
    "Heavy_Snow": [],
    "High_Surf": [],
    "High_Wind": [],
    "Ice_Storm": [],
    "Lakeshore_Flood": [],
    "Landslide": [],
    "Lightning": [
      {
        "type": "Lightning",
        "time": "1345",
        "inj": "1",
        "deaths": "0",
        "prop_dmg": "0",
        "crop_dmg": "0",
        "begin": "05/24/2014",
        "county": "SWEETWATER CO.",
        "state": "WY"
      }
    ],
    "Rip_Current": [],
    "Seiche": [],
    "Sleet": [],
    "Storm_Surge__FTide": [],
    "Strong_Wind": [],
    "Thunderstorm_Wind": [],
    "Tornado": [],
    "Tropical_Depression": [],
    "Tropical_Storm": [],
    "Tsunami": [],
    "Volcanic_Ashfall": [],
    "Waterspout": [],
    "Wildfire": [
      {
        "type": "Wildfire",
        "time": "1515",
        "inj": "0",
        "deaths": "0",
        "prop_dmg": "261k",
        "crop_dmg": "0",
        "begin": "04/13/2002",
        "county": "SWEETWATER CO.",
        "state": "WY"
      }
    ],
    "Winter_Storm": [],
    "Winter_Weather": []
  },
  "039": {
    "name": "Teton County",
    "fips": "WY",
    "pop10": "21294",
    "lat": 44.04932,
    "lon": -110.588102,
    "geoid": "56039",
    "deaths": 16,
    "prop_dmg": "2.59M",
    "crop_dmg": 0,
    "inj": 74,
    "all": 33,
    "eq": [],
    "Hurricane____Typhoon___": [],
    "Cold__FWind_Chill": [],
    "Coastal_Flood": [],
    "Avalanche": [
      {
        "type": "Avalanche",
        "time": "1320",
        "inj": "1",
        "deaths": "1",
        "prop_dmg": "0",
        "crop_dmg": "0",
        "begin": "01/05/2006",
        "county": "TETON & GROS VENTRE MOUNTAINS ",
        "state": "WY"
      },
      {
        "type": "Avalanche",
        "time": "1430",
        "inj": "1",
        "deaths": "0",
        "prop_dmg": "0",
        "crop_dmg": "0",
        "begin": "02/25/2007",
        "county": "TETON & GROS VENTRE MOUNTAINS ",
        "state": "WY"
      },
      {
        "type": "Avalanche",
        "time": "1700",
        "inj": "1",
        "deaths": "1",
        "prop_dmg": "0",
        "crop_dmg": "0",
        "begin": "03/10/2007",
        "county": "TETON & GROS VENTRE MOUNTAINS ",
        "state": "WY"
      },
      {
        "type": "Avalanche",
        "time": "1230",
        "inj": "0",
        "deaths": "3",
        "prop_dmg": "0",
        "crop_dmg": "0",
        "begin": "02/27/2009",
        "county": "TETON & GROS VENTRE MOUNTAINS ",
        "state": "WY"
      },
      {
        "type": "Avalanche",
        "time": "826",
        "inj": "0",
        "deaths": "1",
        "prop_dmg": "0",
        "crop_dmg": "0",
        "begin": "01/06/2010",
        "county": "TETON & GROS VENTRE MOUNTAINS ",
        "state": "WY"
      },
      {
        "type": "Avalanche",
        "time": "1100",
        "inj": "0",
        "deaths": "1",
        "prop_dmg": "0",
        "crop_dmg": "0",
        "begin": "02/21/2010",
        "county": "TETON & GROS VENTRE MOUNTAINS ",
        "state": "WY"
      },
      {
        "type": "Avalanche",
        "time": "1430",
        "inj": "1",
        "deaths": "0",
        "prop_dmg": "0",
        "crop_dmg": "0",
        "begin": "02/24/2011",
        "county": "TETON & GROS VENTRE MOUNTAINS ",
        "state": "WY"
      },
      {
        "type": "Avalanche",
        "time": "1020",
        "inj": "1",
        "deaths": "0",
        "prop_dmg": "0",
        "crop_dmg": "0",
        "begin": "03/15/2011",
        "county": "TETON & GROS VENTRE MOUNTAINS ",
        "state": "WY"
      },
      {
        "type": "Avalanche",
        "time": "2300",
        "inj": "0",
        "deaths": "2",
        "prop_dmg": "0",
        "crop_dmg": "0",
        "begin": "04/16/2011",
        "county": "TETON & GROS VENTRE MOUNTAINS ",
        "state": "WY"
      },
      {
        "type": "Avalanche",
        "time": "1630",
        "inj": "2",
        "deaths": "0",
        "prop_dmg": "0",
        "crop_dmg": "0",
        "begin": "05/29/2011",
        "county": "TETON & GROS VENTRE MOUNTAINS ",
        "state": "WY"
      },
      {
        "type": "Avalanche",
        "time": "1530",
        "inj": "0",
        "deaths": "1",
        "prop_dmg": "0",
        "crop_dmg": "0",
        "begin": "02/27/2012",
        "county": "TETON & GROS VENTRE MOUNTAINS ",
        "state": "WY"
      },
      {
        "type": "Avalanche",
        "time": "1200",
        "inj": "0",
        "deaths": "2",
        "prop_dmg": "0",
        "crop_dmg": "0",
        "begin": "03/07/2012",
        "county": "TETON & GROS VENTRE MOUNTAINS ",
        "state": "WY"
      },
      {
        "type": "Avalanche",
        "time": "1700",
        "inj": "0",
        "deaths": "1",
        "prop_dmg": "0",
        "crop_dmg": "0",
        "begin": "01/27/2013",
        "county": "TETON & GROS VENTRE MOUNTAINS ",
        "state": "WY"
      },
      {
        "type": "Avalanche",
        "time": "1030",
        "inj": "0",
        "deaths": "1",
        "prop_dmg": "0",
        "crop_dmg": "0",
        "begin": "03/01/2013",
        "county": "TETON & GROS VENTRE MOUNTAINS ",
        "state": "WY"
      },
      {
        "type": "Avalanche",
        "time": "1500",
        "inj": "1",
        "deaths": "0",
        "prop_dmg": "0",
        "crop_dmg": "0",
        "begin": "11/01/2013",
        "county": "TETON & GROS VENTRE MOUNTAINS ",
        "state": "WY"
      },
      {
        "type": "Avalanche",
        "time": "1630",
        "inj": "1",
        "deaths": "0",
        "prop_dmg": "0",
        "crop_dmg": "0",
        "begin": "11/10/2013",
        "county": "TETON & GROS VENTRE MOUNTAINS ",
        "state": "WY"
      },
      {
        "type": "Avalanche",
        "time": "1100",
        "inj": "1",
        "deaths": "0",
        "prop_dmg": "0",
        "crop_dmg": "0",
        "begin": "01/09/2014",
        "county": "TETON & GROS VENTRE MOUNTAINS ",
        "state": "WY"
      },
      {
        "type": "Avalanche",
        "time": "1100",
        "inj": "1",
        "deaths": "0",
        "prop_dmg": "0",
        "crop_dmg": "0",
        "begin": "01/10/2014",
        "county": "TETON & GROS VENTRE MOUNTAINS ",
        "state": "WY"
      },
      {
        "type": "Avalanche",
        "time": "1530",
        "inj": "1",
        "deaths": "0",
        "prop_dmg": "0",
        "crop_dmg": "0",
        "begin": "01/10/2014",
        "county": "TETON & GROS VENTRE MOUNTAINS ",
        "state": "WY"
      },
      {
        "type": "Avalanche",
        "time": "1545",
        "inj": "1",
        "deaths": "0",
        "prop_dmg": "0",
        "crop_dmg": "0",
        "begin": "02/01/2014",
        "county": "TETON & GROS VENTRE MOUNTAINS ",
        "state": "WY"
      },
      {
        "type": "Avalanche",
        "time": "1530",
        "inj": "0",
        "deaths": "1",
        "prop_dmg": "0",
        "crop_dmg": "0",
        "begin": "02/18/2014",
        "county": "TETON & GROS VENTRE MOUNTAINS ",
        "state": "WY"
      }
    ],
    "Astronomical_Low_Tide": [],
    "Dense_Fog": [],
    "Drought": [],
    "Dust_Devil": [],
    "Dust_Storm": [],
    "Excessive_Heat": [],
    "Extreme_Cold__FWind_Chill": [],
    "Flash_Flood": [],
    "Flood": [],
    "Freezing_Fog": [],
    "Funnel_Cloud": [],
    "Hail": [],
    "Heat": [],
    "Heavy_Rain": [],
    "Heavy_Snow": [],
    "High_Surf": [],
    "High_Wind": [],
    "Ice_Storm": [],
    "Lakeshore_Flood": [],
    "Landslide": [],
    "Lightning": [
      {
        "type": "Lightning",
        "time": "1300",
        "inj": "1",
        "deaths": "0",
        "prop_dmg": "0",
        "crop_dmg": "0",
        "begin": "07/20/1999",
        "county": "TETON CO.",
        "state": "WY"
      },
      {
        "type": "Lightning",
        "time": "1045",
        "inj": "2",
        "deaths": "0",
        "prop_dmg": "0",
        "crop_dmg": "0",
        "begin": "08/05/1999",
        "county": "TETON CO.",
        "state": "WY"
      },
      {
        "type": "Lightning",
        "time": "1537",
        "inj": "5",
        "deaths": "0",
        "prop_dmg": "0",
        "crop_dmg": "0",
        "begin": "06/22/2002",
        "county": "TETON CO.",
        "state": "WY"
      },
      {
        "type": "Lightning",
        "time": "1445",
        "inj": "5",
        "deaths": "1",
        "prop_dmg": "0",
        "crop_dmg": "0",
        "begin": "07/26/2003",
        "county": "TETON CO.",
        "state": "WY"
      },
      {
        "type": "Lightning",
        "time": "1415",
        "inj": "11",
        "deaths": "0",
        "prop_dmg": "0",
        "crop_dmg": "0",
        "begin": "06/21/2005",
        "county": "TETON CO.",
        "state": "WY"
      },
      {
        "type": "Lightning",
        "time": "1615",
        "inj": "1",
        "deaths": "0",
        "prop_dmg": "0",
        "crop_dmg": "0",
        "begin": "07/24/2007",
        "county": "TETON CO.",
        "state": "WY"
      },
      {
        "type": "Lightning",
        "time": "1430",
        "inj": "9",
        "deaths": "0",
        "prop_dmg": "0",
        "crop_dmg": "0",
        "begin": "06/01/2010",
        "county": "TETON CO.",
        "state": "WY"
      },
      {
        "type": "Lightning",
        "time": "1430",
        "inj": "9",
        "deaths": "0",
        "prop_dmg": "0",
        "crop_dmg": "0",
        "begin": "06/01/2010",
        "county": "TETON CO.",
        "state": "WY"
      },
      {
        "type": "Lightning",
        "time": "1055",
        "inj": "17",
        "deaths": "0",
        "prop_dmg": "0",
        "crop_dmg": "0",
        "begin": "07/21/2010",
        "county": "TETON CO.",
        "state": "WY"
      }
    ],
    "Rip_Current": [],
    "Seiche": [],
    "Sleet": [],
    "Storm_Surge__FTide": [],
    "Strong_Wind": [],
    "Thunderstorm_Wind": [],
    "Tornado": [
      {
        "type": "Tornado",
        "time": "1450",
        "inj": "0",
        "deaths": "0",
        "prop_dmg": "2.50M",
        "crop_dmg": "0",
        "begin": "07/21/1987",
        "county": "TETON CO.",
        "state": "WY"
      }
    ],
    "Tropical_Depression": [],
    "Tropical_Storm": [],
    "Tsunami": [],
    "Volcanic_Ashfall": [],
    "Waterspout": [],
    "Wildfire": [
      {
        "type": "Wildfire",
        "time": "1400",
        "inj": "0",
        "deaths": "0",
        "prop_dmg": "90.0k",
        "crop_dmg": "0",
        "begin": "09/08/2012",
        "county": "TETON & GROS VENTRE MOUNTAINS ",
        "state": "WY"
      }
    ],
    "Winter_Storm": [
      {
        "type": "Winter+Storm",
        "time": "1200",
        "inj": "1",
        "deaths": "0",
        "prop_dmg": "0",
        "crop_dmg": "0",
        "begin": "08/29/2003",
        "county": "TETON & GROS VENTRE MOUNTAINS ",
        "state": "WY"
      }
    ],
    "Winter_Weather": []
  },
  "041": {
    "name": "Uinta County",
    "fips": "WY",
    "pop10": "21118",
    "lat": 41.284726,
    "lon": -110.558947,
    "geoid": "56041",
    "deaths": 0,
    "prop_dmg": "18.0k",
    "crop_dmg": 0,
    "inj": 0,
    "all": 3,
    "eq": [],
    "Hurricane____Typhoon___": [],
    "Cold__FWind_Chill": [],
    "Coastal_Flood": [],
    "Avalanche": [],
    "Astronomical_Low_Tide": [],
    "Dense_Fog": [],
    "Drought": [],
    "Dust_Devil": [],
    "Dust_Storm": [],
    "Excessive_Heat": [],
    "Extreme_Cold__FWind_Chill": [],
    "Flash_Flood": [],
    "Flood": [
      {
        "type": "Flood",
        "time": "2200",
        "inj": "0",
        "deaths": "0",
        "prop_dmg": "10.0k",
        "crop_dmg": "0",
        "begin": "06/06/2010",
        "county": "UINTA CO.",
        "state": "WY"
      }
    ],
    "Freezing_Fog": [],
    "Funnel_Cloud": [],
    "Hail": [],
    "Heat": [],
    "Heavy_Rain": [],
    "Heavy_Snow": [],
    "High_Surf": [],
    "High_Wind": [],
    "Ice_Storm": [],
    "Lakeshore_Flood": [],
    "Landslide": [],
    "Lightning": [],
    "Rip_Current": [],
    "Seiche": [],
    "Sleet": [],
    "Storm_Surge__FTide": [],
    "Strong_Wind": [],
    "Thunderstorm_Wind": [],
    "Tornado": [
      {
        "type": "Tornado",
        "time": "1300",
        "inj": "0",
        "deaths": "0",
        "prop_dmg": "30.0",
        "crop_dmg": "0",
        "begin": "05/10/1950",
        "county": "UINTA CO.",
        "state": "WY"
      }
    ],
    "Tropical_Depression": [],
    "Tropical_Storm": [],
    "Tsunami": [],
    "Volcanic_Ashfall": [],
    "Waterspout": [],
    "Wildfire": [],
    "Winter_Storm": [
      {
        "type": "Winter+Storm",
        "time": "1700",
        "inj": "0",
        "deaths": "0",
        "prop_dmg": "8.00k",
        "crop_dmg": "0",
        "begin": "10/11/2008",
        "county": "UINTA ",
        "state": "WY"
      }
    ],
    "Winter_Weather": []
  },
  "043": {
    "name": "Washakie County",
    "fips": "WY",
    "pop10": "8533",
    "lat": 43.878831,
    "lon": -107.669052,
    "geoid": "56043",
    "deaths": 3,
    "prop_dmg": "415k",
    "crop_dmg": 0,
    "inj": 0,
    "all": 7,
    "eq": [],
    "Hurricane____Typhoon___": [],
    "Cold__FWind_Chill": [],
    "Coastal_Flood": [],
    "Avalanche": [
      {
        "type": "Avalanche",
        "time": "800",
        "inj": "0",
        "deaths": "1",
        "prop_dmg": "0",
        "crop_dmg": "0",
        "begin": "12/01/2000",
        "county": "TETON/MOUTAINS ",
        "state": "WY"
      },
      {
        "type": "Avalanche",
        "time": "1700",
        "inj": "0",
        "deaths": "1",
        "prop_dmg": "0",
        "crop_dmg": "0",
        "begin": "02/06/2001",
        "county": "TETON/MOUTAINS / TETON EXCEPT N AND SC ",
        "state": "WY"
      },
      {
        "type": "Avalanche",
        "time": "1830",
        "inj": "0",
        "deaths": "1",
        "prop_dmg": "0",
        "crop_dmg": "0",
        "begin": "02/23/2001",
        "county": "TETON/MOUTAINS / TETON EXCEPT N AND SC ",
        "state": "WY"
      }
    ],
    "Astronomical_Low_Tide": [],
    "Dense_Fog": [],
    "Drought": [],
    "Dust_Devil": [],
    "Dust_Storm": [],
    "Excessive_Heat": [],
    "Extreme_Cold__FWind_Chill": [],
    "Flash_Flood": [],
    "Flood": [
      {
        "type": "Flood",
        "time": "0",
        "inj": "0",
        "deaths": "0",
        "prop_dmg": "15.0k",
        "crop_dmg": "0",
        "begin": "06/24/2011",
        "county": "WASHAKIE CO.",
        "state": "WY"
      },
      {
        "type": "Flood",
        "time": "1800",
        "inj": "0",
        "deaths": "0",
        "prop_dmg": "100k",
        "crop_dmg": "0",
        "begin": "06/29/2011",
        "county": "WASHAKIE CO.",
        "state": "WY"
      },
      {
        "type": "Flood",
        "time": "645",
        "inj": "0",
        "deaths": "0",
        "prop_dmg": "250k",
        "crop_dmg": "0",
        "begin": "03/07/2014",
        "county": "WASHAKIE CO.",
        "state": "WY"
      },
      {
        "type": "Flood",
        "time": "1100",
        "inj": "0",
        "deaths": "0",
        "prop_dmg": "50.0k",
        "crop_dmg": "0",
        "begin": "03/07/2014",
        "county": "WASHAKIE CO.",
        "state": "WY"
      }
    ],
    "Freezing_Fog": [],
    "Funnel_Cloud": [],
    "Hail": [],
    "Heat": [],
    "Heavy_Rain": [],
    "Heavy_Snow": [],
    "High_Surf": [],
    "High_Wind": [],
    "Ice_Storm": [],
    "Lakeshore_Flood": [],
    "Landslide": [],
    "Lightning": [],
    "Rip_Current": [],
    "Seiche": [],
    "Sleet": [],
    "Storm_Surge__FTide": [],
    "Strong_Wind": [],
    "Thunderstorm_Wind": [],
    "Tornado": [],
    "Tropical_Depression": [],
    "Tropical_Storm": [],
    "Tsunami": [],
    "Volcanic_Ashfall": [],
    "Waterspout": [],
    "Wildfire": [],
    "Winter_Storm": [],
    "Winter_Weather": []
  },
  "045": {
    "name": "Weston County",
    "fips": "WY",
    "pop10": "7208",
    "lat": 43.846213,
    "lon": -104.57002,
    "geoid": "56045",
    "deaths": 0,
    "prop_dmg": "87.5k",
    "crop_dmg": 0,
    "inj": 0,
    "all": 6,
    "eq": [],
    "Hurricane____Typhoon___": [],
    "Cold__FWind_Chill": [],
    "Coastal_Flood": [],
    "Avalanche": [],
    "Astronomical_Low_Tide": [],
    "Dense_Fog": [],
    "Drought": [],
    "Dust_Devil": [],
    "Dust_Storm": [],
    "Excessive_Heat": [],
    "Extreme_Cold__FWind_Chill": [],
    "Flash_Flood": [
      {
        "type": "Flash+Flood",
        "time": "1530",
        "inj": "0",
        "deaths": "0",
        "prop_dmg": "5.00k",
        "crop_dmg": "0",
        "begin": "07/17/2012",
        "county": "WESTON CO.",
        "state": "WY"
      },
      {
        "type": "Flash+Flood",
        "time": "1430",
        "inj": "0",
        "deaths": "0",
        "prop_dmg": "25.0k",
        "crop_dmg": "0",
        "begin": "06/21/2013",
        "county": "WESTON CO.",
        "state": "WY"
      }
    ],
    "Flood": [],
    "Freezing_Fog": [],
    "Funnel_Cloud": [],
    "Hail": [],
    "Heat": [],
    "Heavy_Rain": [],
    "Heavy_Snow": [],
    "High_Surf": [],
    "High_Wind": [],
    "Ice_Storm": [],
    "Lakeshore_Flood": [],
    "Landslide": [],
    "Lightning": [],
    "Rip_Current": [],
    "Seiche": [],
    "Sleet": [],
    "Storm_Surge__FTide": [],
    "Strong_Wind": [],
    "Thunderstorm_Wind": [],
    "Tornado": [
      {
        "type": "Tornado",
        "time": "2000",
        "inj": "0",
        "deaths": "0",
        "prop_dmg": "2.50k",
        "crop_dmg": "0",
        "begin": "05/28/1953",
        "county": "WESTON CO.",
        "state": "WY"
      },
      {
        "type": "Tornado",
        "time": "2100",
        "inj": "0",
        "deaths": "0",
        "prop_dmg": "25.0k",
        "crop_dmg": "0",
        "begin": "06/12/1958",
        "county": "WESTON CO.",
        "state": "WY"
      },
      {
        "type": "Tornado",
        "time": "1600",
        "inj": "0",
        "deaths": "0",
        "prop_dmg": "25.0k",
        "crop_dmg": "0",
        "begin": "07/02/1964",
        "county": "WESTON CO.",
        "state": "WY"
      }
    ],
    "Tropical_Depression": [],
    "Tropical_Storm": [],
    "Tsunami": [],
    "Volcanic_Ashfall": [],
    "Waterspout": [],
    "Wildfire": [],
    "Winter_Storm": [
      {
        "type": "Winter+Storm",
        "time": "400",
        "inj": "0",
        "deaths": "0",
        "prop_dmg": "5.00k",
        "crop_dmg": "0",
        "begin": "10/26/1996",
        "county": "WESTON ",
        "state": "WY"
      }
    ],
    "Winter_Weather": []
  }
}